rosbagTimestamp,header,seq,stamp,secs,nsecs,frame_id,child_frame_id,pose,pose,position,x,y,z,orientation,x,y,z,w,covariance,twist,twist,linear,x,y,z,angular,x,y,z,covariance
8763000000,,62,,8,763000000,turtlebot2/odom,turtlebot2/base_footprint_self,,,,2.30001853457e-05,0.0,0.0,,0.0,0.0,0.0,1.0,"[0.06330574515508712, 0.0, 0.0, 0.0, 0.0, 0.0, 0.0, 0.06327073267932164, 0.0, 0.0, 0.0, 9.042927150849008e-07, 0.0, 0.0, 9.998413204912212e-07, 0.0, -8.37937524906367e-20, 0.0, 0.0, 0.0, 0.0, 9.99682742201988e-07, 0.0, 0.0, 0.0, 0.0, -8.37937524906367e-20, 0.0, 9.99682742201988e-07, 0.0, 0.0, 9.042927150849008e-07, 0.0, 0.0, 0.0, 0.07590100028321226]",,,,1.69523077977e-05,0.0,0.0,,0.0,0.0,0.0,"[0.00018145945500773822, 0.0, 0.0, 0.0, 0.0, 0.0, 0.0, 9.999996346135658e-10, 0.0, 0.0, 0.0, 0.0, 0.0, 0.0, 9.99762018700689e-07, 0.0, -2.098183011659749e-28, 0.0, 0.0, 0.0, 0.0, 9.990494290449319e-07, 0.0, 0.0, 0.0, 0.0, -2.0981830116597477e-28, 0.0, 9.990494290449319e-07, 0.0, 0.0, 0.0, 0.0, 0.0, 0.0, 9.999995238099773e-10]"
8863000000,,63,,8,863000000,turtlebot2/odom,turtlebot2/base_footprint_self,,,,2.30001853457e-05,0.0,0.0,,0.0,0.0,0.0,1.0,"[0.06330574515508712, 0.0, 0.0, 0.0, 0.0, 0.0, 0.0, 0.06327073267932164, 0.0, 0.0, 0.0, 9.042927150849008e-07, 0.0, 0.0, 9.998413204912212e-07, 0.0, -8.37937524906367e-20, 0.0, 0.0, 0.0, 0.0, 9.99682742201988e-07, 0.0, 0.0, 0.0, 0.0, -8.37937524906367e-20, 0.0, 9.99682742201988e-07, 0.0, 0.0, 9.042927150849008e-07, 0.0, 0.0, 0.0, 0.07590100028321226]",,,,1.69523077977e-05,0.0,0.0,,0.0,0.0,0.0,"[0.00018145945500773822, 0.0, 0.0, 0.0, 0.0, 0.0, 0.0, 9.999996346135658e-10, 0.0, 0.0, 0.0, 0.0, 0.0, 0.0, 9.99762018700689e-07, 0.0, -2.098183011659749e-28, 0.0, 0.0, 0.0, 0.0, 9.990494290449319e-07, 0.0, 0.0, 0.0, 0.0, -2.0981830116597477e-28, 0.0, 9.990494290449319e-07, 0.0, 0.0, 0.0, 0.0, 0.0, 0.0, 9.999995238099773e-10]"
8963000000,,64,,8,963000000,turtlebot2/odom,turtlebot2/base_footprint_self,,,,2.62183379891e-05,0.0,0.0,,0.0,0.0,0.0,1.0,"[0.07061760826399545, 0.0, 0.0, 0.0, 0.0, 0.0, 0.0, 0.07057855596836163, 0.0, 0.0, 0.0, 1.0907808079228343e-06, 0.0, 0.0, 9.99885871082699e-07, 0.0, -6.397157836706713e-20, 0.0, 0.0, 0.0, 0.0, 9.99771794793263e-07, 0.0, 0.0, 0.0, 0.0, -6.397157836706712e-20, 0.0, 9.99771794793263e-07, 0.0, 0.0, 1.0907808079228343e-06, 0.0, 0.0, 0.0, 0.08466100030452829]",,,,4.69976366418e-05,0.0,0.0,,0.0,0.0,0.0,"[0.00025193630984879974, 0.0, 0.0, 0.0, 0.0, 0.0, 0.0, 9.999997422519353e-10, 0.0, 0.0, 0.0, 0.0, 0.0, 0.0, 9.998288263614515e-07, 0.0, -1.6101025638494779e-28, 0.0, 0.0, 0.0, 0.0, 9.99316005024961e-07, 0.0, 0.0, 0.0, 0.0, -1.6101025638494779e-28, 0.0, 9.99316005024961e-07, 0.0, 0.0, 0.0, 0.0, 0.0, 0.0, 9.999996575344813e-10]"
9063000000,,65,,9,63000000,turtlebot2/odom,turtlebot2/base_footprint_self,,,,3.21248763041e-05,0.0,0.0,,0.0,0.0,0.0,1.0,"[0.0780828804120488, 0.0, 0.0, 0.0, 0.0, 0.0, 0.0, 0.07803820877809671, 0.0, 0.0, 0.0, 1.6935326823772741e-06, 0.0, 0.0, 9.998881684727047e-07, 0.0, -1.779985195549992e-19, 0.0, 0.0, 0.0, 0.0, 9.997763875014924e-07, 0.0, 0.0, 0.0, 0.0, -1.7799851955499914e-19, 0.0, 9.997763875014924e-07, 0.0, 0.0, 1.6935326823772741e-06, 0.0, 0.0, 0.0, 0.09360100032672924]",,,,9.69756355398e-06,0.0,0.0,,0.0,0.0,0.0,"[0.00025749301370282574, 0.0, 0.0, 0.0, 0.0, 0.0, 0.0, 9.999997489039178e-10, 0.0, 0.0, 0.0, 0.0, 0.0, 0.0, 9.99832271669111e-07, 0.0, -4.484861441060144e-28, 0.0, 0.0, 0.0, 0.0, 9.993297584036428e-07, 0.0, 0.0, 0.0, 0.0, -4.484861441060145e-28, 0.0, 9.993297584036428e-07, 0.0, 0.0, 0.0, 0.0, 0.0, 0.0, 9.999996644297555e-10]"
9163000000,,66,,9,163000000,turtlebot2/odom,turtlebot2/base_footprint_self,,,,2.93205163069e-05,0.0,0.0,,0.0,0.0,0.0,1.0,"[0.08308991120276575, 0.0, 0.0, 0.0, 0.0, 0.0, 0.0, 0.0830425766023844, 0.0, 0.0, 0.0, 1.7814001523397622e-06, 0.0, 0.0, 9.99833389145441e-07, 0.0, -5.2088491746642874e-20, 0.0, 0.0, 0.0, 0.0, 9.99666889823805e-07, 0.0, 0.0, 0.0, 0.0, -5.208849174664289e-20, 0.0, 9.99666889823805e-07, 0.0, 0.0, 1.7814001523397622e-06, 0.0, 0.0, 0.0, 0.09960100033672922]",,,,-0.000104841515995,0.0,0.0,,0.0,0.0,0.0,"[0.0001729490828705527, 0.0, 0.0, 0.0, 0.0, 0.0, 0.0, 9.999996188157266e-10, 0.0, 0.0, 0.0, 0.0, 0.0, 0.0, 9.997501255506332e-07, 0.0, -1.3034841424610367e-28, 0.0, 0.0, 0.0, 0.0, 9.990019953371013e-07, 0.0, 0.0, 0.0, 0.0, -1.3034841424610369e-28, 0.0, 9.990019953371013e-07, 0.0, 0.0, 0.0, 0.0, 0.0, 0.0, 9.999995000005e-10]"
9263000000,,67,,9,263000000,turtlebot2/odom,turtlebot2/base_footprint_self,,,,2.93205163069e-05,0.0,0.0,,0.0,0.0,0.0,1.0,"[0.08308991120276575, 0.0, 0.0, 0.0, 0.0, 0.0, 0.0, 0.0830425766023844, 0.0, 0.0, 0.0, 1.7814001523397622e-06, 0.0, 0.0, 9.99833389145441e-07, 0.0, -5.2088491746642874e-20, 0.0, 0.0, 0.0, 0.0, 9.99666889823805e-07, 0.0, 0.0, 0.0, 0.0, -5.208849174664289e-20, 0.0, 9.99666889823805e-07, 0.0, 0.0, 1.7814001523397622e-06, 0.0, 0.0, 0.0, 0.09960100033672922]",,,,-0.000104841515995,0.0,0.0,,0.0,0.0,0.0,"[0.0001729490828705527, 0.0, 0.0, 0.0, 0.0, 0.0, 0.0, 9.999996188157266e-10, 0.0, 0.0, 0.0, 0.0, 0.0, 0.0, 9.997501255506332e-07, 0.0, -1.3034841424610367e-28, 0.0, 0.0, 0.0, 0.0, 9.990019953371013e-07, 0.0, 0.0, 0.0, 0.0, -1.3034841424610369e-28, 0.0, 9.990019953371013e-07, 0.0, 0.0, 0.0, 0.0, 0.0, 0.0, 9.999995000005e-10]"
9363000000,,68,,9,363000000,turtlebot2/odom,turtlebot2/base_footprint_self,,,,1.75356336328e-05,0.0,0.0,,0.0,0.0,0.0,1.0,"[0.09060577512260408, 0.0, 0.0, 0.0, 0.0, 0.0, 0.0, 0.09055432899098201, 0.0, 0.0, 0.0, 1.4874999879368525e-07, 0.0, 0.0, 9.998889138518022e-07, 0.0, 4.043309860224641e-19, 0.0, 0.0, 0.0, 0.0, 9.997778775911719e-07, 0.0, 0.0, 0.0, 0.0, 4.0433098602246398e-19, 0.0, 9.997778775911719e-07, 0.0, 0.0, 1.4874999879368517e-07, 0.0, 0.0, 0.0, 0.10860100035922925]",,,,2.43837210788e-05,0.0,0.0,,0.0,0.0,0.0,"[0.0002589763357721325, 0.0, 0.0, 0.0, 0.0, 0.0, 0.0, 9.999997522970752e-10, 0.0, 0.0, 0.0, 0.0, 0.0, 0.0, 9.998333894872579e-07, 0.0, 1.018194545530243e-27, 0.0, 0.0, 0.0, 0.0, 9.993342205940267e-07, 0.0, 0.0, 0.0, 0.0, 1.018194545530243e-27, 0.0, 9.993342205940267e-07, 0.0, 0.0, 0.0, 0.0, 0.0, 0.0, 9.99999666666889e-10]"
9463000000,,69,,9,463000000,turtlebot2/odom,turtlebot2/base_footprint_self,,,,2.39776709768e-05,0.0,0.0,,0.0,0.0,0.0,1.0,"[0.09807440626609623, 0.0, 0.0, 0.0, 0.0, 0.0, 0.0, 0.09801718495153307, 0.0, 0.0, 0.0, 5.506313787282801e-07, 0.0, 0.0, 9.998881684727441e-07, 0.0, -9.25183471346255e-20, 0.0, 0.0, 0.0, 0.0, 9.99776387501817e-07, 0.0, 0.0, 0.0, 0.0, -9.25183471346255e-20, 0.0, 9.99776387501817e-07, 0.0, 0.0, 5.5063137872828e-07, 0.0, 0.0, 0.0, 0.11754100038143031]",,,,9.40445895927e-05,0.0,0.0,,0.0,0.0,0.0,"[0.0002576709270582587, 0.0, 0.0, 0.0, 0.0, 0.0, 0.0, 9.99999751332583e-10, 0.0, 0.0, 0.0, 0.0, 0.0, 0.0, 9.998322716692469e-07, 0.0, -2.331191197290762e-28, 0.0, 0.0, 0.0, 0.0, 9.993297584118258e-07, 0.0, 0.0, 0.0, 0.0, -2.3311911972907613e-28, 0.0, 9.993297584118258e-07, 0.0, 0.0, 0.0, 0.0, 0.0, 0.0, 9.999996644297555e-10]"
9563000000,,70,,9,563000000,turtlebot2/odom,turtlebot2/base_footprint_self,,,,2.50134966761e-05,0.0,0.0,,0.0,0.0,0.0,1.0,"[0.103032197601709, 0.0, 0.0, 0.0, 0.0, 0.0, 0.0, 0.10297239396851894, 0.0, 0.0, 0.0, 1.6679354103566124e-06, 0.0, 0.0, 9.998317067711142e-07, 0.0, -5.381474721135607e-19, 0.0, 0.0, 0.0, 0.0, 9.99663527327389e-07, 0.0, 0.0, 0.0, 0.0, -5.381474721135607e-19, 0.0, 9.99663527327389e-07, 0.0, 0.0, 1.6679354103566122e-06, 0.0, 0.0, 0.0, 0.12348100039123133]",,,,-0.000108620323231,0.0,0.0,,0.0,0.0,0.0,"[0.00017129143266952375, 0.0, 0.0, 0.0, 0.0, 0.0, 0.0, 9.99999616979237e-10, 0.0, 0.0, 0.0, 0.0, 0.0, 0.0, 9.997476028339783e-07, 0.0, -1.3465132940195995e-27, 0.0, 0.0, 0.0, 0.0, 9.98991934799428e-07, 0.0, 0.0, 0.0, 0.0, -1.3465132940195995e-27, 0.0, 9.98991934799428e-07, 0.0, 0.0, 0.0, 0.0, 0.0, 0.0, 9.999994949500052e-10]"
9666000000,,71,,9,665000000,turtlebot2/odom,turtlebot2/base_footprint_self,,,,1.91133062274e-05,0.0,0.0,,0.0,0.0,0.0,1.0,"[0.1080896571839771, 0.0, 0.0, 0.0, 0.0, 0.0, 0.0, 0.10802796187781315, 0.0, 0.0, 0.0, 2.706895764310805e-07, 0.0, 0.0, 9.998350382148554e-07, 0.0, 6.154308361639451e-19, 0.0, 0.0, 0.0, 0.0, 9.996701857673992e-07, 0.0, 0.0, 0.0, 0.0, 6.154308361639452e-19, 0.0, 9.996701857673992e-07, 0.0, 0.0, 2.7068957643108037e-07, 0.0, 0.0, 0.0, 0.1295410004014323]",,,,2.39891337521e-05,0.0,0.0,,0.0,0.0,0.0,"[0.0001744074323958395, 0.0, 0.0, 0.0, 0.0, 0.0, 0.0, 9.999996253436277e-10, 0.0, 0.0, 0.0, 0.0, 0.0, 0.0, 9.997525983318956e-07, 0.0, 1.539095886891121e-27, 0.0, 0.0, 0.0, 0.0, 9.990118567199303e-07, 0.0, 0.0, 0.0, 0.0, 1.539095886891121e-27, 0.0, 9.990118567199303e-07, 0.0, 0.0, 0.0, 0.0, 0.0, 0.0, 9.999995049509852e-10]"
9764000000,,72,,9,763000000,turtlebot2/odom,turtlebot2/base_footprint_self,,,,2.06703728203e-05,0.0,0.0,,0.0,0.0,0.0,1.0,"[0.11309699261114765, 0.0, 0.0, 0.0, 0.0, 0.0, 0.0, 0.1130334821501878, 0.0, 0.0, 0.0, 5.857109280090442e-07, 0.0, 0.0, 9.99833389143944e-07, 0.0, -1.3492132172848848e-19, 0.0, 0.0, 0.0, 0.0, 9.996668898116687e-07, 0.0, 0.0, 0.0, 0.0, -1.3492132172848845e-19, 0.0, 9.996668898116687e-07, 0.0, 0.0, 5.85710928009044e-07, 0.0, 0.0, 0.0, 0.13554100041143227]",,,,2.61984492634e-06,0.0,0.0,,0.0,0.0,0.0,"[0.00017270663845502627, 0.0, 0.0, 0.0, 0.0, 0.0, 0.0, 9.999996217487589e-10, 0.0, 0.0, 0.0, 0.0, 0.0, 0.0, 9.997501255455265e-07, 0.0, -3.373896400689158e-28, 0.0, 0.0, 0.0, 0.0, 9.990019950204692e-07, 0.0, 0.0, 0.0, 0.0, -3.373896400689159e-28, 0.0, 9.990019950204692e-07, 0.0, 0.0, 0.0, 0.0, 0.0, 0.0, 9.999995000005e-10]"
9863000000,,73,,9,863000000,turtlebot2/odom,turtlebot2/base_footprint_self,,,,2.18253453126e-05,0.0,0.0,,0.0,0.0,0.0,1.0,"[0.11810439191513251, 0.0, 0.0, 0.0, 0.0, 0.0, 0.0, 0.11803908015579576, 0.0, 0.0, 0.0, 6.17602029231422e-07, 0.0, 0.0, 9.998333891438976e-07, 0.0, -1.3054059870090596e-20, 0.0, 0.0, 0.0, 0.0, 9.996668898112922e-07, 0.0, 0.0, 0.0, 0.0, -1.3054059870090596e-20, 0.0, 9.996668898112922e-07, 0.0, 0.0, 6.176020292314218e-07, 0.0, 0.0, 0.0, 0.14154100042143236]",,,,2.47568896069e-05,0.0,0.0,,0.0,0.0,0.0,"[0.00017271165568172734, 0.0, 0.0, 0.0, 0.0, 0.0, 0.0, 9.99999622061048e-10, 0.0, 0.0, 0.0, 0.0, 0.0, 0.0, 9.99750125545368e-07, 0.0, -3.2643021365872155e-29, 0.0, 0.0, 0.0, 0.0, 9.990019950106468e-07, 0.0, 0.0, 0.0, 0.0, -3.264302136587215e-29, 0.0, 9.990019950106468e-07, 0.0, 0.0, 0.0, 0.0, 0.0, 0.0, 9.999995000005001e-10]"
9964000000,,74,,9,964000000,turtlebot2/odom,turtlebot2/base_footprint_self,,,,2.90449459333e-05,0.0,0.0,,0.0,0.0,0.0,1.0,"[0.12321223170558586, 0.0, 0.0, 0.0, 0.0, 0.0, 0.0, 0.12314504220134181, 0.0, 0.0, 0.0, 9.80256138818784e-07, 0.0, 0.0, 9.99836654961744e-07, 0.0, -1.3663595264851514e-19, 0.0, 0.0, 0.0, 0.0, 9.996734171398671e-07, 0.0, 0.0, 0.0, 0.0, -1.366359526485151e-19, 0.0, 9.996734171398671e-07, 0.0, 0.0, 9.802561388187839e-07, 0.0, 0.0, 0.0, 0.14766100043183628]",,,,0.000137656232329,0.0,0.0,,0.0,0.0,0.0,"[0.00017617906458215402, 0.0, 0.0, 0.0, 0.0, 0.0, 0.0, 9.999996301578352e-10, 0.0, 0.0, 0.0, 0.0, 0.0, 0.0, 9.997550226564802e-07, 0.0, -3.417558406024696e-28, 0.0, 0.0, 0.0, 0.0, 9.990215254600386e-07, 0.0, 0.0, 0.0, 0.0, -3.4175584060246956e-28, 0.0, 9.990215254600386e-07, 0.0, 0.0, 0.0, 0.0, 0.0, 0.0, 9.999995098044023e-10]"
10063000000,,75,,10,63000000,turtlebot2/odom,turtlebot2/base_footprint_self,,,,2.90449459333e-05,0.0,0.0,,0.0,0.0,0.0,1.0,"[0.12321223170558586, 0.0, 0.0, 0.0, 0.0, 0.0, 0.0, 0.12314504220134181, 0.0, 0.0, 0.0, 9.80256138818784e-07, 0.0, 0.0, 9.99836654961744e-07, 0.0, -1.3663595264851514e-19, 0.0, 0.0, 0.0, 0.0, 9.996734171398671e-07, 0.0, 0.0, 0.0, 0.0, -1.366359526485151e-19, 0.0, 9.996734171398671e-07, 0.0, 0.0, 9.802561388187839e-07, 0.0, 0.0, 0.0, 0.14766100043183628]",,,,0.000137656232329,0.0,0.0,,0.0,0.0,0.0,"[0.00017617906458215402, 0.0, 0.0, 0.0, 0.0, 0.0, 0.0, 9.999996301578352e-10, 0.0, 0.0, 0.0, 0.0, 0.0, 0.0, 9.997550226564802e-07, 0.0, -3.417558406024696e-28, 0.0, 0.0, 0.0, 0.0, 9.990215254600386e-07, 0.0, 0.0, 0.0, 0.0, -3.4175584060246956e-28, 0.0, 9.990215254600386e-07, 0.0, 0.0, 0.0, 0.0, 0.0, 0.0, 9.999995098044023e-10]"
10163000000,,76,,10,163000000,turtlebot2/odom,turtlebot2/base_footprint_self,,,,4.10025025321e-05,0.0,0.0,,0.0,0.0,0.0,1.0,"[0.13073205438853844, 0.0, 0.0, 0.0, 0.0, 0.0, 0.0, 0.13066069974747735, 0.0, 0.0, 0.0, 4.144543940246219e-06, 0.0, 0.0, 9.99888913851844e-07, 0.0, -5.285920183920659e-19, 0.0, 0.0, 0.0, 0.0, 9.997778775915156e-07, 0.0, 0.0, 0.0, 0.0, -5.285920183920657e-19, 0.0, 9.997778775915156e-07, 0.0, 0.0, 4.144543940246219e-06, 0.0, 0.0, 0.0, 0.15666100045433629]",,,,-6.2748925477e-05,0.0,0.0,,0.0,0.0,0.0,"[0.00025920869651909915, 0.0, 0.0, 0.0, 0.0, 0.0, 0.0, 9.99999755306697e-10, 0.0, 0.0, 0.0, 0.0, 0.0, 0.0, 9.99833389487402e-07, 0.0, -1.331170448077576e-27, 0.0, 0.0, 0.0, 0.0, 9.993342206026836e-07, 0.0, 0.0, 0.0, 0.0, -1.3311704480775756e-27, 0.0, 9.993342206026836e-07, 0.0, 0.0, 0.0, 0.0, 0.0, 0.0, 9.99999666666889e-10]"
10263000000,,77,,10,263000000,turtlebot2/odom,turtlebot2/base_footprint_self,,,,0.00418240361232,0.0,0.0,,0.0,0.0,0.0,1.0,"[0.1381539209485152, 0.0, 0.0, 0.0, 0.0, 0.0, 0.0, 0.13807669034926917, 0.0, 0.0, 0.0, 2.6106562426488083e-06, 0.0, 0.0, 9.998874130225462e-07, 0.0, 2.481096512042677e-19, 0.0, 0.0, 0.0, 0.0, 9.997748772792612e-07, 0.0, 0.0, 0.0, 0.0, 2.481096512042676e-19, 0.0, 9.997748772792612e-07, 0.0, 0.0, 2.6106562426488083e-06, 0.0, 0.0, 0.0, 0.16554100047624026]",,,,0.0814775241083,0.0,0.0,,0.0,0.0,0.0,"[0.00029919745481224447, 0.0, 0.0, 0.0, 0.0, 0.0, 0.0, 9.999997520869159e-10, 0.0, 0.0, 0.0, 0.0, 0.0, 0.0, 9.998311387482054e-07, 0.0, 6.2506508095506585e-28, 0.0, 0.0, 0.0, 0.0, 9.993252358619656e-07, 0.0, 0.0, 0.0, 0.0, 6.250650809550659e-28, 0.0, 9.993252358619656e-07, 0.0, 0.0, 0.0, 0.0, 0.0, 0.0, 9.999996621623905e-10]"
10363000000,,78,,10,363000000,turtlebot2/odom,turtlebot2/base_footprint_self,,,,-0.0300887853908,0.0,0.0,,0.0,0.0,0.0,1.0,"[0.14321343787833254, 0.0, 0.0, 0.0, 0.0, 0.0, 0.0, 0.14314482780290402, 0.0, 0.0, 0.0, 0.0014030872159319441, 0.0, 0.0, 9.998350382183414e-07, 0.0, -4.60177313277274e-16, 0.0, 0.0, 0.0, 0.0, 9.996701857798805e-07, 0.0, 0.0, 0.0, 0.0, -4.601773132772738e-16, 0.0, 9.99670185779879e-07, 0.0, 0.0, 0.0014030872159319441, 0.0, 0.0, 0.0, 0.17160100048644134]",,,,-0.719843875889,0.0,0.0,,0.0,0.0,0.0,"[0.0002829171078865045, 0.0, 0.0, 0.0, 0.0, 0.0, 0.0, 9.999996272328448e-10, 0.0, 0.0, 0.0, 0.0, 0.0, 0.0, 9.997525983371474e-07, 0.0, -1.1516966624531691e-24, 0.0, 0.0, 0.0, 0.0, 9.990118570453718e-07, 0.0, 0.0, 0.0, 0.0, -1.1516966624531685e-24, 0.0, 9.990118570453718e-07, 0.0, 0.0, 0.0, 0.0, 0.0, 0.0, 9.999995049509852e-10]"
10463000000,,79,,10,463000000,turtlebot2/odom,turtlebot2/base_footprint_self,,,,-0.0504704733369,0.0,0.0,,0.0,0.0,0.0,1.0,"[0.14832319290274934, 0.0, 0.0, 0.0, 0.0, 0.0, 0.0, 0.14901993506734992, 0.0, 0.0, 0.0, -0.011570352739618303, 0.0, 0.0, 9.998366551141928e-07, 0.0, 4.0317258995367474e-15, 0.0, 0.0, 0.0, 0.0, 9.996734171402294e-07, 0.0, 0.0, 0.0, 0.0, 4.0317258995367474e-15, 0.0, 9.996734171401301e-07, 0.0, 0.0, -0.011570352739618303, 0.0, 0.0, 0.0, 0.17772100049684536]",,,,0.27659349607,0.0,0.0,,0.0,0.0,0.0,"[0.0003082108030551955, 0.0, 0.0, 0.0, 0.0, 0.0, 0.0, 9.999996312463205e-10, 0.0, 0.0, 0.0, 0.0, 0.0, 0.0, 9.997550226566327e-07, 0.0, 1.0084431677649793e-23, 0.0, 0.0, 0.0, 0.0, 9.990215254694806e-07, 0.0, 0.0, 0.0, 0.0, 1.0084431677649792e-23, 0.0, 9.990215254694806e-07, 0.0, 0.0, 0.0, 0.0, 0.0, 0.0, 9.999995098044021e-10]"
10563000000,,80,,10,563000000,turtlebot2/odom,turtlebot2/base_footprint_self,,,,-0.0218866658497,0.0,0.0,,0.0,0.0,0.0,1.0,"[0.15334068137545842, 0.0, 0.0, 0.0, 0.0, 0.0, 0.0, 0.1535147135271938, 0.0, 0.0, 0.0, -0.006490409874982897, 0.0, 0.0, 0.00600101067595694, 0.0, -2.857446856701015e-08, 0.0, 0.0, 0.0, 0.0, 0.00300100966363895, 0.0, 0.0, 0.0, 0.0, -2.857446856701015e-08, 0.0, 0.00300100966363895, 0.0, 0.0, -0.006490409874982897, 0.0, 0.0, 0.0, 0.18372100050684545]",,,,0.295082653674,0.0,0.0,,0.0,0.0,0.0,"[0.0030015695263757355, 0.0, 0.0, 0.0, 0.0, 0.0, 0.0, 0.0026564692122287644, 0.0, 0.0, 0.0, 0.0, 0.0, 0.0, 0.004001009748498556, 0.0, 1.0220636813322713e-23, 0.0, 0.0, 0.0, 0.0, 0.001000999021525484, 0.0, 0.0, 0.0, 0.0, 1.0220636813322711e-23, 0.0, 0.001000999021525484, 0.0, 0.0, 0.0, 0.0, 0.0, 0.0, 0.0020000009999995385]"
10663000000,,81,,10,663000000,turtlebot2/odom,turtlebot2/base_footprint_self,,,,-0.000793929146092,0.0,0.0,,0.0,0.0,0.0,1.0,"[0.1557390264075596, 0.0, 0.0, 0.0, 0.0, 0.0, 0.0, 0.1557633035746072, 0.0, 0.0, 0.0, -0.0038490599453613254, 0.0, 0.0, 9.998874533655043e-07, 0.0, -1.0937090851891905e-12, 0.0, 0.0, 0.0, 0.0, 9.997749147588689e-07, 0.0, 0.0, 0.0, 0.0, -1.0937090851891905e-12, 0.0, 9.997749041303899e-07, 0.0, 0.0, -0.0038490599453613254, 0.0, 0.0, 0.0, 0.18660249499773954]",,,,0.384036785658,0.0,0.0,,0.0,0.0,0.0,"[0.0005522016815432857, 0.0, 0.0, 0.0, 0.0, 0.0, 0.0, 9.999997527832824e-10, 0.0, 0.0, 0.0, 0.0, 0.0, 0.0, 9.998310520117193e-07, 0.0, -1.1493261991236262e-15, 0.0, 0.0, 0.0, 0.0, 9.993249981444618e-07, 0.0, 0.0, 0.0, 0.0, -1.149326199123627e-15, 0.0, 9.993249981333121e-07, 0.0, 0.0, 0.0, 0.0, 0.0, 0.0, 9.999996621623905e-10]"
10763000000,,82,,10,763000000,turtlebot2/odom,turtlebot2/base_footprint_self,,,,0.0590273295537,0.0,0.0,,0.0,0.0,0.0,1.0,"[0.16337427645720073, 0.0, 0.0, 0.0, 0.0, 0.0, 0.0, 0.163606788255746, 0.0, 0.0, 0.0, 0.007542347201416891, 0.0, 0.0, 9.998903752403734e-07, 0.0, -1.466633314659118e-15, 0.0, 0.0, 0.0, 0.0, 9.99780798993605e-07, 0.0, 0.0, 0.0, 0.0, -1.4666333146591175e-15, 0.0, 9.997807989935848e-07, 0.0, 0.0, 0.00754234720141689, 0.0, 0.0, 0.0, 0.19572249503070294]",,,,0.401411160673,0.0,0.0,,0.0,0.0,0.0,"[0.0007001266071461025, 0.0, 0.0, 0.0, 0.0, 0.0, 0.0, 9.999997598340475e-10, 0.0, 0.0, 0.0, 0.0, 0.0, 0.0, 9.998355810206235e-07, 0.0, -1.2708045610482943e-22, 0.0, 0.0, 0.0, 0.0, 9.993429694830352e-07, 0.0, 0.0, 0.0, 0.0, -1.2708045610482948e-22, 0.0, 9.993429694830354e-07, 0.0, 0.0, 0.0, 0.0, 0.0, 0.0, 9.999996710528481e-10]"
10863000000,,83,,10,863000000,turtlebot2/odom,turtlebot2/base_footprint_self,,,,0.0590273295537,0.0,0.0,,0.0,0.0,0.0,1.0,"[0.16337427645720073, 0.0, 0.0, 0.0, 0.0, 0.0, 0.0, 0.163606788255746, 0.0, 0.0, 0.0, 0.007542347201416891, 0.0, 0.0, 9.998903752403734e-07, 0.0, -1.466633314659118e-15, 0.0, 0.0, 0.0, 0.0, 9.99780798993605e-07, 0.0, 0.0, 0.0, 0.0, -1.4666333146591175e-15, 0.0, 9.997807989935848e-07, 0.0, 0.0, 0.00754234720141689, 0.0, 0.0, 0.0, 0.19572249503070294]",,,,0.401411160673,0.0,0.0,,0.0,0.0,0.0,"[0.0007001266071461025, 0.0, 0.0, 0.0, 0.0, 0.0, 0.0, 9.999997598340475e-10, 0.0, 0.0, 0.0, 0.0, 0.0, 0.0, 9.998355810206235e-07, 0.0, -1.2708045610482943e-22, 0.0, 0.0, 0.0, 0.0, 9.993429694830352e-07, 0.0, 0.0, 0.0, 0.0, -1.2708045610482948e-22, 0.0, 9.993429694830354e-07, 0.0, 0.0, 0.0, 0.0, 0.0, 0.0, 9.999996710528481e-10]"
10963000000,,84,,10,963000000,turtlebot2/odom,turtlebot2/base_footprint_self,,,,0.118497972653,0.0,0.0,,0.0,0.0,0.0,1.0,"[0.17070752305282624, 0.0, 0.0, 0.0, 0.0, 0.0, 0.0, 0.1725707228356699, 0.0, 0.0, 0.0, 0.0194743750770829, 0.0, 0.0, 9.998858711317473e-07, 0.0, -1.5874474913633848e-15, 0.0, 0.0, 0.0, 0.0, 9.997717947986948e-07, 0.0, 0.0, 0.0, 0.0, -1.5874474913633848e-15, 0.0, 9.99771794798673e-07, 0.0, 0.0, 0.0194743750770829, 0.0, 0.0, 0.0, 0.204482495052019]",,,,0.413457298423,0.0,0.0,,0.0,0.0,0.0,"[0.0005573176701269186, 0.0, 0.0, 0.0, 0.0, 0.0, 0.0, 9.999997492924382e-10, 0.0, 0.0, 0.0, 0.0, 0.0, 0.0, 9.998288263637294e-07, 0.0, -3.9981125747568854e-24, 0.0, 0.0, 0.0, 0.0, 9.993160051622926e-07, 0.0, 0.0, 0.0, 0.0, -3.998112574756887e-24, 0.0, 9.993160051622926e-07, 0.0, 0.0, 0.0, 0.0, 0.0, 0.0, 9.999996575344813e-10]"
11063000000,,85,,11,63000000,turtlebot2/odom,turtlebot2/base_footprint_self,,,,0.181176648105,0.0,0.0,,0.0,0.0,0.0,1.0,"[0.17844230708855793, 0.0, 0.0, 0.0, 0.0, 0.0, 0.0, 0.18376232724295122, 0.0, 0.0, 0.0, 0.03300262235666115, 0.0, 0.0, 9.99891798641146e-07, 0.0, -1.5484131805379133e-15, 0.0, 0.0, 0.0, 0.0, 9.9978364454238e-07, 0.0, 0.0, 0.0, 0.0, -1.5484131805379133e-15, 0.0, 9.99783644542358e-07, 0.0, 0.0, 0.03300262235666115, 0.0, 0.0, 0.0, 0.213722495075735]",,,,0.397287198307,0.0,0.0,,0.0,0.0,0.0,"[0.0004763778509569448, 0.0, 0.0, 0.0, 0.0, 0.0, 0.0, 9.999997635638452e-10, 0.0, 0.0, 0.0, 0.0, 0.0, 0.0, 9.998377156470485e-07, 0.0, -3.9045242793575356e-24, 0.0, 0.0, 0.0, 0.0, 9.993514912795721e-07, 0.0, 0.0, 0.0, 0.0, -3.9045242793575356e-24, 0.0, 9.993514912795721e-07, 0.0, 0.0, 0.0, 0.0, 0.0, 0.0, 9.999996753248863e-10]"
11164000000,,86,,11,163000000,turtlebot2/odom,turtlebot2/base_footprint_self,,,,0.181176648105,0.0,0.0,,0.0,0.0,0.0,1.0,"[0.17844230708855793, 0.0, 0.0, 0.0, 0.0, 0.0, 0.0, 0.18376232724295122, 0.0, 0.0, 0.0, 0.03300262235666115, 0.0, 0.0, 9.99891798641146e-07, 0.0, -1.5484131805379133e-15, 0.0, 0.0, 0.0, 0.0, 9.9978364454238e-07, 0.0, 0.0, 0.0, 0.0, -1.5484131805379133e-15, 0.0, 9.99783644542358e-07, 0.0, 0.0, 0.03300262235666115, 0.0, 0.0, 0.0, 0.213722495075735]",,,,0.397287198307,0.0,0.0,,0.0,0.0,0.0,"[0.0004763778509569448, 0.0, 0.0, 0.0, 0.0, 0.0, 0.0, 9.999997635638452e-10, 0.0, 0.0, 0.0, 0.0, 0.0, 0.0, 9.998377156470485e-07, 0.0, -3.9045242793575356e-24, 0.0, 0.0, 0.0, 0.0, 9.993514912795721e-07, 0.0, 0.0, 0.0, 0.0, -3.9045242793575356e-24, 0.0, 9.993514912795721e-07, 0.0, 0.0, 0.0, 0.0, 0.0, 0.0, 9.999996753248863e-10]"
11263000000,,87,,11,263000000,turtlebot2/odom,turtlebot2/base_footprint_self,,,,0.240919659782,0.0,0.0,,0.0,0.0,0.0,1.0,"[0.18587246629343332, 0.0, 0.0, 0.0, 0.0, 0.0, 0.0, 0.19598288583813703, 0.0, 0.0, 0.0, 0.045994682399317824, 0.0, 0.0, 9.998874130694047e-07, 0.0, -1.5404270320153247e-15, 0.0, 0.0, 0.0, 0.0, 9.997748772795725e-07, 0.0, 0.0, 0.0, 0.0, -1.5404270320153243e-15, 0.0, 9.997748772795515e-07, 0.0, 0.0, 0.045994682399317824, 0.0, 0.0, 0.0, 0.22260249509763896]",,,,0.409334030833,0.0,0.0,,0.0,0.0,0.0,"[0.0004606662002113383, 0.0, 0.0, 0.0, 0.0, 0.0, 0.0, 9.99999753254929e-10, 0.0, 0.0, 0.0, 0.0, 0.0, 0.0, 9.998311387483358e-07, 0.0, -3.880966228884136e-24, 0.0, 0.0, 0.0, 0.0, 9.993252358698288e-07, 0.0, 0.0, 0.0, 0.0, -3.8809662288841385e-24, 0.0, 9.993252358698288e-07, 0.0, 0.0, 0.0, 0.0, 0.0, 0.0, 9.999996621623903e-10]"
11363000000,,88,,11,363000000,turtlebot2/odom,turtlebot2/base_footprint_self,,,,0.30092190496,0.0,0.0,,0.0,0.0,0.0,1.0,"[0.19315085238663884, 0.0, 0.0, 0.0, 0.0, 0.0, 0.0, 0.2097109441816726, 0.0, 0.0, 0.0, 0.059612087604798566, 0.0, 0.0, 9.99885084215682e-07, 0.0, -1.614935906014167e-15, 0.0, 0.0, 0.0, 0.0, 9.997702216849217e-07, 0.0, 0.0, 0.0, 0.0, -1.614935906014167e-15, 0.0, 9.997702216848988e-07, 0.0, 0.0, 0.059612087604798566, 0.0, 0.0, 0.0, 0.23130249511866394]",,,,0.417982262292,0.0,0.0,,0.0,0.0,0.0,"[0.0004370958123419351, 0.0, 0.0, 0.0, 0.0, 0.0, 0.0, 9.999997478092988e-10, 0.0, 0.0, 0.0, 0.0, 0.0, 0.0, 9.998276462583445e-07, 0.0, -4.0665340276575856e-24, 0.0, 0.0, 0.0, 0.0, 9.99311294443501e-07, 0.0, 0.0, 0.0, 0.0, -4.0665340276575856e-24, 0.0, 9.99311294443501e-07, 0.0, 0.0, 0.0, 0.0, 0.0, 0.0, 9.999996551726517e-10]"
11464000000,,89,,11,463000000,turtlebot2/odom,turtlebot2/base_footprint_self,,,,0.34203145635,0.0,0.0,,0.0,0.0,0.0,1.0,"[0.19831240403752387, 0.0, 0.0, 0.0, 0.0, 0.0, 0.0, 0.22055019303908713, 0.0, 0.0, 0.0, 0.06977078507928522, 0.0, 0.0, 9.998382403774181e-07, 0.0, -2.297138115872239e-15, 0.0, 0.0, 0.0, 0.0, 9.99676585818598e-07, 0.0, 0.0, 0.0, 0.0, -2.2971381158722384e-15, 0.0, 9.996765858185655e-07, 0.0, 0.0, 0.06977078507928522, 0.0, 0.0, 0.0, 0.23748249512927294]",,,,0.394744499533,0.0,0.0,,0.0,0.0,0.0,"[0.0003011280912918446, 0.0, 0.0, 0.0, 0.0, 0.0, 0.0, 9.999996360115894e-10, 0.0, 0.0, 0.0, 0.0, 0.0, 0.0, 9.997573999341743e-07, 0.0, -5.750365016078639e-24, 0.0, 0.0, 0.0, 0.0, 9.99031007102063e-07, 0.0, 0.0, 0.0, 0.0, -5.750365016078638e-24, 0.0, 9.99031007102063e-07, 0.0, 0.0, 0.0, 0.0, 0.0, 0.0, 9.999995145635781e-10]"
11563000000,,90,,11,563000000,turtlebot2/odom,turtlebot2/base_footprint_self,,,,0.381994561345,0.0,0.0,,0.0,0.0,0.0,1.0,"[0.2033723679026301, 0.0, 0.0, 0.0, 0.0, 0.0, 0.0, 0.23166033923489388, 0.0, 0.0, 0.0, 0.07940792403987322, 0.0, 0.0, 9.998350382598193e-07, 0.0, -2.207133917470726e-15, 0.0, 0.0, 0.0, 0.0, 9.996701857688627e-07, 0.0, 0.0, 0.0, 0.0, -2.2071339174707267e-15, 0.0, 9.996701857688335e-07, 0.0, 0.0, 0.07940792403987322, 0.0, 0.0, 0.0, 0.243542495139474]",,,,0.399330266855,0.0,0.0,,0.0,0.0,0.0,"[0.0002984508121134922, 0.0, 0.0, 0.0, 0.0, 0.0, 0.0, 9.999996283667131e-10, 0.0, 0.0, 0.0, 0.0, 0.0, 0.0, 9.997525983325116e-07, 0.0, -5.520186990488492e-24, 0.0, 0.0, 0.0, 0.0, 9.990118567580813e-07, 0.0, 0.0, 0.0, 0.0, -5.520186990488494e-24, 0.0, 9.990118567580813e-07, 0.0, 0.0, 0.0, 0.0, 0.0, 0.0, 9.999995049509852e-10]"
11663000000,,91,,11,663000000,turtlebot2/odom,turtlebot2/base_footprint_self,,,,0.422106996815,0.0,0.0,,0.0,0.0,0.0,1.0,"[0.2083819341703406, 0.0, 0.0, 0.0, 0.0, 0.0, 0.0, 0.24351619086062537, 0.0, 0.0, 0.0, 0.08929611024245179, 0.0, 0.0, 9.99833389189674e-07, 0.0, -2.252629370660641e-15, 0.0, 0.0, 0.0, 0.0, 9.996668898116689e-07, 0.0, 0.0, 0.0, 0.0, -2.2526293706606412e-15, 0.0, 9.996668898116384e-07, 0.0, 0.0, 0.08929611024245179, 0.0, 0.0, 0.0, 0.249542495149474]",,,,0.405079160845,0.0,0.0,,0.0,0.0,0.0,"[0.00029937428292515686, 0.0, 0.0, 0.0, 0.0, 0.0, 0.0, 9.999996244328615e-10, 0.0, 0.0, 0.0, 0.0, 0.0, 0.0, 9.997501255455265e-07, 0.0, -5.633030376298527e-24, 0.0, 0.0, 0.0, 0.0, 9.990019950204692e-07, 0.0, 0.0, 0.0, 0.0, -5.633030376298525e-24, 0.0, 9.990019950204692e-07, 0.0, 0.0, 0.0, 0.0, 0.0, 0.0, 9.999995000005e-10]"
11763000000,,92,,11,763000000,turtlebot2/odom,turtlebot2/base_footprint_self,,,,0.422106996815,0.0,0.0,,0.0,0.0,0.0,1.0,"[0.2083819341703406, 0.0, 0.0, 0.0, 0.0, 0.0, 0.0, 0.24351619086062537, 0.0, 0.0, 0.0, 0.08929611024245179, 0.0, 0.0, 9.99833389189674e-07, 0.0, -2.252629370660641e-15, 0.0, 0.0, 0.0, 0.0, 9.996668898116689e-07, 0.0, 0.0, 0.0, 0.0, -2.2526293706606412e-15, 0.0, 9.996668898116384e-07, 0.0, 0.0, 0.08929611024245179, 0.0, 0.0, 0.0, 0.249542495149474]",,,,0.405079160845,0.0,0.0,,0.0,0.0,0.0,"[0.00029937428292515686, 0.0, 0.0, 0.0, 0.0, 0.0, 0.0, 9.999996244328615e-10, 0.0, 0.0, 0.0, 0.0, 0.0, 0.0, 9.997501255455265e-07, 0.0, -5.633030376298527e-24, 0.0, 0.0, 0.0, 0.0, 9.990019950204692e-07, 0.0, 0.0, 0.0, 0.0, -5.633030376298525e-24, 0.0, 9.990019950204692e-07, 0.0, 0.0, 0.0, 0.0, 0.0, 0.0, 9.999995000005e-10]"
11863000000,,93,,11,863000000,turtlebot2/odom,turtlebot2/base_footprint_self,,,,0.482388706933,0.0,0.0,,0.0,0.0,0.0,1.0,"[0.21585876474435198, 0.0, 0.0, 0.0, 0.0, 0.0, 0.0, 0.26297323211311013, 0.0, 0.0, 0.0, 0.10471522172866757, 0.0, 0.0, 9.99888168519748e-07, 0.0, -1.5446508217483733e-15, 0.0, 0.0, 0.0, 0.0, 9.99776387495899e-07, 0.0, 0.0, 0.0, 0.0, -1.544650821748373e-15, 0.0, 9.997763874958778e-07, 0.0, 0.0, 0.10471522172866757, 0.0, 0.0, 0.0, 0.25848249517167504]",,,,0.401474614617,0.0,0.0,,0.0,0.0,0.0,"[0.0004473521412187687, 0.0, 0.0, 0.0, 0.0, 0.0, 0.0, 9.999997552750614e-10, 0.0, 0.0, 0.0, 0.0, 0.0, 0.0, 9.998322716667661e-07, 0.0, -3.889155840564256e-24, 0.0, 0.0, 0.0, 0.0, 9.993297582625835e-07, 0.0, 0.0, 0.0, 0.0, -3.8891558405642545e-24, 0.0, 9.993297582625835e-07, 0.0, 0.0, 0.0, 0.0, 0.0, 0.0, 9.999996644297555e-10]"
11963000000,,94,,11,963000000,turtlebot2/odom,turtlebot2/base_footprint_self,,,,0.543040891288,0.0,0.0,,0.0,0.0,0.0,1.0,"[0.22343969767899122, 0.0, 0.0, 0.0, 0.0, 0.0, 0.0, 0.2845072494654207, 0.0, 0.0, 0.0, 0.12072572382881976, 0.0, 0.0, 9.998896494085663e-07, 0.0, -1.5078540458508402e-15, 0.0, 0.0, 0.0, 0.0, 9.997793479644866e-07, 0.0, 0.0, 0.0, 0.0, -1.5078540458508402e-15, 0.0, 9.997793479644657e-07, 0.0, 0.0, 0.12072572382881976, 0.0, 0.0, 0.0, 0.26754249519447604]",,,,0.40128242304,0.0,0.0,,0.0,0.0,0.0,"[0.0004565659640785841, 0.0, 0.0, 0.0, 0.0, 0.0, 0.0, 9.999997588712254e-10, 0.0, 0.0, 0.0, 0.0, 0.0, 0.0, 9.998344925094674e-07, 0.0, -3.8005275881382624e-24, 0.0, 0.0, 0.0, 0.0, 9.993386240432506e-07, 0.0, 0.0, 0.0, 0.0, -3.8005275881382624e-24, 0.0, 9.993386240432506e-07, 0.0, 0.0, 0.0, 0.0, 0.0, 0.0, 9.999996688743915e-10]"
12064000000,,95,,12,64000000,turtlebot2/odom,turtlebot2/base_footprint_self,,,,0.583311205835,0.0,0.0,,0.0,0.0,0.0,1.0,"[0.22855091439042158, 0.0, 0.0, 0.0, 0.0, 0.0, 0.0, 0.3000890134917438, 0.0, 0.0, 0.0, 0.1318228635224815, 0.0, 0.0, 9.998366550091471e-07, 0.0, -2.2121860574520105e-15, 0.0, 0.0, 0.0, 0.0, 9.99673417152234e-07, 0.0, 0.0, 0.0, 0.0, -2.2121860574520093e-15, 0.0, 9.99673417152204e-07, 0.0, 0.0, 0.1318228635224815, 0.0, 0.0, 0.0, 0.27366249520488006]",,,,0.395566159892,0.0,0.0,,0.0,0.0,0.0,"[0.00030118523951480874, 0.0, 0.0, 0.0, 0.0, 0.0, 0.0, 9.999996323918695e-10, 0.0, 0.0, 0.0, 0.0, 0.0, 0.0, 9.997550226616833e-07, 0.0, -5.537352113080426e-24, 0.0, 0.0, 0.0, 0.0, 9.990215257823293e-07, 0.0, 0.0, 0.0, 0.0, -5.5373521130804276e-24, 0.0, 9.990215257823293e-07, 0.0, 0.0, 0.0, 0.0, 0.0, 0.0, 9.999995098044021e-10]"
12163000000,,96,,12,163000000,turtlebot2/odom,turtlebot2/base_footprint_self,,,,0.583311205835,0.0,0.0,,0.0,0.0,0.0,1.0,"[0.22855091439042158, 0.0, 0.0, 0.0, 0.0, 0.0, 0.0, 0.3000890134917438, 0.0, 0.0, 0.0, 0.1318228635224815, 0.0, 0.0, 9.998366550091471e-07, 0.0, -2.2121860574520105e-15, 0.0, 0.0, 0.0, 0.0, 9.99673417152234e-07, 0.0, 0.0, 0.0, 0.0, -2.2121860574520093e-15, 0.0, 9.99673417152204e-07, 0.0, 0.0, 0.1318228635224815, 0.0, 0.0, 0.0, 0.27366249520488006]",,,,0.395566159892,0.0,0.0,,0.0,0.0,0.0,"[0.00030118523951480874, 0.0, 0.0, 0.0, 0.0, 0.0, 0.0, 9.999996323918695e-10, 0.0, 0.0, 0.0, 0.0, 0.0, 0.0, 9.997550226616833e-07, 0.0, -5.537352113080426e-24, 0.0, 0.0, 0.0, 0.0, 9.990215257823293e-07, 0.0, 0.0, 0.0, 0.0, -5.5373521130804276e-24, 0.0, 9.990215257823293e-07, 0.0, 0.0, 0.0, 0.0, 0.0, 0.0, 9.999995098044021e-10]"
12263000000,,97,,12,263000000,turtlebot2/odom,turtlebot2/base_footprint_self,,,,0.64259794069,0.0,0.0,,0.0,0.0,0.0,1.0,"[0.2359780901989536, 0.0, 0.0, 0.0, 0.0, 0.0, 0.0, 0.3241898016264902, 0.0, 0.0, 0.0, 0.1481295930778171, 0.0, 0.0, 9.998874130668437e-07, 0.0, -1.5097918508689627e-15, 0.0, 0.0, 0.0, 0.0, 9.997748772736206e-07, 0.0, 0.0, 0.0, 0.0, -1.509791850868963e-15, 0.0, 9.997748772736003e-07, 0.0, 0.0, 0.1481295930778171, 0.0, 0.0, 0.0, 0.28254249522678404]",,,,0.405339856434,0.0,0.0,,0.0,0.0,0.0,"[0.0004320182870915998, 0.0, 0.0, 0.0, 0.0, 0.0, 0.0, 9.999997535982348e-10, 0.0, 0.0, 0.0, 0.0, 0.0, 0.0, 9.998311387458407e-07, 0.0, -3.800952629039407e-24, 0.0, 0.0, 0.0, 0.0, 9.993252357195948e-07, 0.0, 0.0, 0.0, 0.0, -3.800952629039408e-24, 0.0, 9.993252357195948e-07, 0.0, 0.0, 0.0, 0.0, 0.0, 0.0, 9.999996621623905e-10]"
12363000000,,98,,12,363000000,turtlebot2/odom,turtlebot2/base_footprint_self,,,,0.703983091413,0.0,0.0,,0.0,0.0,0.0,1.0,"[0.24366016372815727, 0.0, 0.0, 0.0, 0.0, 0.0, 0.0, 0.35168057712761447, 0.0, 0.0, 0.0, 0.1659585485929801, 0.0, 0.0, 9.998910915905782e-07, 0.0, -1.4962415222426629e-15, 0.0, 0.0, 0.0, 0.0, 9.997822310631463e-07, 0.0, 0.0, 0.0, 0.0, -1.4962415222426627e-15, 0.0, 9.997822310631253e-07, 0.0, 0.0, 0.1659585485929801, 0.0, 0.0, 0.0, 0.29172249525019306]",,,,0.39672372953,0.0,0.0,,0.0,0.0,0.0,"[0.00045442581119655155, 0.0, 0.0, 0.0, 0.0, 0.0, 0.0, 9.999997624057864e-10, 0.0, 0.0, 0.0, 0.0, 0.0, 0.0, 9.998366553074721e-07, 0.0, -3.7724341195750886e-24, 0.0, 0.0, 0.0, 0.0, 9.993472581959725e-07, 0.0, 0.0, 0.0, 0.0, -3.772434119575086e-24, 0.0, 9.993472581959725e-07, 0.0, 0.0, 0.0, 0.0, 0.0, 0.0, 9.999996732028279e-10]"
12463000000,,99,,12,463000000,turtlebot2/odom,turtlebot2/base_footprint_self,,,,0.703983091413,0.0,0.0,,0.0,0.0,0.0,1.0,"[0.24366016372815727, 0.0, 0.0, 0.0, 0.0, 0.0, 0.0, 0.35168057712761447, 0.0, 0.0, 0.0, 0.1659585485929801, 0.0, 0.0, 9.998910915905782e-07, 0.0, -1.4962415222426629e-15, 0.0, 0.0, 0.0, 0.0, 9.997822310631463e-07, 0.0, 0.0, 0.0, 0.0, -1.4962415222426627e-15, 0.0, 9.997822310631253e-07, 0.0, 0.0, 0.1659585485929801, 0.0, 0.0, 0.0, 0.29172249525019306]",,,,0.39672372953,0.0,0.0,,0.0,0.0,0.0,"[0.00045442581119655155, 0.0, 0.0, 0.0, 0.0, 0.0, 0.0, 9.999997624057864e-10, 0.0, 0.0, 0.0, 0.0, 0.0, 0.0, 9.998366553074721e-07, 0.0, -3.7724341195750886e-24, 0.0, 0.0, 0.0, 0.0, 9.993472581959725e-07, 0.0, 0.0, 0.0, 0.0, -3.772434119575086e-24, 0.0, 9.993472581959725e-07, 0.0, 0.0, 0.0, 0.0, 0.0, 0.0, 9.999996732028279e-10]"
12566000000,,100,,12,566000000,turtlebot2/odom,turtlebot2/base_footprint_self,,,,0.763889852409,0.0,0.0,,0.0,0.0,0.0,1.0,"[0.25114106188197355, 0.0, 0.0, 0.0, 0.0, 0.0, 0.0, 0.3801125467929922, 0.0, 0.0, 0.0, 0.1834593438135426, 0.0, 0.0, 9.998881685177618e-07, 0.0, -1.4998693964075706e-15, 0.0, 0.0, 0.0, 0.0, 9.99776387502049e-07, 0.0, 0.0, 0.0, 0.0, -1.4998693964075708e-15, 0.0, 9.997763875020287e-07, 0.0, 0.0, 0.1834593438135426, 0.0, 0.0, 0.0, 0.300662495272394]",,,,0.407441461732,0.0,0.0,,0.0,0.0,0.0,"[0.0004385271049535632, 0.0, 0.0, 0.0, 0.0, 0.0, 0.0, 9.99999755490113e-10, 0.0, 0.0, 0.0, 0.0, 0.0, 0.0, 9.998322716693443e-07, 0.0, -3.779346302979344e-24, 0.0, 0.0, 0.0, 0.0, 9.993297584176824e-07, 0.0, 0.0, 0.0, 0.0, -3.779346302979343e-24, 0.0, 9.993297584176824e-07, 0.0, 0.0, 0.0, 0.0, 0.0, 0.0, 9.999996644297555e-10]"
12663000000,,101,,12,664000000,turtlebot2/odom,turtlebot2/base_footprint_self,,,,0.803777512134,0.0,0.0,,0.0,0.0,0.0,1.0,"[0.2561512359995972, 0.0, 0.0, 0.0, 0.0, 0.0, 0.0, 0.40072124708083023, 0.0, 0.0, 0.0, 0.1958277089595844, 0.0, 0.0, 9.998333891923904e-07, 0.0, -2.2825852302358642e-15, 0.0, 0.0, 0.0, 0.0, 9.996668898238052e-07, 0.0, 0.0, 0.0, 0.0, -2.2825852302358634e-15, 0.0, 9.996668898237736e-07, 0.0, 0.0, 0.1958277089595844, 0.0, 0.0, 0.0, 0.30666249528239403]",,,,0.399001339047,0.0,0.0,,0.0,0.0,0.0,"[0.0002826510947007703, 0.0, 0.0, 0.0, 0.0, 0.0, 0.0, 9.999996247044824e-10, 0.0, 0.0, 0.0, 0.0, 0.0, 0.0, 9.99750125550633e-07, 0.0, -5.712028355060736e-24, 0.0, 0.0, 0.0, 0.0, 9.990019953371013e-07, 0.0, 0.0, 0.0, 0.0, -5.712028355060737e-24, 0.0, 9.990019953371013e-07, 0.0, 0.0, 0.0, 0.0, 0.0, 0.0, 9.999995000005e-10]"
12763000000,,102,,12,763000000,turtlebot2/odom,turtlebot2/base_footprint_self,,,,0.84094695465,0.0,0.0,,0.0,0.0,0.0,1.0,"[0.2635279348109633, 0.0, 0.0, 0.0, 0.0, 0.0, 0.0, 0.4324347499777954, 0.0, 0.0, 0.0, 0.21404193123389567, 0.0, 0.0, 9.998866473410099e-07, 0.0, -1.5254550373889945e-15, 0.0, 0.0, 0.0, 0.0, 9.997733465127036e-07, 0.0, 0.0, 0.0, 0.0, -1.5254550373889945e-15, 0.0, 9.99773346512683e-07, 0.0, 0.0, 0.21404193123389567, 0.0, 0.0, 0.0, 0.315482495304003]",,,,0.100639796224,0.0,0.0,,0.0,0.0,0.0,"[0.0004126779872933278, 0.0, 0.0, 0.0, 0.0, 0.0, 0.0, 9.999997518768426e-10, 0.0, 0.0, 0.0, 0.0, 0.0, 0.0, 9.998299904159682e-07, 0.0, -3.839612099800484e-24, 0.0, 0.0, 0.0, 0.0, 9.993206517110642e-07, 0.0, 0.0, 0.0, 0.0, -3.839612099800481e-24, 0.0, 9.993206517110642e-07, 0.0, 0.0, 0.0, 0.0, 0.0, 0.0, 9.99999659864177e-10]"
12864000000,,103,,12,863000000,turtlebot2/odom,turtlebot2/base_footprint_self,,,,0.843053646121,0.0,0.0,,0.0,0.0,0.0,1.0,"[0.26858813043801066, 0.0, 0.0, 0.0, 0.0, 0.0, 0.0, 0.4416191492273376, 0.0, 0.0, 0.0, 0.21706298837181287, 0.0, 0.0, 9.998350382188676e-07, 0.0, -5.208803937630523e-16, 0.0, 0.0, 0.0, 0.0, 9.996701857797087e-07, 0.0, 0.0, 0.0, 0.0, -5.208803937630521e-16, 0.0, 9.996701857797073e-07, 0.0, 0.0, 0.21706298837181287, 0.0, 0.0, 0.0, 0.3215424953142041]",,,,-0.0100888210571,0.0,0.0,,0.0,0.0,0.0,"[0.0002914555306566779, 0.0, 0.0, 0.0, 0.0, 0.0, 0.0, 9.999996286559482e-10, 0.0, 0.0, 0.0, 0.0, 0.0, 0.0, 9.997525983370752e-07, 0.0, -1.3036084271614309e-24, 0.0, 0.0, 0.0, 0.0, 9.99011857040896e-07, 0.0, 0.0, 0.0, 0.0, -1.303608427161432e-24, 0.0, 9.99011857040896e-07, 0.0, 0.0, 0.0, 0.0, 0.0, 0.0, 9.999995049509852e-10]"
12964000000,,104,,12,964000000,turtlebot2/odom,turtlebot2/base_footprint_self,,,,0.841138017978,0.0,0.0,,0.0,0.0,0.0,1.0,"[0.2736615115142025, 0.0, 0.0, 0.0, 0.0, 0.0, 0.0, 0.4458546874843048, 0.0, 0.0, 0.0, 0.21644703251841949, 0.0, 0.0, 0.006061010063181755, 0.0, 1.91499582770697e-09, 0.0, 0.0, 0.0, 0.0, 0.0030310098611124035, 0.0, 0.0, 0.0, 0.0, 1.9149958277069705e-09, 0.0, 0.0030310098611124035, 0.0, 0.0, 0.21644703251841949, 0.0, 0.0, 0.0, 0.32760249532440516]",,,,-0.0278444095097,0.0,0.0,,0.0,0.0,0.0,"[0.003021272994692182, 0.0, 0.0, 0.0, 0.0, 0.0, 0.0, 0.002692751850180506, 0.0, 0.0, 0.0, 0.0, 0.0, 0.0, 0.00404100994687724, 0.0, -1.3212211605296555e-24, 0.0, 0.0, 0.0, 0.0, 0.0010109990118570497, 0.0, 0.0, 0.0, 0.0, -1.3212211605296566e-24, 0.0, 0.0010109990118570497, 0.0, 0.0, 0.0, 0.0, 0.0, 0.0, 0.0020200009999995225]"
13064000000,,105,,13,64000000,turtlebot2/odom,turtlebot2/base_footprint_self,,,,0.842195253641,0.0,0.0,,0.0,0.0,0.0,1.0,"[0.2760527828786945, 0.0, 0.0, 0.0, 0.0, 0.0, 0.0, 0.447580451046813, 0.0, 0.0, 0.0, 0.2159428356216337, 0.0, 0.0, 9.99888205895219e-07, 0.0, 1.166438142297081e-13, 0.0, 0.0, 0.0, 0.0, 9.997764245963345e-07, 0.0, 0.0, 0.0, 0.0, 1.1664381422970804e-13, 0.0, 9.997764244746304e-07, 0.0, 0.0, 0.2159428356216337, 0.0, 0.0, 0.0, 0.33048399462976596]",,,,-0.0103381231914,0.0,0.0,,0.0,0.0,0.0,"[0.0004218059778557507, 0.0, 0.0, 0.0, 0.0, 0.0, 0.0, 9.999997556454692e-10, 0.0, 0.0, 0.0, 0.0, 0.0, 0.0, 9.998321846403281e-07, 0.0, 1.23367354767882e-16, 0.0, 0.0, 0.0, 0.0, 9.993295207630122e-07, 0.0, 0.0, 0.0, 0.0, 1.2336735476788197e-16, 0.0, 9.993295207628839e-07, 0.0, 0.0, 0.0, 0.0, 0.0, 0.0, 9.999996644297555e-10]"
13163000000,,106,,13,163000000,turtlebot2/odom,turtlebot2/base_footprint_self,,,,0.841753507202,0.0,0.0,,0.0,0.0,0.0,1.0,"[0.28106359856552215, 0.0, 0.0, 0.0, 0.0, 0.0, 0.0, 0.451795497518098, 0.0, 0.0, 0.0, 0.21533669748143291, 0.0, 0.0, 9.998333891455555e-07, 0.0, 1.0177544879244823e-16, 0.0, 0.0, 0.0, 0.0, 9.9966688982397e-07, 0.0, 0.0, 0.0, 0.0, 1.0177544879244829e-16, 0.0, 9.9966688982397e-07, 0.0, 0.0, 0.21533669748143291, 0.0, 0.0, 0.0, 0.3364839946462733]",,,,-0.00841827400043,0.0,0.0,,0.0,0.0,0.0,"[0.00028076902012990913, 0.0, 0.0, 0.0, 0.0, 0.0, 0.0, 9.999996246374485e-10, 0.0, 0.0, 0.0, 0.0, 0.0, 0.0, 9.997501255506957e-07, 0.0, 3.098510252456782e-23, 0.0, 0.0, 0.0, 0.0, 9.990019953368642e-07, 0.0, 0.0, 0.0, 0.0, 3.0985102524567815e-23, 0.0, 9.990019953368642e-07, 0.0, 0.0, 0.0, 0.0, 0.0, 0.0, 9.999995000005e-10]"
13263000000,,107,,13,263000000,turtlebot2/odom,turtlebot2/base_footprint_self,,,,0.841640715009,0.0,0.0,,0.0,0.0,0.0,1.0,"[0.2861735693194658, 0.0, 0.0, 0.0, 0.0, 0.0, 0.0, 0.45619898081825894, 0.0, 0.0, 0.0, 0.2147867344019274, 0.0, 0.0, 9.99836654961815e-07, 0.0, 8.716131932392553e-17, 0.0, 0.0, 0.0, 0.0, 9.99673417139867e-07, 0.0, 0.0, 0.0, 0.0, 8.716131932392554e-17, 0.0, 9.996734171398671e-07, 0.0, 0.0, 0.2147867344019274, 0.0, 0.0, 0.0, 0.34260399465667735]",,,,-0.00155369930133,0.0,0.0,,0.0,0.0,0.0,"[0.0002861955419811229, 0.0, 0.0, 0.0, 0.0, 0.0, 0.0, 9.999996324352636e-10, 0.0, 0.0, 0.0, 0.0, 0.0, 0.0, 9.997550226564802e-07, 0.0, 2.1801653635189822e-25, 0.0, 0.0, 0.0, 0.0, 9.99021525460039e-07, 0.0, 0.0, 0.0, 0.0, 2.180165363518983e-25, 0.0, 9.99021525460039e-07, 0.0, 0.0, 0.0, 0.0, 0.0, 0.0, 9.999995098044021e-10]"
13363000000,,108,,13,363000000,turtlebot2/odom,turtlebot2/base_footprint_self,,,,0.841744852829,0.0,0.0,,0.0,0.0,0.0,1.0,"[0.29113257327023817, 0.0, 0.0, 0.0, 0.0, 0.0, 0.0, 0.46080347084462125, 0.0, 0.0, 0.0, 0.2145062929695827, 0.0, 0.0, 9.998317067696529e-07, 0.0, 4.633662579060374e-17, 0.0, 0.0, 0.0, 0.0, 9.996635273153903e-07, 0.0, 0.0, 0.0, 0.0, 4.633662579060375e-17, 0.0, 9.996635273153903e-07, 0.0, 0.0, 0.2145062929695827, 0.0, 0.0, 0.0, 0.34854399466647834]",,,,-0.00137567461612,0.0,0.0,,0.0,0.0,0.0,"[0.0002776907493988571, 0.0, 0.0, 0.0, 0.0, 0.0, 0.0, 9.999996205854443e-10, 0.0, 0.0, 0.0, 0.0, 0.0, 0.0, 9.997476028289291e-07, 0.0, 1.1585973710145506e-25, 0.0, 0.0, 0.0, 0.0, 9.989919344862052e-07, 0.0, 0.0, 0.0, 0.0, 1.1585973710145515e-25, 0.0, 9.989919344862052e-07, 0.0, 0.0, 0.0, 0.0, 0.0, 0.0, 9.999994949500052e-10]"
13464000000,,109,,13,464000000,turtlebot2/odom,turtlebot2/base_footprint_self,,,,0.84137603455,0.0,0.0,,0.0,0.0,0.0,1.0,"[0.29871035261312034, 0.0, 0.0, 0.0, 0.0, 0.0, 0.0, 0.4676629806547041, 0.0, 0.0, 0.0, 0.21392794829309636, 0.0, 0.0, 9.9988964936119e-07, 0.0, 4.038925112990346e-17, 0.0, 0.0, 0.0, 0.0, 9.997793479586173e-07, 0.0, 0.0, 0.0, 0.0, 4.038925112990347e-17, 0.0, 9.997793479586171e-07, 0.0, 0.0, 0.21392794829309636, 0.0, 0.0, 0.0, 0.35760399468927934]",,,,-0.00191962142564,0.0,0.0,,0.0,0.0,0.0,"[0.00042325820891104626, 0.0, 0.0, 0.0, 0.0, 0.0, 0.0, 9.999997589492823e-10, 0.0, 0.0, 0.0, 0.0, 0.0, 0.0, 9.998344925070074e-07, 0.0, 1.017230327939735e-25, 0.0, 0.0, 0.0, 0.0, 9.993386238954819e-07, 0.0, 0.0, 0.0, 0.0, 1.0172303279397348e-25, 0.0, 9.993386238954819e-07, 0.0, 0.0, 0.0, 0.0, 0.0, 0.0, 9.999996688743915e-10]"
13566000000,,110,,13,563000000,turtlebot2/odom,turtlebot2/base_footprint_self,,,,0.840602900937,0.0,0.0,,0.0,0.0,0.0,1.0,"[0.3037357760876883, 0.0, 0.0, 0.0, 0.0, 0.0, 0.0, 0.47234761766760236, 0.0, 0.0, 0.0, 0.21365147262447876, 0.0, 0.0, 0.006001009913581522, 0.0, 7.729630620846793e-10, 0.0, 0.0, 0.0, 0.0, 0.003001009772738643, 0.0, 0.0, 0.0, 0.0, 7.729630620846792e-10, 0.0, 0.003001009772738643, 0.0, 0.0, 0.21365147262447876, 0.0, 0.0, 0.0, 0.3636039946992794]",,,,-0.0135430508444,0.0,0.0,,0.0,0.0,0.0,"[0.003139228131782082, 0.0, 0.0, 0.0, 0.0, 0.0, 0.0, 0.002664162479809067, 0.0, 0.0, 0.0, 0.0, 0.0, 0.0, 0.00400100983008365, 0.0, 1.0374535566567016e-25, 0.0, 0.0, 0.0, 0.0, 0.0010009993386239098, 0.0, 0.0, 0.0, 0.0, 1.0374535566567014e-25, 0.0, 0.0010009993386239098, 0.0, 0.0, 0.0, 0.0, 0.0, 0.0, 0.0020000009999996977]"
13664000000,,111,,13,664000000,turtlebot2/odom,turtlebot2/base_footprint_self,,,,0.841582623135,0.0,0.0,,0.0,0.0,0.0,1.0,"[0.3062769394660748, 0.0, 0.0, 0.0, 0.0, 0.0, 0.0, 0.4745306635189195, 0.0, 0.0, 0.0, 0.21334536958629605, 0.0, 0.0, 9.99889692047904e-07, 0.0, 6.149939543513608e-14, 0.0, 0.0, 0.0, 0.0, 9.997793903427745e-07, 0.0, 0.0, 0.0, 0.0, 6.149939543513612e-14, 0.0, 9.99779390308487e-07, 0.0, 0.0, 0.21334536958629605, 0.0, 0.0, 0.0, 0.36666575167104914]",,,,-0.00178764218879,0.0,0.0,,0.0,0.0,0.0,"[0.00042476735157102896, 0.0, 0.0, 0.0, 0.0, 0.0, 0.0, 9.999997591468499e-10, 0.0, 0.0, 0.0, 0.0, 0.0, 0.0, 9.998344024582948e-07, 0.0, 7.008717652490272e-17, 0.0, 0.0, 0.0, 0.0, 9.993383715688045e-07, 0.0, 0.0, 0.0, 0.0, 7.008717652490269e-17, 0.0, 9.993383715687658e-07, 0.0, 0.0, 0.0, 0.0, 0.0, 0.0, 9.999996688743915e-10]"
13763000000,,112,,13,763000000,turtlebot2/odom,turtlebot2/base_footprint_self,,,,0.841744756174,0.0,0.0,,0.0,0.0,0.0,1.0,"[0.3112880156530274, 0.0, 0.0, 0.0, 0.0, 0.0, 0.0, 0.4792354383001587, 0.0, 0.0, 0.0, 0.2130862607232273, 0.0, 0.0, 9.998333891455184e-07, 0.0, 3.921436301184751e-17, 0.0, 0.0, 0.0, 0.0, 9.996668898243128e-07, 0.0, 0.0, 0.0, 0.0, 3.921436301184751e-17, 0.0, 9.996668898243128e-07, 0.0, 0.0, 0.2130862607232273, 0.0, 0.0, 0.0, 0.3726657516878041]",,,,-0.00105314317159,0.0,0.0,,0.0,0.0,0.0,"[0.0002817843584895381, 0.0, 0.0, 0.0, 0.0, 0.0, 0.0, 9.99999624603304e-10, 0.0, 0.0, 0.0, 0.0, 0.0, 0.0, 9.997501255508395e-07, 0.0, 1.7565737352439365e-23, 0.0, 0.0, 0.0, 0.0, 9.990019953456797e-07, 0.0, 0.0, 0.0, 0.0, 1.756573735243936e-23, 0.0, 9.990019953456797e-07, 0.0, 0.0, 0.0, 0.0, 0.0, 0.0, 9.999995000005e-10]"
13863000000,,113,,13,863000000,turtlebot2/odom,turtlebot2/base_footprint_self,,,,0.841489918781,0.0,0.0,,0.0,0.0,0.0,1.0,"[0.31871491557493214, 0.0, 0.0, 0.0, 0.0, 0.0, 0.0, 0.4861281415003574, 0.0, 0.0, 0.0, 0.21262528826281712, 0.0, 0.0, 9.998874130218381e-07, 0.0, 3.1341395144111196e-17, 0.0, 0.0, 0.0, 0.0, 9.997748772732683e-07, 0.0, 0.0, 0.0, 0.0, 3.13413951441112e-17, 0.0, 9.997748772732683e-07, 0.0, 0.0, 0.21262528826281712, 0.0, 0.0, 0.0, 0.38154575170970817]",,,,-0.00147347251483,0.0,0.0,,0.0,0.0,0.0,"[0.0004148734127509113, 0.0, 0.0, 0.0, 0.0, 0.0, 0.0, 9.999997536169841e-10, 0.0, 0.0, 0.0, 0.0, 0.0, 0.0, 9.998311387456929e-07, 0.0, 7.890152937112586e-26, 0.0, 0.0, 0.0, 0.0, 9.993252357107026e-07, 0.0, 0.0, 0.0, 0.0, 7.890152937112587e-26, 0.0, 9.993252357107026e-07, 0.0, 0.0, 0.0, 0.0, 0.0, 0.0, 9.999996621623905e-10]"
13964000000,,114,,13,963000000,turtlebot2/odom,turtlebot2/base_footprint_self,,,,0.841582116505,0.0,0.0,,0.0,0.0,0.0,1.0,"[0.323775267738978, 0.0, 0.0, 0.0, 0.0, 0.0, 0.0, 0.4909254707293967, 0.0, 0.0, 0.0, 0.21239281822635267, 0.0, 0.0, 9.998350382164048e-07, 0.0, 3.314174140979562e-17, 0.0, 0.0, 0.0, 0.0, 9.996701857798805e-07, 0.0, 0.0, 0.0, 0.0, 3.314174140979562e-17, 0.0, 9.996701857798805e-07, 0.0, 0.0, 0.21239281822635267, 0.0, 0.0, 0.0, 0.38760575171990913]",,,,-0.000932481229493,0.0,0.0,,0.0,0.0,0.0,"[0.0002844916008986209, 0.0, 0.0, 0.0, 0.0, 0.0, 0.0, 9.999996285834638e-10, 0.0, 0.0, 0.0, 0.0, 0.0, 0.0, 9.997525983371474e-07, 0.0, 8.294467891409027e-26, 0.0, 0.0, 0.0, 0.0, 9.990118570453718e-07, 0.0, 0.0, 0.0, 0.0, 8.29446789140902e-26, 0.0, 9.990118570453718e-07, 0.0, 0.0, 0.0, 0.0, 0.0, 0.0, 9.999995049509852e-10]"
14063000000,,115,,14,64000000,turtlebot2/odom,turtlebot2/base_footprint_self,,,,0.841646289541,0.0,0.0,,0.0,0.0,0.0,1.0,"[0.3287846178621209, 0.0, 0.0, 0.0, 0.0, 0.0, 0.0, 0.4957127831906455, 0.0, 0.0, 0.0, 0.21219308793724265, 0.0, 0.0, 9.998333891439512e-07, 0.0, 2.858917998035399e-17, 0.0, 0.0, 0.0, 0.0, 9.996668898116687e-07, 0.0, 0.0, 0.0, 0.0, 2.8589179980354004e-17, 0.0, 9.996668898116689e-07, 0.0, 0.0, 0.21219308793724265, 0.0, 0.0, 0.0, 0.39360575172990914]",,,,-0.000864737978464,0.0,0.0,,0.0,0.0,0.0,"[0.0002804620882542796, 0.0, 0.0, 0.0, 0.0, 0.0, 0.0, 9.999996246238451e-10, 0.0, 0.0, 0.0, 0.0, 0.0, 0.0, 9.997501255455265e-07, 0.0, 7.14914264912578e-26, 0.0, 0.0, 0.0, 0.0, 9.990019950204694e-07, 0.0, 0.0, 0.0, 0.0, 7.149142649125783e-26, 0.0, 9.990019950204694e-07, 0.0, 0.0, 0.0, 0.0, 0.0, 0.0, 9.999995000005e-10]"
14163000000,,116,,14,163000000,turtlebot2/odom,turtlebot2/base_footprint_self,,,,0.841646289541,0.0,0.0,,0.0,0.0,0.0,1.0,"[0.3287846178621209, 0.0, 0.0, 0.0, 0.0, 0.0, 0.0, 0.4957127831906455, 0.0, 0.0, 0.0, 0.21219308793724265, 0.0, 0.0, 9.998333891439512e-07, 0.0, 2.858917998035399e-17, 0.0, 0.0, 0.0, 0.0, 9.996668898116687e-07, 0.0, 0.0, 0.0, 0.0, 2.8589179980354004e-17, 0.0, 9.996668898116689e-07, 0.0, 0.0, 0.21219308793724265, 0.0, 0.0, 0.0, 0.39360575172990914]",,,,-0.000864737978464,0.0,0.0,,0.0,0.0,0.0,"[0.0002804620882542796, 0.0, 0.0, 0.0, 0.0, 0.0, 0.0, 9.999996246238451e-10, 0.0, 0.0, 0.0, 0.0, 0.0, 0.0, 9.997501255455265e-07, 0.0, 7.14914264912578e-26, 0.0, 0.0, 0.0, 0.0, 9.990019950204694e-07, 0.0, 0.0, 0.0, 0.0, 7.149142649125783e-26, 0.0, 9.990019950204694e-07, 0.0, 0.0, 0.0, 0.0, 0.0, 0.0, 9.999995000005e-10]"
14264000000,,117,,14,263000000,turtlebot2/odom,turtlebot2/base_footprint_self,,,,0.829042021858,0.0,0.0,,0.0,0.0,0.0,1.0,"[0.3362615559239714, 0.0, 0.0, 0.0, 0.0, 0.0, 0.0, 0.5027550595258191, 0.0, 0.0, 0.0, 0.21179629474570183, 0.0, 0.0, 9.998881684720388e-07, 0.0, 2.5201038725795343e-17, 0.0, 0.0, 0.0, 0.0, 9.99776387495899e-07, 0.0, 0.0, 0.0, 0.0, 2.5201038725795352e-17, 0.0, 9.99776387495899e-07, 0.0, 0.0, 0.21179629474570183, 0.0, 0.0, 0.0, 0.4025457517521102]",,,,-0.180564444736,0.0,0.0,,0.0,0.0,0.0,"[0.0004174523519102251, 0.0, 0.0, 0.0, 0.0, 0.0, 0.0, 9.999997554336694e-10, 0.0, 0.0, 0.0, 0.0, 0.0, 0.0, 9.998322716667661e-07, 0.0, 6.345172537886145e-26, 0.0, 0.0, 0.0, 0.0, 9.993297582625835e-07, 0.0, 0.0, 0.0, 0.0, 6.345172537886146e-26, 0.0, 9.993297582625835e-07, 0.0, 0.0, 0.0, 0.0, 0.0, 0.0, 9.999996644297555e-10]"
14363000000,,118,,14,363000000,turtlebot2/odom,turtlebot2/base_footprint_self,,,,0.795881735014,0.0,0.0,,0.0,0.0,0.0,1.0,"[0.34127154329465087, 0.0, 0.0, 0.0, 0.0, 0.0, 0.0, 0.49987790701296214, 0.0, 0.0, 0.0, 0.20416737664882068, 0.0, 0.0, 9.998333891554056e-07, 0.0, 1.0515786201969662e-15, 0.0, 0.0, 0.0, 0.0, 9.99666889823805e-07, 0.0, 0.0, 0.0, 0.0, 1.0515786201969664e-15, 0.0, 9.996668898237984e-07, 0.0, 0.0, 0.20416737664882068, 0.0, 0.0, 0.0, 0.4085457517621102]",,,,-0.392840495854,0.0,0.0,,0.0,0.0,0.0,"[0.00027739215613662734, 0.0, 0.0, 0.0, 0.0, 0.0, 0.0, 9.999996246547883e-10, 0.0, 0.0, 0.0, 0.0, 0.0, 0.0, 9.997501255506332e-07, 0.0, 2.6315102168541912e-24, 0.0, 0.0, 0.0, 0.0, 9.990019953371013e-07, 0.0, 0.0, 0.0, 0.0, 2.6315102168541912e-24, 0.0, 9.990019953371013e-07, 0.0, 0.0, 0.0, 0.0, 0.0, 0.0, 9.999995000005e-10]"
14464000000,,119,,14,463000000,turtlebot2/odom,turtlebot2/base_footprint_self,,,,0.734731153613,0.0,0.0,,0.0,0.0,0.0,1.0,"[0.34879926260953975, 0.0, 0.0, 0.0, 0.0, 0.0, 0.0, 0.483555050958441, 0.0, 0.0, 0.0, 0.17872703537918588, 0.0, 0.0, 9.99888913899626e-07, 0.0, 1.5359944532419842e-15, 0.0, 0.0, 0.0, 0.0, 9.997778775911719e-07, 0.0, 0.0, 0.0, 0.0, 1.5359944532419843e-15, 0.0, 9.99777877591151e-07, 0.0, 0.0, 0.17872703537918588, 0.0, 0.0, 0.0, 0.41754575178461023]",,,,-0.421471053611,0.0,0.0,,0.0,0.0,0.0,"[0.00043222595694272385, 0.0, 0.0, 0.0, 0.0, 0.0, 0.0, 9.99999757234765e-10, 0.0, 0.0, 0.0, 0.0, 0.0, 0.0, 9.998333894872579e-07, 0.0, 3.867973302126774e-24, 0.0, 0.0, 0.0, 0.0, 9.993342205940267e-07, 0.0, 0.0, 0.0, 0.0, 3.8679733021267736e-24, 0.0, 9.993342205940267e-07, 0.0, 0.0, 0.0, 0.0, 0.0, 0.0, 9.99999666666889e-10]"
14563000000,,120,,14,563000000,turtlebot2/odom,turtlebot2/base_footprint_self,,,,0.694013979544,0.0,0.0,,0.0,0.0,0.0,1.0,"[0.3538597275241692, 0.0, 0.0, 0.0, 0.0, 0.0, 0.0, 0.4736799818218634, 0.0, 0.0, 0.0, 0.16033980785970844, 0.0, 0.0, 9.998350382691775e-07, 0.0, 2.395346251001913e-15, 0.0, 0.0, 0.0, 0.0, 9.996701857802168e-07, 0.0, 0.0, 0.0, 0.0, 2.3953462510019133e-15, 0.0, 9.99670185780182e-07, 0.0, 0.0, 0.16033980785970844, 0.0, 0.0, 0.0, 0.4236057517948112]",,,,-0.405984329702,0.0,0.0,,0.0,0.0,0.0,"[0.0003047101315199461, 0.0, 0.0, 0.0, 0.0, 0.0, 0.0, 9.999996286240765e-10, 0.0, 0.0, 0.0, 0.0, 0.0, 0.0, 9.997525983372889e-07, 0.0, 5.995014423615255e-24, 0.0, 0.0, 0.0, 0.0, 9.99011857054145e-07, 0.0, 0.0, 0.0, 0.0, 5.9950144236152554e-24, 0.0, 9.99011857054145e-07, 0.0, 0.0, 0.0, 0.0, 0.0, 0.0, 9.999995049509852e-10]"
14663000000,,121,,14,663000000,turtlebot2/odom,turtlebot2/base_footprint_self,,,,0.65423105948,0.0,0.0,,0.0,0.0,0.0,1.0,"[0.35881892773255414, 0.0, 0.0, 0.0, 0.0, 0.0, 0.0, 0.46606575079360385, 0.0, 0.0, 0.0, 0.14277289918657585, 0.0, 0.0, 9.998317068182628e-07, 0.0, 2.3475053811754416e-15, 0.0, 0.0, 0.0, 0.0, 9.996635273150138e-07, 0.0, 0.0, 0.0, 0.0, 2.347505381175442e-15, 0.0, 9.99663527314981e-07, 0.0, 0.0, 0.14277289918657585, 0.0, 0.0, 0.0, 0.4295457518046122]",,,,-0.407753722122,0.0,0.0,,0.0,0.0,0.0,"[0.0002874171750352296, 0.0, 0.0, 0.0, 0.0, 0.0, 0.0, 9.999996206344217e-10, 0.0, 0.0, 0.0, 0.0, 0.0, 0.0, 9.997476028287707e-07, 0.0, 5.869551656396135e-24, 0.0, 0.0, 0.0, 0.0, 9.989919344763805e-07, 0.0, 0.0, 0.0, 0.0, 5.869551656396137e-24, 0.0, 9.989919344763805e-07, 0.0, 0.0, 0.0, 0.0, 0.0, 0.0, 9.999994949500052e-10]"
14763000000,,122,,14,763000000,turtlebot2/odom,turtlebot2/base_footprint_self,,,,0.614111697228,0.0,0.0,,0.0,0.0,0.0,1.0,"[0.3638282379832966, 0.0, 0.0, 0.0, 0.0, 0.0, 0.0, 0.45983530769652564, 0.0, 0.0, 0.0, 0.12472972646647024, 0.0, 0.0, 9.998333891927964e-07, 0.0, 2.3304964011695736e-15, 0.0, 0.0, 0.0, 0.0, 9.99666889810908e-07, 0.0, 0.0, 0.0, 0.0, 2.3304964011695744e-15, 0.0, 9.996668898108752e-07, 0.0, 0.0, 0.12472972646647024, 0.0, 0.0, 0.0, 0.4355457518146122]",,,,-0.404875361897,0.0,0.0,,0.0,0.0,0.0,"[0.00028921154567513035, 0.0, 0.0, 0.0, 0.0, 0.0, 0.0, 9.999996246412337e-10, 0.0, 0.0, 0.0, 0.0, 0.0, 0.0, 9.997501255452063e-07, 0.0, 5.827486764316725e-24, 0.0, 0.0, 0.0, 0.0, 9.990019950006264e-07, 0.0, 0.0, 0.0, 0.0, 5.8274867643167235e-24, 0.0, 9.990019950006264e-07, 0.0, 0.0, 0.0, 0.0, 0.0, 0.0, 9.999995000005e-10]"
14864000000,,123,,14,863000000,turtlebot2/odom,turtlebot2/base_footprint_self,,,,0.573962344484,0.0,0.0,,0.0,0.0,0.0,1.0,"[0.3688375924995204, 0.0, 0.0, 0.0, 0.0, 0.0, 0.0, 0.4552105160902314, 0.0, 0.0, 0.0, 0.10659650459988396, 0.0, 0.0, 9.998333891919815e-07, 0.0, 2.309870402418008e-15, 0.0, 0.0, 0.0, 0.0, 9.996668898112922e-07, 0.0, 0.0, 0.0, 0.0, 2.3098704024180075e-15, 0.0, 9.996668898112602e-07, 0.0, 0.0, 0.10659650459988396, 0.0, 0.0, 0.0, 0.44154575182461225]",,,,-0.406003815599,0.0,0.0,,0.0,0.0,0.0,"[0.000296846200193752, 0.0, 0.0, 0.0, 0.0, 0.0, 0.0, 9.999996246257468e-10, 0.0, 0.0, 0.0, 0.0, 0.0, 0.0, 9.997501255453678e-07, 0.0, 5.7760418681286195e-24, 0.0, 0.0, 0.0, 0.0, 9.990019950106468e-07, 0.0, 0.0, 0.0, 0.0, 5.7760418681286195e-24, 0.0, 9.990019950106468e-07, 0.0, 0.0, 0.0, 0.0, 0.0, 0.0, 9.999995000005001e-10]"
14963000000,,124,,14,963000000,turtlebot2/odom,turtlebot2/base_footprint_self,,,,0.534262185092,0.0,0.0,,0.0,0.0,0.0,1.0,"[0.37384700024054424, 0.0, 0.0, 0.0, 0.0, 0.0, 0.0, 0.45209788256423594, 0.0, 0.0, 0.0, 0.08819307348847921, 0.0, 0.0, 9.99833389192088e-07, 0.0, 2.3124348690372046e-15, 0.0, 0.0, 0.0, 0.0, 9.996668898112922e-07, 0.0, 0.0, 0.0, 0.0, 2.3124348690372042e-15, 0.0, 9.996668898112602e-07, 0.0, 0.0, 0.08819307348847921, 0.0, 0.0, 0.0, 0.44754575183461226]",,,,-0.398444682182,0.0,0.0,,0.0,0.0,0.0,"[0.0002940821510156651, 0.0, 0.0, 0.0, 0.0, 0.0, 0.0, 9.999996246121077e-10, 0.0, 0.0, 0.0, 0.0, 0.0, 0.0, 9.997501255453678e-07, 0.0, 5.782454463886355e-24, 0.0, 0.0, 0.0, 0.0, 9.990019950106468e-07, 0.0, 0.0, 0.0, 0.0, 5.7824544638863575e-24, 0.0, 9.990019950106468e-07, 0.0, 0.0, 0.0, 0.0, 0.0, 0.0, 9.999995000005e-10]"
15063000000,,125,,15,63000000,turtlebot2/odom,turtlebot2/base_footprint_self,,,,0.494621677022,0.0,0.0,,0.0,0.0,0.0,1.0,"[0.3788564337603376, 0.0, 0.0, 0.0, 0.0, 0.0, 0.0, 0.45064761868094666, 0.0, 0.0, 0.0, 0.069917724175642, 0.0, 0.0, 9.998333891901539e-07, 0.0, 2.265555332282263e-15, 0.0, 0.0, 0.0, 0.0, 9.996668898112922e-07, 0.0, 0.0, 0.0, 0.0, 2.2655553322822627e-15, 0.0, 9.996668898112613e-07, 0.0, 0.0, 0.069917724175642, 0.0, 0.0, 0.0, 0.45354575184461227]",,,,-0.400537057159,0.0,0.0,,0.0,0.0,0.0,"[0.0002991948108002627, 0.0, 0.0, 0.0, 0.0, 0.0, 0.0, 9.99999624600095e-10, 0.0, 0.0, 0.0, 0.0, 0.0, 0.0, 9.997501255453678e-07, 0.0, 5.665227965350088e-24, 0.0, 0.0, 0.0, 0.0, 9.990019950106468e-07, 0.0, 0.0, 0.0, 0.0, 5.6652279653500886e-24, 0.0, 9.990019950106468e-07, 0.0, 0.0, 0.0, 0.0, 0.0, 0.0, 9.999995000005e-10]"
15163000000,,126,,15,163000000,turtlebot2/odom,turtlebot2/base_footprint_self,,,,0.494621677022,0.0,0.0,,0.0,0.0,0.0,1.0,"[0.3788564337603376, 0.0, 0.0, 0.0, 0.0, 0.0, 0.0, 0.45064761868094666, 0.0, 0.0, 0.0, 0.069917724175642, 0.0, 0.0, 9.998333891901539e-07, 0.0, 2.265555332282263e-15, 0.0, 0.0, 0.0, 0.0, 9.996668898112922e-07, 0.0, 0.0, 0.0, 0.0, 2.2655553322822627e-15, 0.0, 9.996668898112613e-07, 0.0, 0.0, 0.069917724175642, 0.0, 0.0, 0.0, 0.45354575184461227]",,,,-0.400537057159,0.0,0.0,,0.0,0.0,0.0,"[0.0002991948108002627, 0.0, 0.0, 0.0, 0.0, 0.0, 0.0, 9.99999624600095e-10, 0.0, 0.0, 0.0, 0.0, 0.0, 0.0, 9.997501255453678e-07, 0.0, 5.665227965350088e-24, 0.0, 0.0, 0.0, 0.0, 9.990019950106468e-07, 0.0, 0.0, 0.0, 0.0, 5.6652279653500886e-24, 0.0, 9.990019950106468e-07, 0.0, 0.0, 0.0, 0.0, 0.0, 0.0, 9.999995000005e-10]"
15263000000,,127,,15,263000000,turtlebot2/odom,turtlebot2/base_footprint_self,,,,0.433957008824,0.0,0.0,,0.0,0.0,0.0,1.0,"[0.38643483029333364, 0.0, 0.0, 0.0, 0.0, 0.0, 0.0, 0.4512403003802547, 0.0, 0.0, 0.0, 0.041518797759969736, 0.0, 0.0, 9.998896494088943e-07, 0.0, 1.5241185821658802e-15, 0.0, 0.0, 0.0, 0.0, 9.99779347958792e-07, 0.0, 0.0, 0.0, 0.0, 1.5241185821658798e-15, 0.0, 9.997793479587709e-07, 0.0, 0.0, 0.041518797759969736, 0.0, 0.0, 0.0, 0.46260575186741326]",,,,-0.400656784414,0.0,0.0,,0.0,0.0,0.0,"[0.00047886457314960456, 0.0, 0.0, 0.0, 0.0, 0.0, 0.0, 9.999997589412111e-10, 0.0, 0.0, 0.0, 0.0, 0.0, 0.0, 9.998344925070806e-07, 0.0, 3.8386822193373536e-24, 0.0, 0.0, 0.0, 0.0, 9.993386238998824e-07, 0.0, 0.0, 0.0, 0.0, 3.8386822193373536e-24, 0.0, 9.993386238998824e-07, 0.0, 0.0, 0.0, 0.0, 0.0, 0.0, 9.999996688743915e-10]"
15363000000,,128,,15,363000000,turtlebot2/odom,turtlebot2/base_footprint_self,,,,0.394077477197,0.0,0.0,,0.0,0.0,0.0,1.0,"[0.3914454187199247, 0.0, 0.0, 0.0, 0.0, 0.0, 0.0, 0.4536231719973271, 0.0, 0.0, 0.0, 0.022589796781709758, 0.0, 0.0, 9.998333891919343e-07, 0.0, 2.270449854271618e-15, 0.0, 0.0, 0.0, 0.0, 9.996668898241434e-07, 0.0, 0.0, 0.0, 0.0, 2.2704498542716184e-15, 0.0, 9.996668898241124e-07, 0.0, 0.0, 0.022589796781709758, 0.0, 0.0, 0.0, 0.46860575187741327]",,,,-0.403804386579,0.0,0.0,,0.0,0.0,0.0,"[0.00031844146800490933, 0.0, 0.0, 0.0, 0.0, 0.0, 0.0, 9.99999624640551e-10, 0.0, 0.0, 0.0, 0.0, 0.0, 0.0, 9.997501255507757e-07, 0.0, 5.681775173768592e-24, 0.0, 0.0, 0.0, 0.0, 9.990019953459315e-07, 0.0, 0.0, 0.0, 0.0, 5.6817751737685944e-24, 0.0, 9.990019953459315e-07, 0.0, 0.0, 0.0, 0.0, 0.0, 0.0, 9.999995000005e-10]"
15463000000,,129,,15,463000000,turtlebot2/odom,turtlebot2/base_footprint_self,,,,0.354308184775,0.0,0.0,,0.0,0.0,0.0,1.0,"[0.3963545791815197, 0.0, 0.0, 0.0, 0.0, 0.0, 0.0, 0.45746881213271573, 0.0, 0.0, 0.0, 0.0036810410026764384, 0.0, 0.0, 9.998299901197147e-07, 0.0, 2.3309920853472582e-15, 0.0, 0.0, 0.0, 0.0, 9.996600962422286e-07, 0.0, 0.0, 0.0, 0.0, 2.3309920853472574e-15, 0.0, 9.996600962421966e-07, 0.0, 0.0, 0.0036810410026764384, 0.0, 0.0, 0.0, 0.4744857518870173]",,,,-0.411325743525,0.0,0.0,,0.0,0.0,0.0,"[0.00029697776322990264, 0.0, 0.0, 0.0, 0.0, 0.0, 0.0, 9.999996164922505e-10, 0.0, 0.0, 0.0, 0.0, 0.0, 0.0, 9.997450286540854e-07, 0.0, 5.827412619877625e-24, 0.0, 0.0, 0.0, 0.0, 9.989816690227934e-07, 0.0, 0.0, 0.0, 0.0, 5.827412619877624e-24, 0.0, 9.989816690227934e-07, 0.0, 0.0, 0.0, 0.0, 0.0, 0.0, 9.99999489796439e-10]"
15563000000,,130,,15,563000000,turtlebot2/odom,turtlebot2/base_footprint_self,,,,0.313553732431,0.0,0.0,,0.0,0.0,0.0,1.0,"[0.4014646391236024, 0.0, 0.0, 0.0, 0.0, 0.0, 0.0, 0.4631284911377441, 0.0, 0.0, 0.0, -0.01661353615098202, 0.0, 0.0, 9.998366550104312e-07, 0.0, 2.280911420477097e-15, 0.0, 0.0, 0.0, 0.0, 9.9967341713912e-07, 0.0, 0.0, 0.0, 0.0, 2.2809114204770963e-15, 0.0, 9.99673417139088e-07, 0.0, 0.0, -0.01661353615098202, 0.0, 0.0, 0.0, 0.48060575189742133]",,,,-0.397626770007,0.0,0.0,,0.0,0.0,0.0,"[0.00030801872216645334, 0.0, 0.0, 0.0, 0.0, 0.0, 0.0, 9.999996324230116e-10, 0.0, 0.0, 0.0, 0.0, 0.0, 0.0, 9.99755022656166e-07, 0.0, 5.704790081187361e-24, 0.0, 0.0, 0.0, 0.0, 9.990215254405784e-07, 0.0, 0.0, 0.0, 0.0, 5.704790081187362e-24, 0.0, 9.990215254405784e-07, 0.0, 0.0, 0.0, 0.0, 0.0, 0.0, 9.999995098044023e-10]"
15663000000,,131,,15,663000000,turtlebot2/odom,turtlebot2/base_footprint_self,,,,0.253599321156,0.0,0.0,,0.0,0.0,0.0,1.0,"[0.4089422825556869, 0.0, 0.0, 0.0, 0.0, 0.0, 0.0, 0.47439380986055507, 0.0, 0.0, 0.0, -0.04582832509631102, 0.0, 0.0, 9.99888168518255e-07, 0.0, 1.519609901899041e-15, 0.0, 0.0, 0.0, 0.0, 9.997763874962471e-07, 0.0, 0.0, 0.0, 0.0, 1.5196099018990413e-15, 0.0, 9.997763874962266e-07, 0.0, 0.0, -0.04582832509631102, 0.0, 0.0, 0.0, 0.4895457519196223]",,,,-0.406365683956,0.0,0.0,,0.0,0.0,0.0,"[0.00046153873944632253, 0.0, 0.0, 0.0, 0.0, 0.0, 0.0, 9.999997554237438e-10, 0.0, 0.0, 0.0, 0.0, 0.0, 0.0, 9.998322716669118e-07, 0.0, 3.826276083714541e-24, 0.0, 0.0, 0.0, 0.0, 9.993297582713566e-07, 0.0, 0.0, 0.0, 0.0, 3.826276083714542e-24, 0.0, 9.993297582713566e-07, 0.0, 0.0, 0.0, 0.0, 0.0, 0.0, 9.999996644297555e-10]"
