rosbagTimestamp,header,seq,stamp,secs,nsecs,frame_id,child_frame_id,pose,pose,position,x,y,z,orientation,x,y,z,w,covariance,twist,twist,linear,x,y,z,angular,x,y,z,covariance
8685000000,,69,,8,685000000,turtlebot2/odom,turtlebot2/base_footprint_distributed,,,,1.99752452858e-05,-5.59101202791e-15,-2.00554414198e-18,,-5.85365358487e-19,-1.2788772465e-18,8.87083301742e-16,1.0,"[0.05638460749323942, -1.045466162221305e-18, -1.9740330438869613e-27, 3.8098938244477945e-32, 6.853929447543294e-32, 9.260749188333945e-28, -1.045466162221305e-18, 0.05635453751695714, -2.862099130445147e-28, -2.3871922623793166e-32, 5.652438538810266e-32, 3.622883695510972e-27, -1.9740330438899e-27, -2.862099130445147e-28, 0.0012619977329970708, 2.6568613222352736e-35, 7.427226724677496e-35, 4.335448057465829e-31, 3.8098938244479346e-32, -2.3871922623793166e-32, 2.656861322095144e-35, 0.0006319954773800979, 6.040703608813757e-35, 1.123898721511133e-26, 6.853929447543294e-32, 5.652438538809986e-32, 7.427226725798535e-35, 6.040703608813757e-35, 0.0006319954773800979, 4.725297147830251e-28, 9.260749188333945e-28, 3.622883695510972e-27, 4.335448057465829e-31, 1.123898721511133e-26, 4.725297147830251e-28, 0.06760316322844764]",,,,-6.5448324439e-05,-1.10348486705e-14,1.20510083004e-18,,-7.55147524873e-19,-3.01352525081e-18,7.71510471454e-15,"[0.000867511907174919, -2.1733164276335357e-24, 5.236654968611875e-28, -7.04211388077764e-34, -2.003818348937561e-33, 1.0665774392803095e-29, -2.1733164276335357e-24, 0.002516173435328776, 1.6931714990595e-28, -1.6796356021128844e-32, 4.997904733626908e-32, -5.906205932502311e-29, 5.236654968611143e-28, 1.6931714990593277e-28, 0.0008419966027744958, -3.2859652179018836e-36, -3.487046759567144e-35, 6.746024479749782e-32, -7.0421138807758886e-34, -1.6796356021129545e-32, -3.285965217945674e-36, 0.000211986564908653, 7.695251732778743e-35, -6.374944595157997e-27, -2.003818348937561e-33, 4.997904733626908e-32, -3.4870467596372087e-35, 7.695180570358569e-35, 0.00021198656490865292, -2.69011554302665e-28, 1.0665774392803073e-29, -5.906205932502311e-29, 6.746024479750343e-32, -6.374944595157913e-27, -2.690115543026634e-28, 0.0020000019999977534]"
8784000000,,70,,8,784000000,turtlebot2/odom,turtlebot2/base_footprint_distributed,,,,1.88946882766e-05,2.18931984221e-14,-4.23934323235e-18,,-1.6482533873e-18,-1.77321408922e-18,-9.02054822624e-15,1.0,"[0.06189250520798326, -1.0855308236093594e-18, 3.466403260330311e-28, 2.5203292071304108e-31, 6.012190573833567e-31, 5.011536442235812e-27, -1.0855308236093594e-18, 0.06186944016533163, -2.1402248479399153e-30, -4.920673694829728e-31, -5.3689435349077035e-31, 2.6792991082892034e-27, 3.466403260329852e-28, -2.1402248479399153e-30, 0.0004219978313245306, 2.43009085638406e-34, 1.4334512349998188e-34, 6.46909416932155e-31, 2.520329207130635e-31, -4.920673694829952e-31, 2.4300908560477485e-34, 0.00021199567307052963, 2.8782593330464915e-35, 1.935466035779106e-30, 6.012190573834016e-31, -5.368943534907479e-31, 1.4334512350558707e-34, 2.8782593330464915e-35, 0.00021199567307052963, -7.056130819681493e-30, 5.011536442235812e-27, 2.6792991082892034e-27, 6.46909416932155e-31, 1.935466036146448e-30, -7.056130819681493e-30, 0.07421490480176146]",,,,3.49500199739e-05,-5.90310969178e-21,-1.28020447287e-18,,-2.88422008367e-18,6.07222863582e-18,9.01157269041e-22,"[0.0010980014656065194, 2.245002030850142e-28, -8.954594285583036e-29, -2.1214609594085045e-31, 7.469849001256403e-31, -2.211223790102275e-34, 2.245002030850142e-28, 0.0001750019999994237, 1.359719448388565e-34, 2.992841412061764e-39, 2.628603303528279e-38, -1.876618903423795e-41, -8.95459428558318e-29, 1.3597194699125095e-34, 0.0002819967507939118, 4.933610152663725e-35, -1.1690402416672498e-34, 2.1844426976014133e-38, -2.1214609594085045e-31, 2.992841587224072e-39, 4.93361015259366e-35, 7.198714246802742e-05, -1.965793146787747e-34, 2.8671691672533415e-34, 7.469849001256403e-31, 2.628603303528279e-38, -1.1690402416672498e-34, -1.965793212312463e-34, 7.198714246802742e-05, -2.558880653179247e-34, -2.211223790102275e-34, -1.876618903423795e-41, 2.184443258120799e-38, 2.8671691708406655e-34, -2.558880653179247e-34, 0.00014000199999925512]"
8885000000,,71,,8,885000000,turtlebot2/odom,turtlebot2/base_footprint_distributed,,,,2.04742474333e-05,7.64191390248e-14,1.37944125272e-18,,6.41056170702e-19,3.77314284051e-19,9.49267633533e-15,1.0,"[0.06955490095291203, -1.0247267039165009e-18, -5.064666615489939e-28, 5.204442977935656e-32, 1.927622676058022e-33, 5.38426774241275e-27, -1.0247267039165009e-18, 0.06952560472573201, 4.084936986600892e-30, 2.3224658849988824e-31, 1.495786893845497e-31, 4.106327737548982e-27, -5.064666615486266e-28, 4.08493698664681e-30, 0.0006019993155892533, 2.673105790605051e-35, 1.0537625426099382e-35, -4.414858330895915e-31, 5.204442977935656e-32, 2.322465884998434e-31, 2.6731057928471287e-35, 0.00030199863221806343, 2.2356800526686013e-35, -2.1980553673496154e-29, 1.927622676058022e-33, 1.4957868938452727e-31, 1.0537625426099382e-35, 2.2356800526686013e-35, 0.00030199863221806343, -1.240818952445734e-29, 5.38426774241275e-27, 4.106327737548982e-27, -4.414858330897709e-31, -2.1980553673496154e-29, -1.2408189524434381e-29, 0.08340024907821947]",,,,5.12799793661e-07,-3.57246252491e-21,1.92739181068e-19,,-2.43476608772e-18,1.09988267346e-18,9.05002153033e-22,"[0.002567789962154228, 5.959486493377913e-29, 1.577565111300885e-28, -9.068392245119202e-33, -1.989829741359995e-33, 6.864334658986476e-36, 5.959486493377913e-29, 0.00025000199999924196, -1.0479173405173826e-35, -3.3350073882239766e-38, 3.1667061177244016e-39, 8.957099783964231e-42, 1.5775651113009353e-28, -1.0479179144892336e-35, 0.00040199897370552613, 5.673610709187721e-36, 2.6196252620394146e-36, -3.5000189704487026e-39, -9.068392245119202e-33, -3.3350079487433623e-38, 5.67361071058902e-36, 0.00010199590893162952, -2.544562499599853e-35, -1.4583359699631403e-34, -1.989829741359995e-33, 3.166706468049018e-39, 2.6196252623897392e-36, -2.544569766453429e-35, 0.00010199590893162952, 4.7324461250269676e-35, 6.864334657585178e-36, 8.957099783964231e-42, -3.5000189704487026e-39, -1.4583359125659552e-34, 4.732445838041042e-35, 0.0002000019999989955]"
8984000000,,72,,8,984000000,turtlebot2/odom,turtlebot2/base_footprint_distributed,,,,2.04724391168e-05,9.91962314999e-14,-3.82652494782e-18,,-1.66527393264e-18,-6.11520783929e-19,5.12768010725e-15,1.0,"[0.07287558722908234, -6.288465461781643e-19, -3.9843160800308414e-26, -2.245705829337198e-31, -2.6918836582504967e-32, 5.1834865268273155e-27, -6.288465461781643e-19, 0.07282655854945332, 4.4198840241977784e-27, -6.333714432204114e-31, -3.289327958989046e-31, 3.841771389380386e-27, -3.9843160800306945e-26, 4.419884024197411e-27, 0.003961995027668013, 8.073738969970087e-35, 1.74511519663261e-35, -8.795578380609267e-33, -2.245705829337142e-31, -6.333714432204114e-31, 8.073738970250347e-35, 0.0019819901100446803, 9.942400095877026e-35, 4.3003733689457354e-27, -2.691883658250567e-32, -3.289327958989158e-31, 1.74511519663261e-35, 9.941224601526204e-35, 0.0019819901100446803, -7.306270267072294e-27, 5.1834865268273155e-27, 3.841771389380386e-27, -8.795578380609267e-33, 4.3003733689457354e-27, -7.306270267072294e-27, 0.08736112030032689]",,,,5.05356881326e-07,-4.95531762882e-15,-6.3665362521e-18,,-1.1715585729e-17,-3.2454893377e-18,-3.53588994543e-16,"[0.0043172391708827485, -1.386116537849068e-23, 2.838946669790329e-26, 1.0021139129310764e-31, -2.62962473767347e-32, -2.0139093709371448e-30, -1.386116537849068e-23, 0.0019468657045567635, -5.041873097476399e-27, -9.978978190451677e-33, -1.5311782663789658e-33, 1.2202652859417913e-31, 2.838946669790209e-26, -5.041873097476176e-27, 0.002641992540559787, 6.847316981631573e-34, 1.054564578261038e-34, 1.4745727967305837e-32, 1.0021139129310694e-31, -9.978978190451589e-33, 6.847316981631573e-34, 0.0006619709249220189, 8.490722473523986e-35, -4.269373335306348e-27, -2.62962473767347e-32, -1.5311782663789549e-33, 1.0545645782627895e-34, 8.489974809379596e-35, 0.0006619709249220189, 7.253675539930295e-27, -2.0139093709371448e-30, 1.2202652859417913e-31, 1.4745727967306538e-32, -4.2693733353063394e-27, 7.253675539930375e-27, 0.00152000199999901]"
9085000000,,73,,9,84000000,turtlebot2/odom,turtlebot2/base_footprint_distributed,,,,3.73512778203e-05,1.11405368417e-13,-4.66378583482e-19,,3.14022627328e-18,-2.98637187023e-18,8.83680816079e-15,1.0,"[0.07797690424423136, -9.472591872161787e-19, 1.666814767777347e-26, -1.0853749679351164e-31, -3.3694862976362465e-31, 3.997571537670714e-27, -9.472591872161787e-19, 0.07793213725304494, -9.345970768390141e-29, 1.0308653295814406e-30, -1.292317878847784e-30, 8.832195027361753e-27, 1.666814767777347e-26, -9.34597076838928e-29, 0.0014419937931071229, -1.027456712008932e-34, -3.394588746025141e-35, 3.681625890794728e-32, -1.0853749679351164e-31, 1.0308653295814406e-30, -1.027456712008932e-34, 0.0007219876712221909, -4.88539102662715e-34, -9.400787095226354e-28, -3.3694862976362465e-31, -1.2923178788477392e-30, -3.3945887460076247e-35, -4.88539102662715e-34, 0.0007219876712221909, 1.4794628069016944e-28, 3.997571537670714e-27, 8.832195027361753e-27, 3.681625890794728e-32, -9.40078709522624e-28, 1.4794628069017088e-28, 0.0934856098012892]",,,,0.000113394311814,-2.68169513734e-15,-4.76823197316e-18,,-1.53990963238e-17,1.89770712858e-17,1.8189382827e-16,"[0.0030678415797488457, -2.8625789279414863e-24, -7.274584788131619e-27, -2.236226965791119e-30, 3.4269211291828014e-30, 4.6833357056043865e-29, -2.8625789279414863e-24, 0.0008066450024760066, 9.622011700673532e-29, 1.09540319745699e-31, -1.258071946667952e-31, -4.998352527777613e-31, -7.274584788131781e-27, 9.622011700673446e-29, 0.0009619907181047929, 6.199940490913115e-34, -1.0144507567267017e-33, 1.0929085122106431e-33, -2.2362269657911414e-30, 1.09540319745699e-31, 6.199940490899102e-34, 0.00024196399186232726, -3.3581895631730704e-33, 9.333981479486557e-28, 3.426921129182779e-30, -1.258071946667945e-31, -1.0144507567238991e-33, -3.358190412958294e-33, 0.00024196399186232726, -1.4824100802148324e-28, 4.6833357056043865e-29, -4.998352527777613e-31, 1.0929085122106431e-33, 9.33398147948655e-28, -1.482410080214846e-28, 0.0006400019999989732]"
9184000000,,74,,9,184000000,turtlebot2/odom,turtlebot2/base_footprint_distributed,,,,3.10479179342e-05,1.25670338222e-13,-1.02148632339e-18,,-3.68114739336e-19,-1.29405529141e-18,1.97375713094e-14,1.0,"[0.08192764231385834, -1.0016984155480366e-18, 1.0246405495142352e-28, -3.809942389286648e-32, -1.7735651452627707e-31, 4.249327810937662e-27, -1.0016984155480366e-18, 0.08188519689105166, 1.1570758116089224e-29, 1.2748685676000756e-31, 6.188316053129604e-31, 8.051266597188234e-28, 1.0246405495142352e-28, 1.1570758115905553e-29, 0.0006019992759449455, 1.6359656919627892e-35, 2.1905043459363267e-35, -4.802485549084551e-31, -3.8099423892855267e-32, 1.2748685676002998e-31, 1.635965693083828e-35, 0.0003019985530518911, 1.5707543262862817e-36, -3.606172851187539e-29, -1.7735651452627707e-31, 6.188316053130501e-31, 2.1905043470573654e-35, 1.5707543262862817e-36, 0.0003019985530518911, -3.8667056996468104e-29, 4.249327810937662e-27, 8.051266597188234e-28, -4.8024855490863445e-31, -3.606172851192131e-29, -3.8667056996468104e-29, 0.09822804618680436]",,,,-1.68952147024e-05,-4.56199686488e-21,-5.84571376488e-19,,-2.65380050012e-18,-1.84404946568e-18,5.14814824843e-23,"[0.0023205116343994396, 3.902265671346171e-29, -4.135784772074371e-29, -8.602413911009527e-33, -1.7357196624149465e-32, 1.382464095394057e-35, 3.902265671346171e-29, 0.0002500019999988625, -1.390087789624293e-34, 8.240702199140354e-38, 6.44659230981539e-38, 3.0036832582802454e-42, -4.135784772072936e-29, -1.3900878470214781e-34, 0.00040199891428114014, 3.0407224964378306e-35, 1.5829903516722396e-35, 4.532771384436084e-40, -8.602413911009177e-33, 8.240702199140354e-38, 3.040722496157571e-35, 0.00010199567285669594, 4.624581524799012e-35, 1.6205965494992188e-34, -1.7357196624149465e-32, 6.44659230981539e-38, 1.5829903518123695e-35, 4.624570167975608e-35, 0.00010199567285669594, 3.6382104614757852e-34, 1.3824640951137974e-35, 3.002982609048083e-42, 4.532769632813003e-40, 1.6205965494992188e-34, 3.6382105762701554e-34, 0.0002000019999985102]"
9285000000,,75,,9,284000000,turtlebot2/odom,turtlebot2/base_footprint_distributed,,,,3.25669528178e-05,1.6548213759e-13,-3.8119714501e-19,,2.56849377571e-19,5.99204142548e-19,1.77640750409e-14,1.0,"[0.0893983646857554, -2.834834064819283e-19, 1.2027552124030326e-27, 2.816164454114038e-32, 2.0599046400117282e-31, 1.873920651417006e-27, -2.834834064819283e-19, 0.0893382610386718, -2.1563474666733074e-27, 3.26461270501364e-31, 3.8744532467958977e-31, -4.9638050690309476e-27, 1.202755212404502e-27, -2.1563474666731237e-27, 0.003121998217824877, -2.125261034928793e-36, -7.389055593080352e-36, 2.823741148620412e-31, 2.8161644541134776e-32, 3.2646127050131915e-31, -2.125261034928793e-36, 0.0015619964426973317, -3.7181265137930606e-36, -1.319746022372219e-27, 2.0599046400118403e-31, 3.8744532467958977e-31, -7.389055592730027e-36, -3.7181265137930606e-36, 0.0015619964426973317, 3.342051789225928e-27, 1.873920651417006e-27, -4.9638050690309476e-27, 2.823741148619515e-31, -1.319746022372219e-27, 3.342051789225928e-27, 0.1071703921263091]",,,,1.82643154867e-05,-8.19684199847e-16,1.0331411528e-18,,2.31446180442e-18,-6.04437030235e-20,3.54125299145e-17,"[0.0018381562791917327, -1.4130317288864294e-24, -4.772998116160992e-28, -1.2226108996263038e-32, -5.9620535181913115e-33, -1.9800986733671346e-31, -1.4130317288864279e-24, 0.0020332764000116476, 2.145727596008242e-27, 2.114612716820332e-32, 2.4469751746048952e-32, -8.510042704927388e-32, -4.772998116161057e-28, 2.145727596008241e-27, 0.002081997324575484, -1.2606193846520183e-35, -1.3904435705813022e-35, 2.2984464812843705e-33, -1.2226108996263038e-32, 2.114612716820332e-32, -1.2606193846520183e-35, 0.0005219894020890119, 4.874266304705269e-35, 1.3163456942853748e-27, -5.96205351818991e-33, 2.4469751746048952e-32, -1.390443570563786e-35, 4.874083341333645e-35, 0.0005219894020890119, -3.3331984919812884e-27, -1.9800986733671346e-31, -8.510042704927388e-32, 2.2984464812841953e-33, 1.3163456942853791e-27, -3.333198491981353e-27, 0.0016000019999981023]"
9384000000,,76,,9,384000000,turtlebot2/odom,turtlebot2/base_footprint_distributed,,,,3.44935013317e-05,1.72162657182e-13,2.96743340079e-18,,9.30801251712e-19,-5.50337218024e-19,2.37907201759e-14,1.0,"[0.09453168700911543, 1.8139413396645847e-18, -2.255196640695165e-26, 1.5801906089215093e-32, -1.0598492440166363e-32, 1.9600202698992642e-27, 1.8139413396645847e-18, 0.09443820067691187, 6.703723804266375e-29, -9.556852687595059e-32, 5.555197775464088e-32, -3.944453145413405e-27, -2.2551966406948712e-26, 6.703723804192906e-29, 0.004921997506942032, 1.6833795248916063e-35, 3.2136615783760426e-36, -3.361626346990391e-31, 1.5801906089215444e-32, -9.55685268759562e-32, 1.6833795248565738e-35, 0.002461995027683489, -1.9107666408481223e-35, -1.8488462073210294e-29, -1.0598492440167064e-32, 5.555197775464368e-32, 3.2136615782884614e-36, -1.9037136747431885e-35, 0.002461995027683489, 9.882705767064745e-30, 1.9600202698992642e-27, -3.944453145413405e-27, -3.3616263469908394e-31, -1.8488462073210294e-29, 9.882705767799428e-30, 0.11329032912092353]",,,,1.94847513421e-05,-3.39748143276e-22,-3.25812149838e-18,,-4.48524988619e-18,-1.82332924409e-18,-1.62851204277e-21,"[0.00457152753649021, 5.186079158812303e-28, 1.6003753039609604e-26, 7.938457123354008e-32, 1.6600394906950592e-32, 4.4694918076243196e-36, 5.1860791597526985e-28, 0.0020500019999989474, -4.9706099766703625e-33, -6.843849073933915e-38, -2.07148185637957e-38, -1.5290968842712404e-41, 1.6003753039609624e-26, -4.9706099765806794e-33, 0.0032819962488881234, 1.8699767976782767e-34, 9.094351822766691e-35, 1.4646434607553883e-38, 7.938457123354008e-32, -6.843849073933915e-38, 1.8699767977203157e-34, 0.0008219852125287706, 1.6778697063224897e-34, -1.9510617871579845e-32, 1.6600394906950592e-32, -2.0714819264444933e-38, 9.094351822766691e-35, 1.6772508388760654e-34, 0.0008219852125287706, 1.0161782400030806e-32, 4.4694918076243196e-36, -1.5296574036569703e-41, 1.4646433206255418e-38, -1.9510617870324282e-32, 1.0161782399223659e-32, 0.0016400019999985144]"
9484000000,,77,,9,484000000,turtlebot2/odom,turtlebot2/base_footprint_distributed,,,,2.64046740075e-05,1.57698071052e-13,6.36708967976e-19,,2.0789598646e-18,1.29919477024e-19,2.43465293033e-14,1.0,"[0.09953068041034302, 1.3812196576157997e-18, -4.390057146108263e-26, 6.808617551550225e-31, -1.914055341867145e-32, 2.0027699952212607e-27, 1.3812196576157997e-18, 0.09943933774583842, 3.175902263225681e-28, 7.4986223631180855e-31, -8.247592375032217e-33, -1.7429537034395984e-27, -4.3900571461076755e-26, 3.1759022631962934e-28, 0.0037219972307762825, 7.304915841925931e-35, 5.46413625844738e-36, 5.950511131718529e-32, 6.8086175515500004e-31, 7.4986223631180855e-31, 7.304915841925931e-35, 0.0018619944785309387, 1.0146414092528124e-34, -8.852004105460607e-29, -1.914055341867145e-32, -8.247592375033619e-33, 5.4641362586225426e-36, 1.0147001839703535e-34, 0.0018619944785309387, 2.527507251058438e-29, 2.0027699952212607e-27, -1.7429537034395984e-27, 5.950511131717968e-32, -8.852004106048354e-29, 2.527507251205375e-29, 0.11929081313903706]",,,,-4.77253163154e-05,-1.00899709649e-21,7.54021912256e-22,,6.11800194407e-18,-3.20543089876e-18,1.47646464583e-21,"[0.002555620436872315, 1.413013806477122e-28, 2.7934267605621887e-26, -9.448158357191934e-31, 5.081879843773828e-31, 2.3109147645611235e-34, 1.4130138069473198e-28, 0.0015500019999990697, -1.0723958715413579e-32, 1.8306844098281507e-38, -1.7232716595511856e-38, -5.533447375925838e-41, 2.793426760562323e-26, -1.0723958715054847e-32, 0.0024819958419377086, -4.550767876027044e-35, 1.2323814750071343e-35, -8.860548918473786e-39, -9.448158357191934e-31, 1.8306844098281507e-38, -4.550767876027044e-35, 0.0006219836141838117, -1.184863019066304e-34, -8.561008533391043e-32, 5.081879843773884e-31, -1.7232715894862623e-38, 1.2323814750071343e-35, -1.1848373822128082e-34, 0.0006219836141838117, 2.1505850120900901e-32, 2.3109147645611235e-34, -5.533447375925838e-41, -8.860547517175322e-39, -8.561008534252001e-32, 2.1505850121618366e-32, 0.0012400019999987727]"
9585000000,,78,,9,584000000,turtlebot2/odom,turtlebot2/base_footprint_distributed,,,,3.55578021231e-05,1.51713876371e-13,-3.52200206156e-18,,1.24256891711e-18,-2.47653265848e-19,2.21029687972e-14,1.0,"[0.10148087135518512, 1.258520294791059e-18, 4.779722905408855e-28, 3.8412868779047257e-32, 1.3840479863767877e-32, 3.703035797498682e-27, 1.258520294791059e-18, 0.10139174508290423, 2.894230644442112e-27, -2.8378266523331174e-31, 1.1771102848453073e-31, -5.12406605420467e-27, 4.779722905408855e-28, 2.8942306444419285e-27, 0.0011419975069247334, -9.42331047563363e-35, -2.554542691456386e-35, -6.806006992075789e-31, 3.8412868779047257e-32, -2.8378266523330053e-31, -9.42331047535337e-35, 0.0005719950276165073, -3.0016081796410325e-35, -2.9730927155670684e-27, 1.3840479863767877e-32, 1.1771102848453633e-31, -2.5545426913863213e-35, -3.0016449138394957e-35, 0.0005719950276165072, -4.785947175357192e-27, 3.703035797498682e-27, -5.12406605420467e-27, -6.806006992075789e-31, -2.9730927155668847e-27, -4.7859471753573756e-27, 0.12163284359626984]",,,,0.000131162288506,-4.5195550683e-16,-3.47057063931e-18,,-1.75617060167e-18,2.48826153954e-18,4.56585363264e-16,"[0.0008161123307960181, 9.185694196168393e-24, -1.29948636845467e-28, 1.6338215295945895e-32, -2.2956758614308868e-32, -2.0044330659195872e-30, 9.185694196168381e-24, 0.0025447675868847377, -1.6808859224827715e-27, 2.8757689933448654e-32, -1.0177055446729815e-32, -9.848897041309263e-30, -1.2994863684546674e-28, -1.680885922482715e-27, 0.0007619962646604103, -8.719832421679718e-36, -1.2555843444261866e-34, -1.2161764943667733e-32, 1.6338215295945895e-32, 2.8757689933448654e-32, -8.719832421592137e-36, 0.00019198524382055818, -7.533519405461149e-35, 1.6429420603556594e-27, -2.2956758614303262e-32, -1.017705544672964e-32, -1.2555843444261866e-34, -7.533479231933251e-35, 0.00019198524382055827, 2.66733487113403e-27, -2.0044330659195844e-30, -9.848897041309263e-30, -1.2161764943667032e-32, 1.642942060355669e-27, 2.6673348711340272e-27, 0.0020200019999987674]"
9685000000,,79,,9,685000000,turtlebot2/odom,turtlebot2/base_footprint_distributed,,,,4.40716725503e-05,1.51841019733e-13,-3.20018115958e-18,,2.34994454799e-19,-1.03911401097e-18,-1.57372654357e-14,1.0,"[0.1089438681187036, 1.5012889605455369e-18, -4.316447099527537e-28, 1.1940770447001497e-31, -5.185174866568987e-31, -2.7264259555811792e-27, 1.5012889605455369e-18, 0.10884679341987134, -4.538344891230607e-27, -3.6388401478155796e-32, 2.8542496233543563e-31, -4.4802824853824424e-29, -4.316447099534884e-28, -4.538344891230607e-27, 0.001141997732997664, -1.8711635087226567e-35, 1.0126352822051858e-34, 1.5858245380116793e-30, 1.1940770447000937e-31, -3.6388401478152994e-32, -1.8711635087226567e-35, 0.0005719954773850398, -3.1069452156498014e-35, 3.511283624802604e-27, -5.185174866569435e-31, 2.8542496233544684e-31, 1.0126352822051858e-34, -3.1069819498482646e-35, 0.0005719954773850398, 7.604024688494029e-27, -2.7264259555811792e-27, -4.4802824853824424e-29, 1.585824538012038e-30, 3.51128362480242e-27, 7.604024688494029e-27, 0.13057508318763295]",,,,-5.88906960472e-05,2.94104420967e-15,-6.60562106329e-19,,-4.23209656009e-18,-5.31157906203e-18,-6.82817680831e-15,"[0.0009760666175027575, -3.0871982736396054e-23, 1.3025620422142196e-28, 1.5199498119501576e-31, 1.48915055971036e-31, 3.088369501978018e-29, -3.0871982736396054e-23, 0.003747044817311608, 2.438576248110808e-27, -4.101273344445223e-32, -4.5947777487693224e-32, -1.8786989918253546e-29, 1.3025620422141254e-28, 2.4385762481106342e-27, 0.0007619966029573296, 5.002046904181475e-35, 1.5618111229689934e-35, 2.0261980436572922e-32, 1.5199498119503818e-31, -4.101273344445223e-32, 5.002046904181475e-35, 0.00019198656541437285, 2.1822088887073485e-34, -1.7720720942857792e-27, 1.4891505597101358e-31, -4.5947777487693925e-32, 1.5618111229689934e-35, 2.182211194733147e-34, 0.00019198656541437285, -3.866764744709318e-27, 3.088369501978018e-29, -1.8786989918253546e-29, 2.0261980436574323e-32, -1.772072094285744e-27, -3.866764744709245e-27, 0.0029800019999984984]"
9784000000,,80,,9,784000000,turtlebot2/odom,turtlebot2/base_footprint_distributed,,,,3.9391062296e-05,1.49706674414e-13,-3.72616615769e-19,,2.67006840477e-19,7.75953108447e-19,-3.64251743604e-14,1.0,"[0.11305522810856507, 1.3260630109941416e-18, 3.381572168268867e-28, 2.1034710710114316e-32, -9.562760148295461e-32, -3.2334233123471206e-27, 1.3260630109941416e-18, 0.1129454785413128, -5.368781002075922e-28, -1.0699004100038813e-32, -4.758327287591236e-32, -5.263714839773515e-29, 3.38157216826703e-28, -5.368781002073167e-28, 0.0013219991674371231, -2.6127778920629592e-36, 1.1018327034521141e-37, 8.059218131486119e-32, 2.1034710710117118e-32, -1.0699004100038813e-32, -2.6127778920629592e-36, 0.0006619983364098796, -4.9749354567447394e-36, -1.2682576989910538e-28, -9.562760148297703e-32, -4.758327287591236e-32, 1.1018327032331612e-37, -4.9734660888062116e-36, 0.0006619983364098789, 9.314412163752116e-28, -3.2334233123471206e-27, -5.263714839773515e-29, 8.059218131483877e-32, -1.2682576989910538e-28, 9.314412163751198e-28, 0.13549251181634756]",,,,-5.85254650775e-05,-4.19773909577e-15,-6.30505749323e-19,,2.09366959907e-18,2.30762247631e-18,-4.06316579803e-17,"[0.003164866446623133, -5.868884955899048e-24, -1.4773594393132691e-28, -2.2232029916599703e-31, -2.2910154163130327e-31, 4.436231503517194e-29, -5.868884955899048e-24, 0.0020565866623612995, 5.845790868999294e-28, -5.241498020868905e-32, -5.756146099922221e-32, 5.8732572557701806e-30, -1.4773594393132691e-28, 5.845790868999731e-28, 0.0008819987513295105, -1.3222227165223987e-35, -2.3393776074492985e-35, 2.1896610920823175e-33, -2.2232029916599703e-31, -5.241498020868625e-32, -1.3222227165223987e-35, 0.00022199502669612156, -6.599999827038196e-37, 1.2683643713497944e-28, -2.2910154163129206e-31, -5.756146099922502e-32, -2.3393776075894283e-35, -6.590860520793974e-37, 0.00022199502669612156, -9.305815053484185e-28, 4.436231503517194e-29, 5.8732572557701806e-30, 2.189661092081617e-33, 1.2683643713497881e-28, -9.305815053484036e-28, 0.0016400019999990082]"
9884000000,,81,,9,884000000,turtlebot2/odom,turtlebot2/base_footprint_distributed,,,,4.26773987991e-05,1.67376844719e-13,-2.98664083275e-19,,-5.53296529076e-19,-9.27765749876e-19,-2.11283031887e-14,1.0,"[0.11700791633916688, 1.3837847191980239e-18, 7.926274738345944e-28, -1.5939658631076659e-31, -1.8349042626147832e-31, -2.2035024584581236e-27, 1.3837847191980239e-18, 0.11690179255239304, 1.0449694695247518e-29, -9.067116914712922e-32, -1.1913562781119777e-31, 8.244303153838175e-28, 7.926274738349617e-28, 1.044969469561486e-29, 0.0006619992653058102, 4.0151988146745805e-36, 1.0565641378904455e-35, -7.134668145541769e-32, -1.5939658631076659e-31, -9.067116914712922e-32, 4.0151988146745805e-36, 0.00033199853180770206, 1.6134578319997476e-35, 1.9645458347546995e-29, -1.8349042626152316e-31, -1.191356278112426e-31, 1.0565641373299261e-35, 1.6134578319997476e-35, 0.0003319985318077029, -6.527893614793462e-30, -2.2035024584581236e-27, 8.244303153838175e-28, -7.134668145537285e-32, 1.9645458347546995e-29, -6.527893614793462e-30, 0.1402373449517668]",,,,6.25146270877e-06,-5.4794816038e-21,2.0541547998e-18,,-1.95856149695e-18,-2.96051971135e-18,1.37201744289e-21,"[0.0024758310842038435, -1.5894043726504957e-28, -2.555988833215401e-28, 7.066375798605896e-33, 3.1736102651579264e-32, -2.634947121806124e-35, -1.589404372180298e-28, 0.0002750019999992544, -1.088828403886696e-34, 3.315849956658499e-38, 7.534316611584386e-38, -3.4662518813538675e-41, -2.5559888332147623e-28, -1.0888283895373998e-34, 0.0004419988983187439, -4.815286311915508e-35, -6.923333634728627e-35, 4.299513273947348e-38, 7.066375798606247e-33, 3.315850517177885e-38, -4.815286311915508e-35, 0.00011199560949374176, 1.2699765150949339e-34, 2.9992500736884357e-34, 3.173610265157786e-32, 7.534315490545614e-38, -6.923333635289147e-35, 1.2699708248983117e-34, 0.00011199560949374176, 2.3126001871631662e-34, -2.6349471212456044e-35, -3.464009803810948e-41, 4.299511031869805e-38, 2.9992500736884357e-34, 2.3126001871631662e-34, 0.00022000199999901984]"
9984000000,,82,,9,984000000,turtlebot2/odom,turtlebot2/base_footprint_distributed,,,,4.49756136947e-05,1.168740115e-13,2.01392983195e-18,,-1.00498798867e-18,-6.32996045834e-19,3.93962263566e-15,1.0,"[0.12447750390470384, 8.22590875229438e-19, -4.119152286603177e-28, 2.034783244138849e-31, 2.47742751142685e-31, -2.9135146922199247e-27, 8.22590875229438e-19, 0.12435734251435994, 7.276650288348039e-30, 6.7819314846108915e-31, 2.978405811669307e-31, -5.5994864095428135e-27, -4.119152286603177e-28, 7.276650287613355e-30, 0.0005419992963251784, -4.616431934605633e-35, -3.01563764467526e-35, 6.440141548971332e-31, 2.0347832441384005e-31, 6.7819314846108915e-31, -4.6164319368477103e-35, 0.0002719985937491617, 3.907370772782131e-35, -2.808509445122953e-29, 2.47742751142685e-31, 2.9784058116697553e-31, -3.01563764467526e-35, 3.9073891398813627e-35, 0.0002719985937491617, -1.4004988158796532e-29, -2.9135146922199247e-27, -5.5994864095428135e-27, 6.440141548974919e-31, -2.808509445104586e-29, -1.400498815861286e-29, 0.1491831220920196]",,,,1.85194228962e-05,-2.12421995739e-21,-6.30187351764e-20,,3.10749706794e-18,2.8840905631e-19,8.44631849507e-22,"[0.0025152185824317327, -9.120379592637168e-30, 1.024330658884673e-28, 1.8066769522359813e-31, -3.628892649801635e-33, 3.423138252574173e-35, -9.120379592637168e-30, 0.00022500199999927594, -7.109166558723161e-35, -4.537177417132537e-39, -1.5328066467932323e-39, 2.075323025665054e-42, 1.02433065888463e-28, -7.109167132695012e-35, 0.00036199894484307193, 2.1314232647540345e-35, -8.26572734556906e-37, -3.22971970706816e-40, 1.8066769522362055e-31, -4.537176716483305e-39, 2.1314232647540345e-35, 9.199579425440735e-05, -2.9781761808569995e-35, -6.127004868384527e-35, -3.628892649801635e-33, -1.5328064716309243e-39, -8.265727348196495e-37, -2.9781657484701923e-35, 9.199579425440735e-05, 1.7114212812276212e-34, 3.4231382514531344e-35, 2.076724324129379e-42, -3.22971883125662e-40, -6.127006016328229e-35, 1.711421166433251e-34, 0.00018000199999901323]"
10083000000,,83,,10,84000000,turtlebot2/odom,turtlebot2/base_footprint_distributed,,,,4.55954292138e-05,1.12652245055e-13,3.59256228401e-18,,2.36163393492e-19,8.29361603732e-19,3.33624130821e-14,1.0,"[0.12948977500179168, 7.882299335653493e-19, -3.8495788801668494e-28, 7.74890318448158e-32, 2.049848430869902e-31, -5.065286505648055e-27, 7.882299335653493e-19, 0.12935796485247045, 2.292519000055181e-29, -1.1828241659691495e-31, -2.813777283577927e-31, 2.6859204048730826e-27, -3.8495788801673086e-28, 2.292519000091915e-29, 0.000541997506924078, 2.977290968285659e-35, 1.4490785091401e-34, -1.2122141269823216e-30, 7.7489031844813e-32, -1.1828241659690935e-31, 2.9772909680053993e-35, 0.00027199502761508093, 4.8024396964375475e-35, 6.021609418755388e-30, 2.049848430870014e-31, -2.8137772835780393e-31, 1.4490785090279962e-34, 4.8024764306360107e-35, 0.00027199502761508115, -2.8690887380430575e-30, -5.065286505648055e-27, 2.6859204048730826e-27, -1.2122141269823216e-30, 6.021609418847224e-30, -2.8690887384103995e-30, 0.15518417807337756]",,,,4.33868736693e-06,-3.88680518521e-21,-7.78985515042e-20,,-1.61209954735e-18,-8.84494071027e-18,-2.41608236721e-21,"[0.0010749926933885632, 3.922278636054337e-29, 9.152045667356928e-29, -1.0779101271699683e-32, -5.086553344653716e-32, -1.6333305346462134e-36, 3.922278636054337e-29, 0.00022500199999883012, -4.871270698485795e-34, 1.524863692982246e-39, 3.021326306595327e-38, 1.91473422165343e-41, 9.152045667357394e-29, -4.871270705660443e-34, 0.00036199626535507587, -9.938128287832663e-36, -3.762045417687841e-35, 3.9235260485046544e-39, -1.0779101271699683e-32, 1.524863692982246e-39, -9.938128287920244e-36, 9.198524523867778e-05, 3.0973420072087955e-34, -3.753966693701159e-34, -5.086553344653646e-32, 3.02132637666025e-38, -3.7620454176528084e-35, 3.0973474900903164e-34, 9.198524523867778e-05, 9.919457974640929e-34, -1.6333305353468627e-36, 1.91473422165343e-41, 3.923525698180038e-39, -3.753966693701159e-34, 9.919457981815577e-34, 0.00018000199999847113]"
10185000000,,84,,10,184000000,turtlebot2/odom,turtlebot2/base_footprint_distributed,,,,4.76030173913e-05,1.49631152053e-13,-3.06971406113e-18,,-7.90686713928e-19,-1.08154800829e-18,3.37826742583e-14,1.0,"[0.13394644730864405, 8.321853908572053e-19, -1.0415797650935845e-27, -9.505022980219354e-32, -1.5597895816101212e-31, -5.142833240513032e-27, 8.321853908572053e-19, 0.13380953493981765, -1.4216091998195784e-27, -4.166185632077519e-31, -5.210330265131048e-31, 1.6961383953171435e-27, -1.0415797650965232e-27, -1.4216091998195784e-27, 0.0012019992759443997, 7.521543442012511e-35, 9.114927720594434e-35, 3.7272195614896622e-31, -9.505022980217112e-32, -4.166185632075725e-31, 7.521543437528356e-35, 0.0006019985530473985, 4.7440196934302784e-35, 6.011220273612521e-27, -1.5597895816096728e-31, -5.210330265130151e-31, 9.114927725078589e-35, 4.7440196934302784e-35, 0.0006019985530473985, 2.5884347389443798e-27, -5.142833240513032e-27, 1.6961383953171435e-27, 3.727219561490559e-31, 6.0112202736139904e-27, 2.588434738944747e-27, 0.16052615588039443]",,,,3.70600373712e-05,-6.42271590386e-15,-2.62361247377e-20,,-2.86894295562e-18,-2.74544043085e-18,-5.03518834398e-15,"[0.0008300759099562076, -2.9383841866448025e-25, 3.4428430646318794e-28, 6.992947880544381e-33, 6.90636152712054e-33, 8.540970460132646e-30, -2.9383841866448025e-25, 0.0025662601124801544, 1.2191301023818294e-27, 6.008108985199547e-32, 9.699434750272196e-33, -1.2837393925307167e-30, 3.4428430646318794e-28, 1.2191301023818215e-27, 0.0008019989140622512, 2.1729777146950642e-35, -1.1470761345538124e-35, -2.6284565250657383e-33, 6.992947880538776e-33, 6.008108985199547e-32, 2.1729777152555836e-35, 0.00020199567230035033, 9.739928652499093e-35, -4.3166048574150844e-27, 6.90636152712054e-33, 9.699434750272196e-33, -1.1470761346238774e-35, 9.739687377770285e-35, 0.00020199567230035033, -1.841839109816664e-27, 8.540970460132646e-30, -1.2837393925307167e-30, -2.6284565250646873e-33, -4.316604857415139e-27, -1.841839109816636e-27, 0.0019600019999984797]"
10285000000,,85,,10,285000000,turtlebot2/odom,turtlebot2/base_footprint_distributed,,,,-0.0644811980849,1.56214607354e-13,1.91537600554e-19,,1.91652317567e-18,-7.87724508005e-19,5.02763767211e-16,1.0,"[0.13905204311949826, 1.2878793288715619e-18, 5.269454357108551e-28, 2.9601575533284326e-29, -7.387383384680744e-30, -1.0224829172046051e-25, 1.2878793288715619e-18, 0.13891207328606248, -1.7142684481516793e-27, -7.74699577192305e-32, 6.491941984439621e-32, 1.656161391299321e-27, 5.269454357115898e-28, -1.7142684481514956e-27, 0.0012619977329972277, -1.8346018213108063e-35, 4.1607725511478084e-36, -9.524776729636841e-32, 2.9601575533285043e-29, -7.74699577192249e-32, -1.8346018213108063e-35, 0.0006319954773805551, -6.314092141157587e-35, -3.231462910055583e-27, -7.387383384681103e-30, 6.491941984439902e-32, 4.160772551322971e-36, -6.314165609554513e-35, 0.0006319954773805551, 2.892860685746028e-27, -1.0224829172046051e-25, 1.656161391299321e-27, -9.52477672963572e-32, -3.231462910055583e-27, 2.8928606857462115e-27, 0.16664756099399547]",,,,-1.19684476929,-3.72481992437e-15,2.1071999571e-18,,6.30568071525e-19,3.78581735086e-20,2.04264927248e-15,"[0.0009415331070378972, -3.3179503243107177e-23, -1.9095645627312342e-28, -1.0110203935255388e-29, 3.880299451769245e-30, -3.583937661483462e-27, -3.3179503243107177e-23, 0.0025765867123287234, 1.0365611457496369e-27, -4.071531318048306e-33, 1.611184604684519e-33, -1.3793572192268984e-29, -1.909564562731349e-28, 1.0365611457496803e-27, 0.0008419966027747385, -2.2645984706390293e-35, 2.699073204908404e-35, -6.760849775084703e-34, -1.0110203935253953e-29, -4.071531318048306e-33, -2.2645984706390293e-35, 0.00021198656491927873, -1.186971696141335e-35, 1.8448329509194957e-27, 3.880299451769245e-30, 1.611184604684541e-33, 2.699073204908404e-35, -1.1869417356094535e-35, 0.00021198656491927873, -1.6141670193576546e-27, -3.583937661483462e-27, -1.3793572192268984e-29, -6.760849775085141e-34, 1.8448329509194598e-27, -1.6141670193576252e-27, 0.0020400019999984756]"
10384000000,,86,,10,384000000,turtlebot2/odom,turtlebot2/base_footprint_distributed,,,,-0.149628006001,1.91145810846e-13,-3.70695530646e-18,,1.31427726509e-18,1.14278771225e-18,-4.16989991648e-14,1.0,"[0.14440938133678694, 1.1448400988151627e-18, 8.573280145479003e-29, -2.9517677306339763e-28, -3.143170184735241e-28, -6.670373849324357e-24, 1.144840098815163e-18, 0.14427614752608553, 1.1896442116233872e-29, 1.468987761869545e-31, 5.234509260572892e-31, 4.43770467784947e-27, 8.573280145477855e-29, 1.1896442116968556e-29, 0.0005419973760923335, -1.1264165010573337e-34, -1.3824879388797911e-34, 1.977609976363967e-31, -2.9517677306339763e-28, 1.4689877618694889e-31, -1.1264165010853597e-34, 0.00027199476743308465, 1.3044552646571082e-34, -9.925096179857869e-31, -3.1431701847354707e-28, 5.234509260572892e-31, -1.3824879388237392e-34, 1.304451591237262e-34, 0.00027199476743308465, 4.4418647480231635e-30, -6.670373849324357e-24, 4.43770467784947e-27, 1.977609976363743e-31, -9.925096183531289e-31, 4.4418647480231635e-30, 0.1730784662396599]",,,,-0.383812278572,1.66664888702e-21,-2.09658716962e-18,,-5.12217208223e-18,3.67166869791e-18,1.40986960972e-21,"[0.0008340744217270343, 9.083396537905672e-29, 1.3773243136958692e-27, 2.2965113362533658e-27, -2.003820086500407e-27, -8.590990274164623e-32, 9.083396528501717e-29, 0.00022500199999944508, -2.8648617788884275e-34, -1.2839425205345423e-37, 9.95759157477085e-38, -4.842887492706568e-42, 1.3773243136958692e-27, -2.8648617788884275e-34, 0.00036199606965363394, 1.3627343956062002e-34, -5.528029665538554e-35, -5.91725181491669e-39, 2.2965113362533658e-27, -1.2839425205345423e-37, 1.3627343956062002e-34, 9.198448208333666e-05, -2.2464623896404155e-34, -3.89461044403676e-34, -2.003820086500361e-27, 9.95759157477085e-38, -5.528029665538554e-35, -2.246452244842092e-34, 9.198448208333669e-05, 5.602503163357617e-34, -8.590990264981073e-32, -4.8372822988492685e-42, -5.917250413618226e-39, -3.89461044403676e-34, 5.602503166944941e-34, 0.0001800019999992561]"
10486000000,,87,,10,486000000,turtlebot2/odom,turtlebot2/base_footprint_distributed,,,,-0.189336165159,2.04202280804e-13,2.63688608489e-19,,-9.96740991333e-19,-9.78734504456e-20,-3.87301533793e-14,1.0,"[0.14946586240738366, 6.186441452043156e-19, 1.7659392245752712e-27, -3.181998817323871e-28, 1.9172974931608488e-29, -7.401480316850458e-24, 6.186441452043156e-19, 0.14932672730471974, 1.6588005976332218e-28, -3.1632889414986035e-31, -4.133482428279959e-32, 7.570333015563725e-27, 1.7659392245752712e-27, 1.6588005976038345e-28, 0.0017419993060902722, 2.5094214314052288e-36, -7.346502330034011e-37, 1.941368896709676e-34, -3.181998817323871e-28, -3.1632889414977067e-31, 2.5094214314052288e-36, 0.0008719986132448682, 7.692979136076309e-36, 1.8060154251771334e-29, 1.9172974931611358e-29, -4.1334824282805197e-32, -7.3465023265307646e-37, 7.687101664322197e-36, 0.0008719986132448682, -6.331235864480034e-30, -7.401480316850458e-24, 7.570333015563725e-27, 1.941368896709676e-34, 1.8060154253240702e-29, -6.331235865949402e-30, 0.1791392957114488]",,,,-0.402360772219,-3.21988750549e-21,-1.50820338352e-18,,-6.76311085528e-19,3.73192512961e-18,-1.24968878586e-21,"[0.0013395998289215346, 1.6145912095634743e-29, -8.850233090373242e-28, -1.6707773223436409e-29, 1.2883219661395957e-28, 1.7739656587711977e-32, 1.6145912095634743e-29, 0.0007250019999986198, -4.112705910744324e-33, 2.5122972125474763e-38, -3.980180054962844e-38, 2.7386977186764225e-41, -8.850233090372783e-28, -4.1127059136141834e-33, 0.0011619989589519535, 9.018760858247103e-36, -6.723821477830249e-35, 2.8861367378988224e-38, -1.6707773223436409e-29, 2.5122966520280905e-38, 9.018760858247103e-36, 0.0002919958511887371, -4.6230760503036034e-35, 5.4865089509233866e-33, 1.2883219661400548e-28, -3.9801797747031514e-38, -6.723821478390768e-35, -4.623965417444631e-35, 0.0002919958511887372, 8.326548080923988e-33, 1.7739656599191414e-32, 2.7386977186764225e-41, 2.886135616860051e-38, 5.4865089509233866e-33, 8.326548080923988e-33, 0.0005800019999981458]"
10584000000,,88,,10,584000000,turtlebot2/odom,turtlebot2/base_footprint_distributed,,,,-0.189731672418,2.51567602e-13,1.3440355801e-18,,-1.77787909472e-18,-7.08496531066e-19,-7.35017418178e-14,1.0,"[0.15447106069501926, 4.47792552923684e-20, 1.8635221438180866e-27, -2.7582633603956072e-28, -8.984490283161659e-29, -2.6145646092111017e-23, 4.477925529236835e-20, 0.15432907154406716, 1.878285484609757e-29, -1.6971446087952364e-31, -3.732473040525487e-32, 2.6162542773732576e-27, 1.863522143819556e-27, 1.8782854845730227e-29, 0.00150199848739475, -4.399640691444909e-35, -2.155052810327907e-35, -1.1949702981165787e-31, -2.7582633603953777e-28, -1.6971446087951243e-31, -4.399640691444909e-35, 0.000751996979861427, 6.899132465039214e-35, 6.075007193894062e-30, -8.984490283161085e-29, -3.732473040525487e-32, -2.1550528100476474e-35, 6.899720212214625e-35, 0.000751996979861427, 3.863160336024486e-30, -2.6145646092111017e-23, 2.6162542773732576e-27, -1.1949702981170271e-31, 6.075007192424694e-30, 3.863160335840815e-30, 0.1851410343876304]",,,,-0.344386696521,1.02358825237e-21,1.68884108564e-18,,9.12632475125e-19,-3.99450308572e-18,2.17023225919e-21,"[0.0011796811852537725, 4.299195102812662e-28, -9.15196788055508e-28, -1.252159756638542e-28, 4.287843579958416e-28, 1.8564890684499584e-31, 4.299195102812662e-28, 0.0006250019999989179, -4.684879635631362e-34, -5.954814671226765e-39, -4.3641537708081875e-38, 3.8956097308229915e-42, -9.15196788055508e-28, -4.6848796428060105e-34, 0.001001997732052533, 3.9655968068648646e-35, -9.119014899876497e-35, -2.6283889048632372e-39, -1.252159756638542e-28, -5.954814671226765e-39, 3.9655968068648646e-35, 0.00025199099794506144, 1.5238650919459412e-35, 5.064783501268024e-33, 4.287843579958416e-28, -4.3641534905484946e-38, -9.119014899315978e-35, 1.523404390229021e-35, 0.0002519909979450615, 9.294208708938421e-34, 1.8564890684499584e-31, 3.8956097308229915e-42, -2.6283889048632372e-39, 5.064783500034881e-33, 9.294208705351097e-34, 0.0005000019999985648]"
10684000000,,89,,10,684000000,turtlebot2/odom,turtlebot2/base_footprint_distributed,,,,-0.229336391405,2.79834655151e-13,-4.40160063199e-19,,2.43841354038e-19,-5.18366350266e-19,-4.94539750263e-14,1.0,"[0.15947709239273003, -7.324170977690876e-19, 4.789990590707581e-28, -4.6566055849775957e-29, 5.247653107960668e-28, -4.187749195900362e-23, -7.324170977690876e-19, 0.15933262423806116, -9.271540016119972e-30, 8.433497516008657e-32, -8.459926693673036e-32, 2.3687319437167203e-27, 4.789990590703908e-28, -9.271540015936301e-30, 0.0005419994508845212, -1.7891529543541415e-36, 2.31746995767008e-36, -1.7450236353574452e-31, -4.6566055849775957e-29, 8.433497516013141e-32, -1.789152952952843e-36, 0.0002719989024374948, -1.4344245322397437e-36, -8.793577880117525e-30, 5.247653107960668e-28, -8.459926693668552e-32, 2.3174699618739753e-36, -1.4344245322397437e-36, 0.0002719989024374948, 2.1603044012622816e-29, -4.187749195900362e-23, 2.3687319437167203e-27, -1.7450236353565484e-31, -8.793577880301196e-30, 2.1603044012806487e-29, 0.19114428256723842]",,,,-0.401352935709,-3.24887918979e-22,-6.55538085329e-19,,-1.98393572021e-19,2.18345092161e-19,6.29486153642e-22,"[0.0007904734190624383, 1.9239768746292768e-28, 3.768146803287167e-29, 6.950939899530709e-29, -8.654452359192797e-29, -1.4350657919587661e-31, 1.9239768783908588e-28, 0.00022500199999902484, 9.295366794005538e-35, -3.352667444799169e-40, -2.1568186907794085e-39, -1.1176756551454741e-41, 3.768146803305534e-29, 9.295365646061836e-35, 0.00036199917653314444, 5.6062585918984316e-36, 4.958115612422913e-36, -5.46630275870925e-39, 6.950939899528414e-29, -3.352667444799169e-40, 5.6062585918984316e-36, 9.199671519755006e-05, 6.5822164208372525e-37, 2.3022753375695674e-34, -8.654452359197389e-29, -2.1568190411040246e-39, 4.9581156131235624e-36, 6.578450174273169e-37, 9.199671519755006e-05, -2.2722728244677144e-34, -1.4350657919587661e-31, -1.1176756551454741e-41, -5.4662971535153924e-39, 2.302275308870975e-34, -2.2722728244677144e-34, 0.00018000199999871356]"
10785000000,,90,,10,784000000,turtlebot2/odom,turtlebot2/base_footprint_distributed,,,,-0.270193284197,3.37144933286e-13,1.81117754165e-18,,3.26555560759e-19,-2.68300229503e-19,-4.83531005774e-14,1.0,"[0.16458107421987167, -1.0501656426963748e-18, -1.3684706560190155e-27, -4.707114519446916e-28, 1.680712971575461e-28, -5.202416691821129e-23, -1.0501656426963748e-18, 0.16443554534706017, -9.544153984508462e-30, 3.0876931730374187e-31, -2.898652780815334e-32, 1.148242332012263e-26, -1.3684706560190155e-27, -9.544153984505592e-30, 0.0006019992963248759, 7.407802506903888e-36, -2.2292120031161807e-36, 6.488121306693083e-31, -4.707114519446916e-28, 3.087693173037867e-31, 7.407802506903888e-36, 0.00030199859374699335, -1.540287900435868e-36, 8.287635283141877e-29, 1.6807129715756907e-28, -2.8986527808158946e-32, -2.2292120031161807e-36, -1.541022584405132e-36, 0.0003019985937469938, 3.4183552392502674e-29, -5.202416691821129e-23, 1.148242332012263e-26, 6.488121306693083e-31, 8.28763528312351e-29, 3.4183552392491194e-29, 0.1972668584236773]",,,,-0.408000464126,-1.93497794941e-21,-6.08754253187e-19,,1.8023305662e-18,1.89561193388e-18,-1.93020949803e-22,"[0.000799145707525616, 1.1454622728969145e-28, -6.249461013066075e-29, 1.65631725313266e-28, 2.089315720096869e-28, 1.338010265180109e-31, 1.1454622710161235e-28, 0.00025000199999887724, 1.4033164058599262e-35, -2.1270373849715757e-38, -1.9013961023506007e-38, -1.5290968842712404e-41, -6.249461013056892e-29, 1.4033164058599262e-35, 0.00040199894482878095, -1.1737734677460337e-35, -1.3999937448920818e-35, -3.0502806361144385e-39, 1.65631725313266e-28, -2.1270373849715757e-38, -1.1737734678861635e-35, 0.00010199579417026602, 1.4613244121598226e-35, -5.456990996337574e-34, 2.0893157200964097e-28, -1.9013961023506007e-38, -1.399993744751952e-35, 1.4612016784178834e-35, 0.00010199579417026602, -1.0289817221673813e-34, 1.3380102670168189e-31, -1.5290968842712404e-41, -3.0502806361144385e-39, -5.456990996337574e-34, -1.0289817795645664e-34, 0.00020000199999851065]"
10884000000,,91,,10,884000000,turtlebot2/odom,turtlebot2/base_footprint_distributed,,,,-0.277957466853,3.22292885634e-13,3.13161562838e-18,,3.34314798812e-18,-4.32450141491e-18,-4.90574878286e-14,1.0,"[0.16553174244061222, -1.0954042729322973e-18, 1.5480740815583257e-27, 2.721039884231107e-27, -3.26759014293221e-27, -5.273958350059939e-23, -1.0954042729322973e-18, 0.16538561469503288, 1.7165898623975919e-28, -1.3327631518596218e-30, 1.5362810332744116e-30, 1.162249694945804e-26, 1.5480740815582339e-27, 1.7165898623974197e-28, 0.001141995027623993, 2.8615705441405934e-34, -3.2335796641507005e-34, 1.7107247962786665e-31, 2.721039884231199e-27, -1.3327631518596218e-30, 2.8615705440845414e-34, 0.000571990109871745, -6.511776771009798e-34, -2.5384858915837446e-28, -3.26759014293221e-27, 1.5362810332745013e-30, -3.2335796640666226e-34, -6.511791464689183e-34, 0.0005719901098717448, -3.0857126373765265e-28, -5.273958350059939e-23, 1.162249694945804e-26, 1.7107247962786665e-31, -2.5384858915837733e-28, -3.085712637376469e-28, 0.1984069306269043]",,,,-0.409442987175,-8.33655406809e-16,-5.78617207043e-18,,1.24411611771e-17,1.36949891476e-17,-1.93020949883e-17,"[0.0012844767408309835, -9.808219744805378e-24, 6.638813078513483e-27, -1.813136373834625e-26, -1.7394402715363086e-26, -7.371369861139592e-26, -9.808219744805378e-24, 0.0007305421894182757, -1.9674601995455139e-28, -5.582378918266252e-32, -3.06632767160197e-32, -4.510386785116376e-32, 6.638813078513483e-27, -1.9674601995455883e-28, 0.0007619925601947384, -9.124918880217866e-34, -8.395931896278596e-34, -2.027814624365176e-32, -1.8131363738346435e-26, -5.582378918266217e-32, -9.124918880245892e-34, 0.0001919709633856251, 2.0897129787047128e-33, 2.5165331669761087e-28, -1.7394402715363086e-26, -3.06632767160197e-32, -8.395931896278596e-34, 2.0897135200108953e-33, 0.0001919709633856251, 3.0628178761548916e-28, -7.371369861139592e-26, -4.510386785116376e-32, -2.027814624365176e-32, 2.516533166976107e-28, 3.0628178761548495e-28, 0.0005800019999985132]"
10984000000,,92,,10,984000000,turtlebot2/odom,turtlebot2/base_footprint_distributed,,,,-0.330233162211,3.46388151955e-13,-1.23565014384e-18,,9.49801900716e-19,-2.52046020626e-18,-6.28990614481e-14,1.0,"[0.17194483692976673, -2.6329767998213224e-18, 1.7077171290147316e-27, -2.44259693521231e-27, 3.951017853689576e-27, -3.3644990557782374e-23, -2.6329767998213224e-18, 0.17179273279177232, -8.203364617475376e-31, -2.980702839936478e-31, 1.049164119811997e-30, 1.6782716823237565e-26, 1.707717129015099e-27, -8.203364617475376e-31, 0.0004219975069244893, -3.087144338658072e-35, 1.0557124454994105e-34, 5.93480957747145e-31, -2.442596935212218e-27, -2.980702839936478e-31, -3.087144338798202e-35, 0.0002119950276182036, -1.2067620413766796e-34, 1.4212312332727036e-30, 3.951017853689576e-27, 1.049164119811997e-30, 1.0557124456115143e-34, -1.2067620413766796e-34, 0.0002119950276182035, 2.479388795206142e-30, -3.3644990557782374e-23, 1.6782716823237565e-26, 5.934809577470105e-31, 1.421231233364539e-30, 2.479388795206142e-30, 0.20609278911380435]",,,,-0.409947380594,-3.47512109978e-21,-1.33322258555e-18,,7.10823510455e-18,4.00368405458e-18,-1.19619992743e-21,"[0.0007434005421984284, 3.9115217942199483e-28, -5.331071167367035e-28, 3.859316278709788e-27, 2.9304100589179632e-27, 2.4647446144186087e-31, 3.9115217942199483e-28, 0.00017500199999925716, -2.2462412584894506e-34, -1.1765925764547482e-37, -7.474214920449494e-38, 7.925744114221165e-42, -5.331071167367953e-28, -2.2462412584894506e-34, 0.0002819962654358933, -1.3940831358064184e-34, -7.763438374100607e-35, -1.5876487393045885e-38, 3.859316278709421e-27, -1.1765926325066867e-37, -1.3940831358204314e-34, 7.198524548609868e-05, 3.102266557422413e-34, 1.7500809328367883e-34, 2.9304100589178714e-27, -7.474215200709187e-38, -7.763438374170672e-35, 3.1022651097129434e-34, 7.198524548609868e-05, 4.422160877677658e-34, 2.4647446144186087e-31, 7.931349308078465e-42, -1.5876487393045885e-38, 1.7500809328367883e-34, 4.422160877677658e-34, 0.00014000199999899404]"
11084000000,,93,,11,84000000,turtlebot2/odom,turtlebot2/base_footprint_distributed,,,,-0.37926663027,3.34910487195e-13,-8.00879634538e-19,,2.90455966812e-18,-2.21615214215e-18,-4.48614249054e-14,1.0,"[0.17804974307571217, -3.107890794603323e-18, -1.205342947967963e-27, -7.344703202760822e-27, 4.7623190203582934e-27, -6.526333631610221e-23, -3.107890794603323e-18, 0.17789447332462166, -1.638280133650015e-28, 6.835162278868194e-31, -2.5679341667680353e-31, 1.1747158173555164e-26, -1.2053429479678711e-27, -1.6382801336499863e-28, 0.0012619937931070775, -8.540313782003917e-35, 6.909594054766286e-35, -1.7148038134346602e-31, -7.344703202760822e-27, 6.8351622788680815e-31, -8.540313782003917e-35, 0.0006319876712310489, -3.433638399000465e-34, 2.562358192474391e-28, 4.7623190203582934e-27, -2.5679341667680914e-31, 6.909594054766286e-35, -3.433726561076777e-34, 0.0006319876712310489, 2.244884134365161e-28, -6.526333631610221e-23, 1.1747158173555164e-26, -1.7148038134347162e-31, 2.562358192474391e-28, 2.2448841343651467e-28, 0.21341398580669932]",,,,-0.401156754753,5.79970836597e-16,6.76591017138e-18,,-1.07626672787e-17,-8.89577538022e-18,-1.78250044912e-16,"[0.0013358175485237728, 8.892460303617615e-24, -9.807275203681075e-27, 1.785461190826252e-26, 1.5464229612842662e-26, 1.390414713634511e-25, 8.892460303617615e-24, 0.000731877067589504, 1.4526597943192826e-28, -9.960024353591123e-32, -6.860569930866291e-32, -1.0941176854337438e-30, -9.807275203680707e-27, 1.4526597943192465e-28, 0.000841990718938289, -9.795482161119363e-34, -6.396752291125197e-34, -1.901053850778399e-33, 1.7854611908262703e-26, -9.960024353591123e-32, -9.795482161091337e-34, 0.00021196399392786836, 1.5877804307860045e-33, -2.5329279970431654e-28, 1.5464229612842478e-26, -6.860569930866291e-32, -6.396752291125197e-34, 1.5877803246397478e-33, 0.00021196399392786833, -2.236738227909129e-28, 1.390414713634511e-25, -1.0941176854337438e-30, -1.9010538507784865e-33, -2.532927997043161e-28, -2.2367382279091212e-28, 0.0005800019999984978]"
11184000000,,94,,11,184000000,turtlebot2/odom,turtlebot2/base_footprint_distributed,,,,-0.427568121338,3.97197693083e-13,1.73984768054e-18,,-1.83645609831e-18,-1.8582361356e-18,-6.54360067052e-14,1.0,"[0.18405659824136023, -3.7212379366682796e-18, -1.4915120984181315e-27, 2.4247167137057805e-27, 2.8357736537438645e-27, -3.19454251370143e-23, -3.7212379366682796e-18, 0.18389773932918668, -2.6711995966795545e-27, -6.436027039549645e-31, -4.59189827566557e-31, 7.822603880715747e-27, -1.4915120984181315e-27, -2.671199596679738e-27, 0.0010819978313250465, -8.396313023200559e-35, -8.320592976181177e-35, -4.822657198113106e-31, 2.4247167137057805e-27, -6.436027039549645e-31, -8.396313022640039e-35, 0.0005419956730726852, 2.50469101649932e-34, -6.089303858674798e-29, 2.835773653744048e-27, -4.591898275665345e-31, -8.320592975060138e-35, 2.504676322819935e-34, 0.0005419956730726852, 4.247927476440574e-27, -3.19454251370143e-23, 7.822603880715747e-27, -4.822657198112658e-31, -6.089303858675085e-29, 4.247927476440574e-27, 0.22061677139276373]",,,,-0.400327733338,-4.36470174886e-15,2.59577074441e-18,,4.10037761091e-18,1.32788444469e-18,-5.24270319489e-15,"[0.001027407257404826, 1.840631849124116e-22, 5.594226476084311e-28, 6.289696018634241e-28, 2.2036802303711625e-28, -5.99200713970874e-25, 1.840631849124118e-22, 0.003023233949992363, 1.3455793764394985e-27, 7.344519891666613e-32, 4.46174222961272e-32, 8.95401173142322e-30, 5.594226476084311e-28, 1.345579376439515e-27, 0.0007219967502004602, 1.930218226029784e-34, 1.0095718137670548e-34, -7.981570370025816e-32, 6.289696018634241e-28, 7.344519891666613e-32, 1.930218226001758e-34, 0.00018198714128907779, 1.8138268863282289e-34, 9.72315203864304e-30, 2.203680230370933e-28, 4.46174222961272e-32, 1.0095718137810678e-34, 1.813807085483467e-34, 0.00018198714128907779, -2.1294740342161355e-27, -5.99200713970874e-25, 8.95401173142322e-30, -7.981570370025816e-32, 9.72315203864304e-30, -2.129474034216218e-27, 0.0024000019999948115]"
11284000000,,95,,11,284000000,turtlebot2/odom,turtlebot2/base_footprint_distributed,,,,-0.46910332843,4.52013542035e-13,2.04901832776e-18,,-1.21461149443e-18,1.30332788504e-18,-4.88549977909e-14,1.0,"[0.18921188129180605, -4.404521499564415e-18, 3.1921902699500077e-27, -3.0928674996950088e-27, 4.195419183791439e-27, 1.190188818484774e-23, -4.404521499564415e-18, 0.18904699111328105, 1.0495299845135928e-27, -6.249590068485604e-31, 6.766166261718108e-31, 1.4096334354922788e-26, 3.192190269949916e-27, 1.0495299845136387e-27, 0.0012619944785287381, -4.172834284817429e-35, 7.066348211485804e-35, 5.3575524217846435e-31, -3.0928674996950088e-27, -6.249590068485716e-31, -4.172834284747364e-35, 0.0006319890243750167, -2.8305783433711976e-35, 2.1300292868895746e-27, 4.195419183791439e-27, 6.76616626171822e-31, 7.066348211485804e-35, -2.8291089754326697e-35, 0.0006319890243750167, -1.7060650140582174e-27, 1.190188818484774e-23, 1.4096334354922788e-26, 5.357552421784195e-31, 2.1300292868895746e-27, -1.7060650140581715e-27, 0.22679594072674644]",,,,-0.398046503367,-6.84448674527e-16,7.71162204429e-18,,-1.63604628506e-17,-3.15068088055e-18,4.88109579903e-15,"[0.0009547927174717026, 3.489053939758806e-23, -7.400904840418904e-28, 1.7816927665158767e-27, 5.212213607086837e-28, -1.4830369374544187e-25, 3.489053939758806e-23, 0.002587737790663949, -7.768902812957731e-28, 3.0272449227586255e-31, 2.2049584425910305e-32, -9.552866076443911e-30, -7.400904840420741e-28, -7.768902812957738e-28, 0.000841991740699064, -1.4020912959557827e-33, -4.401769999606016e-34, 2.305043862901697e-31, 1.7816927665160604e-27, 3.0272449227586535e-31, -1.4020912959529801e-33, 0.000211967851444083, 1.2911525717398029e-33, -1.5154203206945678e-27, 5.212213607087067e-28, 2.204958442591013e-32, -4.401769999606016e-34, 1.2911495702460734e-33, 0.000211967851444083, 1.2237985607113813e-27, -1.4830369374544187e-25, -9.552866076443911e-30, 2.305043862901641e-31, -1.5154203206945757e-27, 1.2237985607113888e-27, 0.00206000199999878]"
11384000000,,96,,11,384000000,turtlebot2/odom,turtlebot2/base_footprint_distributed,,,,-0.506912693801,4.87523118126e-13,-1.60195811917e-18,,8.06031472881e-19,-4.99281661844e-19,-2.63731755383e-14,1.0,"[0.19452049175756816, -5.2350357195483576e-18, -2.6122905441770414e-27, 3.0979944614267427e-27, -8.884038066636026e-28, -9.489621987035507e-24, -5.2350357195483576e-18, 0.19435889055494218, 1.7409821468581848e-29, -3.102728600030553e-32, -1.2498736333102015e-33, 1.850290391539691e-26, -2.6122905441763067e-27, 1.7409821468581848e-29, 0.0013819993979932, -3.298608774959094e-35, 1.1425613285864032e-35, -2.1496585229393437e-31, 3.0979944614252733e-27, -3.102728600029432e-32, -3.298608774959094e-35, 0.0006919987967895628, -2.417927594794135e-35, 5.415162410555147e-29, -8.884038066632353e-28, -1.2498736333102015e-33, 1.1425613274653644e-35, -2.417927594794135e-35, 0.0006919987967895628, 5.179994805048298e-29, -9.489621987035507e-24, 1.850290391539691e-26, -2.149658522938447e-31, 5.415162410481678e-29, 5.179994805929919e-29, 0.23316518938670486]",,,,-0.312778661424,-2.18331675266e-21,4.52009157316e-19,,-3.60973701143e-18,-1.49242333424e-18,2.20584931013e-21,"[0.0014352907806228182, 1.025076918572875e-27, -2.739859526268055e-28, 7.479752036220659e-28, 4.058161500011238e-28, -2.746616118275537e-31, 1.025076918572875e-27, 0.0005750019999994273, -1.0753563403603259e-33, 8.745730165683018e-38, 2.471032335889425e-38, -3.2201838710184296e-42, -2.739859526268055e-28, -1.0753563059220148e-33, 0.0009219990969729563, -1.6000762575907605e-35, -7.911469050331328e-36, -2.419959771279564e-39, 7.479752036220659e-28, 8.745727923605475e-38, -1.6000762578710202e-35, 0.0002319963993052031, 4.3011749497812767e-35, 5.007430069527802e-34, 4.058161500011238e-28, 2.471031775370039e-38, -7.911469051031978e-36, 4.3008196502753874e-35, 0.00023199639930520332, 2.0737022575840672e-33, -2.746616114602117e-31, -3.2201838710184296e-42, -2.419959771279564e-39, 5.007429380761581e-34, 2.073702234625193e-33, 0.00046000199999922213]"
11497000000,,97,,11,484000000,turtlebot2/odom,turtlebot2/base_footprint_distributed,,,,-0.512675366157,4.62443514553e-13,2.91399887451e-19,,3.44068984546e-19,-1.97545630493e-18,-1.57419165101e-14,1.0,"[0.19657212263456805, -5.312357922199159e-18, 1.581915959583262e-27, -9.425142472406354e-28, 2.35927867258766e-27, -1.4318698399008016e-23, -5.312357922199159e-18, 0.19640971141823188, 2.088955575745146e-27, -1.6647125180642995e-32, 6.253363200144027e-31, 1.617361241138044e-26, 1.5819159595825273e-27, 2.0889555757455132e-27, 0.0024619978313279098, 7.657124205806302e-36, 1.3352762921527629e-35, -9.664367449998962e-32, -9.425142472406354e-28, -1.6647125180644396e-32, 7.657124205105653e-36, 0.0012319956730842889, -7.032198655421297e-35, -2.2192734057410303e-27, 2.3592786725877518e-27, 6.253363200144475e-31, 1.3352762921527629e-35, -7.031610908245886e-35, 0.0012319956730842887, -3.583614200180867e-27, -1.4318698399008016e-23, 1.617361241138044e-26, -9.664367449997841e-32, -2.2192734057410303e-27, -3.583614200180775e-27, 0.23562596266347424]",,,,-0.203112244408,9.09494228159e-16,6.75064627079e-19,,-1.4274495716e-18,9.52003182858e-19,-1.11168270499e-15,"[0.0015491029115677869, -2.601818820869755e-23, -8.889935241888693e-28, -7.424711349535248e-30, -1.0677620933734172e-28, -3.085819465228792e-26, -2.601818820869755e-23, 0.0016246725870033773, -2.2970829725743285e-27, -2.5436479276840103e-32, -4.4703272680588285e-33, -7.51504427337408e-30, -8.889935241889382e-28, -2.2970829725742876e-27, 0.0016419967472725682, -7.845412940041702e-36, 1.9732146789710763e-35, -2.550251495928588e-33, -7.424711349535248e-30, -2.543647927683975e-32, -7.845412940041702e-36, 0.0004119871354943927, -2.3520240392396552e-35, 2.212508088228066e-27, -1.0677620933734172e-28, -4.4703272680588285e-33, 1.9732146789360438e-35, -2.3524985460761077e-35, 0.0004119871354943928, 3.571835943173635e-27, -3.085819465228792e-26, -7.51504427337408e-30, -2.5502514959287633e-33, 2.212508088228074e-27, 3.5718359431735964e-27, 0.001280001999999194]"
