rosbagTimestamp,header,seq,stamp,secs,nsecs,frame_id,child_frame_id,pose,pose,position,x,y,z,orientation,x,y,z,w,covariance,twist,twist,linear,x,y,z,angular,x,y,z,covariance
8675000000,,63,,8,675000000,turtlebot2/odom,turtlebot2/base_footprint_self,,,,1.06398799762e-05,-6.28385221045e-14,-8.55028053099e-19,,-9.26721747944e-19,-8.59415821697e-19,2.68261833367e-14,1.0,"[0.05681983964598503, 2.467154505313417e-18, -2.267814068497698e-28, -1.2729974406940676e-31, -1.2619116748441314e-31, -2.1335698715867907e-27, 2.4671545053134167e-18, 0.05676365960380611, -3.946792827651982e-28, 4.504627819047903e-32, 9.968552458755843e-32, -2.4099219613601732e-27, -2.2678140685270855e-28, -3.946792827828306e-28, 0.006001999662289396, 2.425963927141083e-35, 2.8223107631464727e-35, 1.8287326055591675e-31, -1.2729974406936192e-31, 4.5046278190501453e-32, 2.4259639136886177e-35, 0.0030019993248330762, 5.956090285662371e-34, -1.097828864540595e-30, -1.2619116748445798e-31, 9.968552458755843e-32, 2.8223107631464727e-35, 5.9565604834026996e-34, 0.003001999324833077, -7.848328692919022e-30, -2.1335698715867907e-27, -2.4099219613601732e-27, 1.8287326055582706e-31, -1.097828865275279e-30, -7.848328692919022e-30, 0.06810100026813237]",,,,-6.57987329031e-05,-1.87679554175e-22,8.91456904719e-19,,4.13354258258e-18,-3.23817514992e-18,2.47935342722e-40,"[0.0028455380517879636, 1.0107855517530071e-30, 1.3713261474445847e-28, 1.1409905597359386e-32, -5.810192268767205e-33, -1.1404687445605752e-42, 1.0107855517530071e-30, 0.0025000019999992, 4.105823337891552e-33, 7.667277415073381e-39, -6.748123713368804e-39, -7.419594835215935e-48, 1.3713261474445058e-28, 4.105823338743541e-33, 0.004001999490153905, 5.807645378977453e-35, -3.2646266246653034e-35, -1.408547002218587e-48, 1.1409905597359386e-32, 7.667277415073381e-39, 5.807645378977453e-35, 0.0010019979707846132, -2.8559584030939235e-34, -1.596445939586633e-33, -5.810192268755995e-33, -6.748118108174947e-39, -3.264626622423226e-35, -2.856328469426978e-34, 0.0010019979707846132, -8.302863643428688e-33, -1.1404687445605752e-42, -7.419594835215935e-48, -1.408547002218587e-48, -1.596445939691719e-33, -8.302863644751499e-33, 0.00200000199999898]"
8774000000,,64,,8,774000000,turtlebot2/odom,turtlebot2/base_footprint_self,,,,1.44546531476e-05,-7.25776662723e-14,-2.05212980714e-18,,-5.46155001544e-19,4.60169718457e-19,4.52811940384e-14,1.0,"[0.06197682680685295, 2.7125820950066303e-18, 2.5897212709724314e-27, 9.721416659787648e-32, -7.045080934832477e-32, -3.0479706469443775e-27, 2.7125820950066303e-18, 0.0619165209292573, -1.0603497968668852e-27, 1.402568870027756e-31, -5.062031381060667e-32, -3.876914508222787e-27, 2.5897212709724314e-27, -1.0603497968551303e-27, 0.006181999500278763, 3.2496072554909465e-35, -2.384001369761536e-35, -5.610878252997774e-31, 9.721416659785406e-32, 1.4025688700268591e-31, 3.249607257733024e-35, 0.0030919990011143575, 1.1134594733917722e-34, 1.7886373710966117e-29, -7.045080934830235e-32, -5.062031381060667e-32, -2.384001369761536e-35, 1.1134594733917722e-34, 0.003091999001114358, -1.9414739370068385e-29, -3.0479706469443775e-27, -3.876914508222787e-27, -5.610878252999568e-31, 1.788637370802738e-29, -1.941473937300712e-29, 0.07428100028935036]",,,,3.38846330292e-05,-5.85616521711e-22,1.60294804124e-18,,-1.89389323124e-19,-4.62398863569e-18,-3.56107165095e-40,"[0.002920434487895715, -2.1551351973826734e-30, -1.558744712603882e-27, -6.242678195431911e-33, -1.1820457908373784e-31, 2.8995047646176844e-42, -2.1551351973826734e-30, 0.0025750019999988415, 9.624640930884329e-33, 1.1319639949369621e-39, -9.819883627506722e-41, 1.8896446500351823e-47, -1.5587447126044652e-27, 9.624640932139892e-33, 0.004121999245329032, -2.6512904938215134e-36, -9.176736957807315e-35, 4.26038694788696e-48, -6.242678195443121e-33, 1.1319639949369621e-39, -2.6512904938215134e-36, 0.001031996999392017, -1.0495132965743732e-35, 1.8190556225323743e-32, -1.1820457908373784e-31, -9.819883627506722e-41, -9.176736955565238e-35, -1.0487745184313861e-35, 0.001031996999392017, -1.9615166807152923e-32, 2.899504759272155e-42, 1.8896446500351823e-47, 4.2577141831768677e-48, 1.8190556226377216e-32, -1.9615166809989518e-32, 0.0020600019999984947]"
8874000000,,65,,8,874000000,turtlebot2/odom,turtlebot2/base_footprint_self,,,,1.52794224468e-05,-1.12864031955e-13,-2.46967742715e-19,,3.63752017727e-19,1.05662144711e-18,5.65349088286e-14,1.0,"[0.06949465054168677, 3.759664023251263e-18, -3.642518399691228e-27, 2.920240262321074e-32, -3.166828065791643e-32, -2.959710086903384e-27, 3.759664023251263e-18, 0.06942361958642877, -1.608938546972095e-27, -2.562039872019371e-31, -6.242853213025953e-31, -7.479424846135191e-27, -3.642518399679473e-27, -1.6089385469662175e-27, 0.009001999514827146, -1.641737587648521e-36, -3.0501259551847525e-36, -4.2306861436413556e-32, 2.920240262321074e-32, -2.562039872019371e-31, -1.641737587648521e-36, 0.004501999030181517, 3.1490226327561063e-34, -1.9753130648000085e-29, -3.166828065791643e-32, -6.24285321302416e-31, -3.0501259495795586e-36, 3.1527842146787376e-34, 0.004501999030181517, -2.365941248983539e-29, -2.959710086903384e-27, -7.479424846135191e-27, -4.2306861436368715e-32, -1.9753130653877557e-29, -2.3659412492774125e-29, 0.08328100033435039]",,,,3.40525071499e-06,5.94606018894e-22,-1.35792901265e-18,,1.14724144312e-18,-6.46698204436e-18,-4.63640182037e-40,"[0.004237730545025396, -6.915114471819574e-30, 2.3825924433727812e-27, -6.767964803891999e-34, 7.854457467922862e-34, -7.997329498443566e-42, -6.915114471819574e-30, 0.003750001999998942, 1.1417558677849774e-32, 5.877606278764013e-39, -5.980631983938716e-38, -3.6659640763624555e-47, 2.382592443373407e-27, 1.1417558678208507e-32, 0.006001999261529229, -3.23586235157535e-35, 1.2530987465316304e-34, -8.290916130705991e-48, -6.767964803884993e-34, 5.877606278764013e-39, -3.2358623510148307e-35, 0.0015019970750014082, 1.486955651304195e-34, -2.005673124951223e-32, 7.854457467936875e-34, -5.980634226016259e-38, 1.2530987465316304e-34, 1.486430434606469e-34, 0.0015019970750014082, -2.3804446995076749e-32, -7.997329498443566e-42, -3.6670331822464924e-47, -8.296261660126175e-48, -2.0056731249930338e-32, -2.3804446991236578e-32, 0.003000001999998551]"
8974000000,,66,,8,974000000,turtlebot2/odom,turtlebot2/base_footprint_self,,,,1.52794224468e-05,-1.12864031955e-13,-2.46967742715e-19,,3.63752017727e-19,1.05662144711e-18,5.65349088286e-14,1.0,"[0.06949465054168677, 3.759664023251263e-18, -3.642518399691228e-27, 2.920240262321074e-32, -3.166828065791643e-32, -2.959710086903384e-27, 3.759664023251263e-18, 0.06942361958642877, -1.608938546972095e-27, -2.562039872019371e-31, -6.242853213025953e-31, -7.479424846135191e-27, -3.642518399679473e-27, -1.6089385469662175e-27, 0.009001999514827146, -1.641737587648521e-36, -3.0501259551847525e-36, -4.2306861436413556e-32, 2.920240262321074e-32, -2.562039872019371e-31, -1.641737587648521e-36, 0.004501999030181517, 3.1490226327561063e-34, -1.9753130648000085e-29, -3.166828065791643e-32, -6.24285321302416e-31, -3.0501259495795586e-36, 3.1527842146787376e-34, 0.004501999030181517, -2.365941248983539e-29, -2.959710086903384e-27, -7.479424846135191e-27, -4.2306861436368715e-32, -1.9753130653877557e-29, -2.3659412492774125e-29, 0.08328100033435039]",,,,3.40525071499e-06,5.94606018894e-22,-1.35792901265e-18,,1.14724144312e-18,-6.46698204436e-18,-4.63640182037e-40,"[0.004237730545025396, -6.915114471819574e-30, 2.3825924433727812e-27, -6.767964803891999e-34, 7.854457467922862e-34, -7.997329498443566e-42, -6.915114471819574e-30, 0.003750001999998942, 1.1417558677849774e-32, 5.877606278764013e-39, -5.980631983938716e-38, -3.6659640763624555e-47, 2.382592443373407e-27, 1.1417558678208507e-32, 0.006001999261529229, -3.23586235157535e-35, 1.2530987465316304e-34, -8.290916130705991e-48, -6.767964803884993e-34, 5.877606278764013e-39, -3.2358623510148307e-35, 0.0015019970750014082, 1.486955651304195e-34, -2.005673124951223e-32, 7.854457467936875e-34, -5.980634226016259e-38, 1.2530987465316304e-34, 1.486430434606469e-34, 0.0015019970750014082, -2.3804446995076749e-32, -7.997329498443566e-42, -3.6670331822464924e-47, -8.296261660126175e-48, -2.0056731249930338e-32, -2.3804446991236578e-32, 0.003000001999998551]"
9075000000,,67,,9,75000000,turtlebot2/odom,turtlebot2/base_footprint_self,,,,3.11475833915e-05,-7.12225602201e-14,-1.81130911347e-19,,4.00912095191e-19,1.82474925076e-19,6.48224522907e-14,1.0,"[0.0768143965642875, 5.014996787306481e-18, -6.093729871891304e-27, 8.265658765974572e-32, 2.3564827292895827e-32, -1.7532718263961594e-27, 5.014996787306483e-18, 0.07673209482450272, 8.47156252903864e-28, 2.0125764807947868e-31, 6.457604338172011e-32, -4.451050452111029e-27, -6.093729871914814e-27, 8.471562528979866e-28, 0.008761999666791162, 7.409764355582509e-37, -2.783279262545913e-37, -3.404014477200151e-32, 8.26565876597233e-32, 2.0125764807947868e-31, 7.409764355582509e-37, 0.004381999333830877, -1.92191443709352e-34, -2.971955335655013e-29, 2.3564827292901432e-32, 6.457604338169769e-32, -2.7832792616701016e-37, -1.9228548325741778e-34, 0.004381999333830878, 1.0299492741022028e-29, -1.7532718263961594e-27, -4.451050452111029e-27, -3.404014477197909e-32, -2.971955335655013e-29, 1.02994927468995e-29, 0.09204100037698244]",,,,0.000108765100001,-2.20910851302e-22,1.23158409223e-18,,-1.13349740614e-18,-3.494436663e-18,-2.24814989585e-40,"[0.004143012993413038, -5.216337834550245e-31, 3.619768783914339e-27, 1.0398632137132216e-33, 1.428903899211386e-33, -5.0776531487010505e-42, -5.216337849243924e-31, 0.003650001999999269, -5.012327706760445e-33, -4.7646025526985976e-39, -5.253630493375601e-39, -2.317821556591952e-47, 3.619768783915068e-27, -5.012327707836642e-33, 0.005841999493180468, -1.0994941225827544e-35, -4.579654224143561e-35, -4.1320942418025345e-48, 1.0398632137146229e-33, -4.764599750101669e-39, -1.099494122022235e-35, 0.0014619979902559127, -8.36556781372903e-34, -2.9981583453243154e-32, 1.4289038992141885e-33, -5.2536290920771366e-39, -4.579654224143561e-35, -8.365636509084435e-34, 0.0014619979902559127, 1.0321445054482738e-32, -5.0776531380099917e-42, -2.317821556591952e-47, -4.1320942418025345e-48, -2.9981583459367814e-32, 1.0321445053759916e-32, 0.0029200019999990156]"
9175000000,,68,,9,174000000,turtlebot2/odom,turtlebot2/base_footprint_self,,,,2.89430052693e-05,-7.44500663707e-14,-2.94678156013e-19,,5.71529320347e-19,-3.97740984714e-19,8.61420450919e-14,1.0,"[0.08187330509351995, 5.811938587749328e-18, -4.590684043299095e-28, -8.457229893186568e-32, 8.900293013373288e-32, -3.1869846560953363e-27, 5.811938587749329e-18, 0.08178662026826167, 4.996519448317557e-28, -3.032618304664593e-32, 2.2040456510625292e-32, -4.6024255470296256e-27, -4.590684043269708e-28, 4.9965194483469445e-28, 0.006061999657664975, -2.480234720357883e-36, 4.135419093801246e-36, -1.552098529295811e-31, -8.457229893186568e-32, -3.032618304663472e-32, -2.48023472316048e-36, 0.003031999315591348, 2.922187120648049e-35, -2.1265772608139007e-30, 8.900293013368804e-32, 2.2040456510614082e-32, 4.135419093801246e-36, 2.931591075454627e-35, 0.003031999315591348, 5.271910984493667e-30, -3.1869846560953363e-27, -4.6024255470296256e-27, -1.5520985292931206e-31, -2.1265772622832686e-30, 5.271910984493667e-30, 0.09810100039738437]",,,,-1.57556575181e-05,-7.66414951663e-22,2.13957966694e-18,,-3.57627811154e-18,3.32361563746e-19,-1.13927839525e-40,"[0.0028737818841857825, 5.212004677315734e-30, 2.200928519110642e-28, 9.84620571446051e-33, -8.647407928458767e-34, -1.3482960273388629e-42, 5.212004700825621e-30, 0.0025250019999991827, -2.7542122893631813e-33, 2.3733293228016127e-38, -6.401605023916706e-39, -8.718558484320742e-48, 2.200928519110509e-28, -2.75421228932955e-33, 0.004041999483104968, -8.591416515203448e-35, 1.248958278727618e-35, -1.4726933552607998e-48, 9.84620571448293e-33, 2.373328762282227e-38, -8.591416506235138e-35, 0.0010119979429144429, 7.22300749777695e-35, -2.5456322317349566e-33, -8.647407928458767e-34, -6.401605023916706e-39, 1.248958278727618e-35, 7.221444339811166e-35, 0.0010119979429144429, 5.59295656822173e-33, -1.3482960273388629e-42, -8.723904013740927e-48, -1.475366119970892e-48, -2.545632231674783e-33, 5.592956569370583e-33, 0.0020200019999989543]"
9274000000,,69,,9,274000000,turtlebot2/odom,turtlebot2/base_footprint_self,,,,3.10305843228e-05,-5.24237058837e-14,-3.88758089254e-19,,6.58165519114e-19,1.85998967886e-19,9.74152198805e-14,1.0,"[0.08984647421863243, 7.813629434216954e-18, 4.222458097341947e-27, -1.5596585788559983e-31, -4.4873486246854704e-32, -5.0071744990166066e-27, 7.813629434216954e-18, 0.08974791209203228, 2.9360365001637818e-27, 1.6552877829850386e-31, 2.9147254876109624e-32, -1.3364552550309704e-27, 4.2224580973537016e-27, 2.9360365001872917e-27, 0.00954199950522543, -8.748929442180949e-36, -4.706412400824861e-37, -8.187586500756515e-32, -1.55965857885555e-31, 1.6552877829850386e-31, -8.748929453391337e-36, 0.004771999010999797, -1.11557578201391e-33, 1.9946285399434123e-29, -4.4873486246865915e-32, 2.914725487610402e-32, -4.706412400824861e-37, -1.1150115447255154e-33, 0.004771999010999797, 2.86300130393284e-29, -5.0071744990166066e-27, -1.3364552550309704e-27, -8.187586500752031e-32, 1.9946285405311595e-29, 2.863001303345093e-29, 0.10764100044794643]",,,,1.7064101469e-05,2.35713283571e-21,-2.98628608378e-18,,2.34363267293e-18,-6.28940280441e-18,2.28319347429e-40,"[0.004489029013066872, 5.034005245408429e-30, -2.4576032982525255e-27, -1.2409942461731498e-32, 3.774967216563994e-32, -3.15182359437005e-42, 5.034005233653486e-30, 0.003975001999998961, -1.3494347297913537e-32, 9.156624506586198e-38, -1.6729815379648497e-37, -1.370593743335278e-47, -2.4576032982525363e-27, -1.349434729716244e-32, 0.006361999245543995, -7.221394768037211e-35, 2.044082152600153e-34, -2.9600869164271067e-48, -1.2409942461731498e-32, 9.15662562762497e-38, -7.221394770279289e-35, 0.0015919970145308296, -2.1467701264599182e-34, 1.9863186554492603e-32, 3.774967216563994e-32, -1.6729813137570954e-37, 2.0440821530485684e-34, -2.148279789576567e-34, 0.0015919970145308296, 2.854218804469174e-32, -3.151823589024521e-42, -1.370593743335278e-47, -2.961423298782153e-48, 1.9863186555627778e-32, 2.8542188043926874e-32, 0.0031800019999985284]"
9374000000,,70,,9,374000000,turtlebot2/odom,turtlebot2/base_footprint_self,,,,3.10305843228e-05,-5.24237058837e-14,-3.88758089254e-19,,6.58165519114e-19,1.85998967886e-19,9.74152198805e-14,1.0,"[0.08984647421863243, 7.813629434216954e-18, 4.222458097341947e-27, -1.5596585788559983e-31, -4.4873486246854704e-32, -5.0071744990166066e-27, 7.813629434216954e-18, 0.08974791209203228, 2.9360365001637818e-27, 1.6552877829850386e-31, 2.9147254876109624e-32, -1.3364552550309704e-27, 4.2224580973537016e-27, 2.9360365001872917e-27, 0.00954199950522543, -8.748929442180949e-36, -4.706412400824861e-37, -8.187586500756515e-32, -1.55965857885555e-31, 1.6552877829850386e-31, -8.748929453391337e-36, 0.004771999010999797, -1.11557578201391e-33, 1.9946285399434123e-29, -4.4873486246865915e-32, 2.914725487610402e-32, -4.706412400824861e-37, -1.1150115447255154e-33, 0.004771999010999797, 2.86300130393284e-29, -5.0071744990166066e-27, -1.3364552550309704e-27, -8.187586500752031e-32, 1.9946285405311595e-29, 2.863001303345093e-29, 0.10764100044794643]",,,,1.7064101469e-05,2.35713283571e-21,-2.98628608378e-18,,2.34363267293e-18,-6.28940280441e-18,2.28319347429e-40,"[0.004489029013066872, 5.034005245408429e-30, -2.4576032982525255e-27, -1.2409942461731498e-32, 3.774967216563994e-32, -3.15182359437005e-42, 5.034005233653486e-30, 0.003975001999998961, -1.3494347297913537e-32, 9.156624506586198e-38, -1.6729815379648497e-37, -1.370593743335278e-47, -2.4576032982525363e-27, -1.349434729716244e-32, 0.006361999245543995, -7.221394768037211e-35, 2.044082152600153e-34, -2.9600869164271067e-48, -1.2409942461731498e-32, 9.15662562762497e-38, -7.221394770279289e-35, 0.0015919970145308296, -2.1467701264599182e-34, 1.9863186554492603e-32, 3.774967216563994e-32, -1.6729813137570954e-37, 2.0440821530485684e-34, -2.148279789576567e-34, 0.0015919970145308296, 2.854218804469174e-32, -3.151823589024521e-42, -1.370593743335278e-47, -2.961423298782153e-48, 1.9863186555627778e-32, 2.8542188043926874e-32, 0.0031800019999985284]"
9474000000,,71,,9,474000000,turtlebot2/odom,turtlebot2/base_footprint_self,,,,2.48589798107e-05,-6.2778178183e-14,5.67689237778e-20,,3.06986487971e-19,-1.04244634073e-18,8.65523374084e-14,1.0,"[0.09686752756048897, 9.654297554395599e-18, -1.0448627042452906e-27, 2.960645354162887e-32, -1.7570200488112713e-32, -6.064586974166254e-27, 9.654297554395599e-18, 0.09675870222909073, 1.8849506351794805e-27, -4.0932013404574236e-32, 1.0227562870007956e-31, -1.0063256199625035e-27, -1.0448627042394132e-27, 1.8849506351912354e-27, 0.008401999685645204, -7.257964663694946e-37, 4.8012048273191687e-36, -1.6870232261360205e-32, 2.960645354162887e-32, -4.0932013404574236e-32, -7.257964663694946e-37, 0.004201999371511654, -2.0903694817705706e-33, -4.721136682857447e-30, -1.7570200488112713e-32, 1.0227562870003472e-31, 4.801204849739944e-36, -2.090181402674439e-33, 0.004201999371511654, 1.6623463681602628e-29, -6.064586974166254e-27, -1.0063256199625035e-27, -1.6870232261360205e-32, -4.721136684326815e-30, 1.6623463669847684e-29, 0.11604100048714633]",,,,-4.67773955098e-05,8.92475200813e-22,-3.04563323283e-19,,-2.07094739473e-19,7.5721820121e-19,-4.09211948953e-40,"[0.003976582583516523, -4.0613731604879144e-30, 5.334441933746683e-28, 2.2415806539179774e-34, -6.4565641510646246e-34, 2.2071080249205096e-42, -4.0613731839978015e-30, 0.0035000019999992605, -7.868589198874032e-33, -6.542205706633201e-39, 1.1584991227872633e-38, 1.0418436839939379e-47, 5.334441933746482e-28, -7.868589199591497e-33, 0.005601999522392063, 2.2254069698148455e-36, -2.9771426408432102e-36, 1.678496237937899e-48, 2.2415806539162258e-34, -6.542207107931665e-39, 2.2254069705154948e-36, 0.0014019981048535763, 1.0623698872185736e-33, -4.5785741231341005e-33, -6.456564151068128e-34, 1.1584988425275704e-38, -2.977142640142561e-36, 1.0625772096276496e-33, 0.0014019981048535763, 1.6201489139423717e-32, 2.2071080249205096e-42, 1.0413091310519194e-47, 1.678496237937899e-48, -4.578574122569572e-33, 1.6201489140185512e-32, 0.0028000019999990327]"
9574000000,,72,,9,574000000,turtlebot2/odom,turtlebot2/base_footprint_self,,,,3.78682948661e-05,-4.72287069386e-14,-1.4942952772e-18,,-2.88442983671e-19,-5.6422019738e-19,6.80459073123e-14,1.0,"[0.1019280805340038, 1.0249219985021191e-17, 3.1411154729399817e-27, -2.7788007138527418e-33, 2.7658465607704926e-32, -5.1512643506938836e-27, 1.0249219985021191e-17, 0.10181453563357247, 5.492277544766896e-28, -5.153207463754261e-32, -1.4589264898687651e-31, -1.7654472907681027e-27, 3.1411154729282267e-27, 5.492277544855058e-28, 0.0060619996429994265, 1.3172510599302995e-36, 2.707960539541926e-35, 5.5210298831033e-31, -2.7788007138527418e-33, -5.153207463752019e-32, 1.3172510599302995e-36, 0.0030319992862829605, 2.600397378736293e-34, 1.5264736603900647e-29, 2.7658465607704926e-32, -1.4589264898687651e-31, 2.707960539541926e-35, 2.600397378736293e-34, 0.0030319992862829605, 4.673801899848422e-30, -5.1512643506938836e-27, -1.7654472907681027e-27, 5.5210298831033e-31, 1.5264736598023175e-29, 4.67380190131779e-30, 0.12210100050754837]",,,,0.000133490069628,-8.1601746476e-22,-1.82752191803e-18,,-2.38621639289e-18,-3.2580342031e-18,-2.07041343662e-40,"[0.0028730081589123622, -3.1600122854730096e-30, -1.3048170307288517e-27, 1.4979589598131934e-32, 1.4367113934296272e-32, -2.8071285477603013e-42, -3.160012273718066e-30, 0.002525001999999197, -2.193278861875107e-33, 1.46069109843676e-38, 2.379671039131761e-38, -1.8206873205148037e-47, -1.3048170307287591e-27, -2.193278861067959e-33, 0.004041999460965673, 4.199695277724214e-35, 8.733642578582218e-35, -2.977459887042706e-48, 1.4979589598109514e-32, 1.46069109843676e-38, 4.1996952754821366e-35, 0.0010119978549632143, 1.3073918849097945e-34, 1.5164909062600996e-32, 1.4367113934296272e-32, 2.379671039131761e-38, 8.733642583066373e-35, 1.3096071092020865e-34, 0.0010119978549632143, 4.4658605549297463e-33, -2.8071285477603013e-42, -1.8206873205148037e-47, -2.9828054164628903e-48, 1.5164909061002854e-32, 4.465860556040693e-33, 0.002020001999998946]"
9675000000,,73,,9,675000000,turtlebot2/odom,turtlebot2/base_footprint_self,,,,3.5202035416e-05,-6.23957522495e-14,-2.06501118124e-18,,3.15203744501e-19,-1.00420051073e-18,8.14421324638e-14,1.0,"[0.10939971866824381, 1.1679346642125115e-17, 5.667665682941762e-27, 2.8613748273776043e-32, -3.88439318572671e-32, -4.2936764396327996e-27, 1.1679346642125115e-17, 0.10927640680133388, -1.6755329141708662e-27, -6.765381079430964e-32, 1.911128946383288e-31, -3.445810625376287e-27, 5.667665682941762e-27, -1.6755329141649888e-27, 0.008941999505224996, -1.8609611049111692e-35, 5.782839763959869e-35, -3.1570738755886477e-31, 2.861374827377044e-32, -6.765381079429843e-32, -1.8609611037901304e-35, 0.004471999010998404, -7.749932317472515e-34, 2.4920863342796372e-29, -3.884393185728952e-32, 1.9111289463837365e-31, 5.782839759475713e-35, -7.751813108433831e-34, 0.004471999010998404, -1.3069644128910465e-29, -4.2936764396327996e-27, -3.445810625376287e-27, -3.1570738755886477e-31, 2.4920863333980164e-29, -1.306964412450236e-29, 0.13104100055195028]",,,,-5.45992909019e-05,1.41626754381e-21,-1.73615505151e-18,,-5.15591258051e-18,3.72186647755e-18,2.69794995747e-40,"[0.004210335198395835, 1.3798399172093812e-30, -2.891228027796695e-27, -1.8259817288286427e-31, 1.582153145262822e-31, -5.344772054885081e-42, 1.3798399142706453e-30, 0.00372500199999892, 5.9897052591846184e-33, -7.898368347422116e-38, 3.727440462638756e-38, -2.461616297994912e-47, -2.891228027796552e-27, 5.98970526009266e-33, 0.005961999247066043, 1.25564382246944e-34, -6.827870878056251e-35, -5.040834243233881e-48, -1.8259817288286427e-31, -7.898368347422116e-38, 1.2556438226936477e-34, 0.0014919970175686363, -3.7022446190695005e-34, 2.4744355928985533e-32, 1.5821531452619251e-31, 3.7274410231581416e-38, -6.827870880298328e-35, -3.699824481333316e-34, 0.0014919970175686363, -1.2649909251836989e-32, -5.344772054885081e-42, -2.461616297994912e-47, -5.040834243233881e-48, 2.474435593033884e-32, -1.2649909251765618e-32, 0.002980001999998498]"
9774000000,,74,,9,774000000,turtlebot2/odom,turtlebot2/base_footprint_self,,,,3.5202035416e-05,-6.23957522495e-14,-2.06501118124e-18,,3.15203744501e-19,-1.00420051073e-18,8.14421324638e-14,1.0,"[0.10939971866824381, 1.1679346642125115e-17, 5.667665682941762e-27, 2.8613748273776043e-32, -3.88439318572671e-32, -4.2936764396327996e-27, 1.1679346642125115e-17, 0.10927640680133388, -1.6755329141708662e-27, -6.765381079430964e-32, 1.911128946383288e-31, -3.445810625376287e-27, 5.667665682941762e-27, -1.6755329141649888e-27, 0.008941999505224996, -1.8609611049111692e-35, 5.782839763959869e-35, -3.1570738755886477e-31, 2.861374827377044e-32, -6.765381079429843e-32, -1.8609611037901304e-35, 0.004471999010998404, -7.749932317472515e-34, 2.4920863342796372e-29, -3.884393185728952e-32, 1.9111289463837365e-31, 5.782839759475713e-35, -7.751813108433831e-34, 0.004471999010998404, -1.3069644128910465e-29, -4.2936764396327996e-27, -3.445810625376287e-27, -3.1570738755886477e-31, 2.4920863333980164e-29, -1.306964412450236e-29, 0.13104100055195028]",,,,-5.45992909019e-05,1.41626754381e-21,-1.73615505151e-18,,-5.15591258051e-18,3.72186647755e-18,2.69794995747e-40,"[0.004210335198395835, 1.3798399172093812e-30, -2.891228027796695e-27, -1.8259817288286427e-31, 1.582153145262822e-31, -5.344772054885081e-42, 1.3798399142706453e-30, 0.00372500199999892, 5.9897052591846184e-33, -7.898368347422116e-38, 3.727440462638756e-38, -2.461616297994912e-47, -2.891228027796552e-27, 5.98970526009266e-33, 0.005961999247066043, 1.25564382246944e-34, -6.827870878056251e-35, -5.040834243233881e-48, -1.8259817288286427e-31, -7.898368347422116e-38, 1.2556438226936477e-34, 0.0014919970175686363, -3.7022446190695005e-34, 2.4744355928985533e-32, 1.5821531452619251e-31, 3.7274410231581416e-38, -6.827870880298328e-35, -3.699824481333316e-34, 0.0014919970175686363, -1.2649909251836989e-32, -5.344772054885081e-42, -2.461616297994912e-47, -5.040834243233881e-48, 2.474435593033884e-32, -1.2649909251765618e-32, 0.002980001999998498]"
9875000000,,75,,9,875000000,turtlebot2/odom,turtlebot2/base_footprint_self,,,,3.63723226538e-05,-1.05877746709e-13,-9.51753919735e-20,,-4.17090688235e-19,2.85433711098e-19,8.96489605339e-14,1.0,"[0.11692607749154549, 1.35374840651785e-17, 7.752171488747457e-27, -7.551684372803886e-33, 6.283895770923987e-32, -4.2526715470636636e-27, 1.3537484065178499e-17, 0.11679102636803247, 1.3888230449149382e-27, 3.804919982124672e-31, -2.181025281115034e-31, -7.190235346526748e-27, 7.752171488723947e-27, 1.3888230449149382e-27, 0.009001999664555737, 2.879824908462321e-36, -1.035658465979055e-36, -4.1248022953269243e-32, -7.551684372803886e-33, 3.8049199821264655e-31, 2.879824908462321e-36, 0.004501999329363524, 4.3188691004525735e-34, 3.013675405162166e-29, 6.28389577092735e-32, -2.181025281115931e-31, -1.0356584715842488e-36, 4.320749891413889e-34, 0.004501999329363523, 9.467319773723394e-30, -4.2526715470636636e-27, -7.190235346526748e-27, -4.12480229532244e-32, 3.01367540633766e-29, 9.46731977666213e-30, 0.14004100059695032]",,,,1.12081959511e-05,1.10146139697e-21,-9.8735954373e-19,,-3.15100037234e-18,2.13133768053e-18,-1.87915274109e-40,"[0.004256048713019432, 1.0267852265209476e-29, -3.716747494249473e-27, 1.3424806446760627e-31, -8.361477003453955e-32, 3.4570326691368994e-42, 1.0267852265209476e-29, 0.0037500019999992668, -4.573074752171043e-33, -5.935218703306878e-38, 2.5438746326619574e-38, 1.5330978377088834e-47, -3.716747494247338e-27, -4.5730747519019934e-33, 0.006001999489384052, 2.9093559070517043e-35, -2.995789182390279e-35, 2.501707768646295e-48, 1.3424806446760627e-31, -5.935223187461963e-38, 2.9093559070517043e-35, 0.0015019979760051148, -5.331732507433623e-34, 3.0278362433455826e-32, -8.361477003453955e-32, 2.543873511623186e-38, -2.9957891812692404e-35, -5.334351767887926e-34, 0.0015019979760051148, 9.503930681214295e-33, 3.4570326584458405e-42, 1.5341669435929203e-47, 2.5070532980664795e-48, 3.027836242944009e-32, 9.503930681480714e-33, 0.003000001999999]"
9974000000,,76,,9,974000000,turtlebot2/odom,turtlebot2/base_footprint_self,,,,3.93478259293e-05,-8.44045992099e-14,6.96173720176e-19,,-7.01680342624e-19,5.78575825365e-19,7.9497958058e-14,1.0,"[0.12450451263462994, 1.5894020139396728e-17, -2.337665784394933e-27, -9.54779317507871e-32, 1.4113692383631123e-31, -5.185309208701214e-27, 1.5894020139396728e-17, 0.12435685227155403, -2.0182667419542408e-27, -2.197478196612413e-31, 1.5046934459190611e-31, -8.455246154885623e-27, -2.337665784383178e-27, -2.0182667419659958e-27, 0.009061999666791186, -1.1645338135028393e-35, 6.527576957813565e-36, -1.185437346530548e-31, -9.54779317507871e-32, -2.197478196612413e-31, -1.1645338135028393e-35, 0.004531999333831189, -4.2451398909413e-34, -8.406749173884319e-30, 1.4113692383635608e-31, 1.5046934459186127e-31, 6.527576946603178e-36, -4.2451398909413e-34, 0.004531999333831189, -1.2816225664179862e-29, -5.185309208701214e-27, -8.455246154885623e-27, -1.185437346530548e-31, -8.406749173884319e-30, -1.2816225664179862e-29, 0.1491010006425523]",,,,1.81412596548e-05,1.09446988764e-21,-1.22558915123e-18,,2.40699971534e-18,3.90551064004e-19,-3.10919109344e-41,"[0.004284489127702188, -5.11761621901674e-30, 1.0706446879717248e-27, 1.4109721163310946e-33, 1.215483401417837e-33, -2.432403407355958e-42, -5.11761621901674e-30, 0.0037750019999992597, 6.082806791404349e-33, 2.734284749552571e-38, 7.267859708593022e-39, -1.0744514134570626e-47, 1.0706446879720549e-27, 6.0828067929289617e-33, 0.0060419994926860215, -3.801799468817135e-35, -6.601568638822894e-36, -1.721260473299374e-48, 1.4109721163310946e-33, 2.7342853100719565e-38, -3.80179947330129e-35, 0.0015119979892696046, 7.03179200785552e-34, -8.663392328537075e-33, 1.2154834014206397e-33, 7.267854103399164e-39, -6.601568638822894e-36, 7.030091364237454e-34, 0.0015119979892696046, -1.265939362667613e-32, -2.4324034127014875e-42, -1.0744514134570626e-47, -1.721260473299374e-48, -8.663392330982203e-33, -1.2659393625762647e-32, 0.003020001999998996]"
10075000000,,77,,10,74000000,turtlebot2/odom,turtlebot2/base_footprint_self,,,,4.00145601237e-05,-6.98278599336e-14,6.42609475823e-19,,-5.51345778688e-19,-1.32641521659e-18,9.84612488903e-14,1.0,"[0.1295169152738269, 1.6563537925020872e-17, -1.8775107431189312e-27, -4.800948831290822e-32, -5.41370023805885e-32, -2.938116198790704e-27, 1.6563537925020872e-17, 0.1293640896785052, -1.5337450120277911e-27, -1.0117543219231368e-31, -3.6553776821310495e-31, -6.100938070144146e-27, -1.8775107431071763e-27, -1.5337450120277911e-27, 0.006001999668996515, -8.466679557974625e-36, -2.3705525546062575e-35, 1.8653292944498048e-31, -4.800948831290822e-32, -1.0117543219240337e-31, -8.46667953555385e-36, 0.0030019993382371882, -1.39371018337306e-34, -7.957183786808169e-30, -5.41370023805885e-32, -3.655377682134637e-31, -2.3705525456379473e-35, -1.3955909743343756e-34, 0.0030019993382371882, -1.0133344472713033e-29, -2.938116198790704e-27, -6.100938070144146e-27, 1.8653292944498048e-31, -7.957183777991962e-30, -1.0133344475651769e-29, 0.1551010006625524]",,,,4.00530715489e-06,2.03454938276e-22,1.30480214917e-19,,-2.42962206054e-18,2.39575322599e-18,4.98860000574e-40,"[0.002846362407698623, -5.720024806493232e-31, 6.545424846283345e-28, 1.851934795113761e-33, -2.2977472930086774e-33, -1.889695706523057e-43, -5.720024806493232e-31, 0.0025000019999992717, 4.55721252120742e-33, -2.3262002923300547e-39, 1.3498842631493538e-38, -1.2308081489974561e-48, 6.545424846281618e-28, 4.5572125200415394e-33, 0.004001999500277762, 2.8321959710694584e-36, -2.1660206380427458e-36, -1.857571473514076e-49, 1.851934795108156e-33, -2.3261995916808226e-39, 2.8321959710694584e-36, 0.0010019980110126418, -1.4873635412051386e-34, -7.650858768996067e-33, -2.2977472930086774e-33, 1.3498842631493538e-38, -2.1660206366414473e-36, -1.4871078584936759e-34, 0.0010019980110126418, -9.278736761233708e-33, -1.889695706523057e-43, -1.2308081489974561e-48, -1.8542305176264607e-49, -7.650858769473557e-33, -9.27873676174984e-33, 0.002000001999999035]"
10174000000,,78,,10,174000000,turtlebot2/odom,turtlebot2/base_footprint_self,,,,4.29282797454e-05,-6.03335598779e-14,-8.41879804962e-19,,6.64119862372e-19,-5.91379351425e-19,1.16880497023e-13,1.0,"[0.13442679967846588, 1.7123020244997776e-17, 5.887942770709332e-27, -8.482423476492789e-32, -2.622811107336792e-34, -2.212808316402344e-27, 1.7123020244997776e-17, 0.13426985308208164, -1.7724314231660765e-27, 1.611728189983904e-31, -7.225658136155792e-32, -5.0163704791472555e-27, 5.887942770721087e-27, -1.7724314231660765e-27, 0.005881999500278606, -1.1254813595490861e-35, 2.0031544552575485e-35, -1.84931040813817e-31, -8.482423476495031e-32, 1.6117281899834556e-31, -1.1254813606701249e-35, 0.0029419990011138935, -1.380779745289807e-34, 2.5523347161911317e-29, -2.622811107340295e-34, -7.225658136155792e-32, 2.0031544507733934e-35, -1.3826605362511226e-34, 0.0029419990011138922, -1.0888789488351256e-29, -2.212808316402344e-27, -5.0163704791472555e-27, -1.84931040813817e-31, 2.5523347156033845e-29, -1.0888789482473785e-29, 0.16098100068176033]",,,,3.67336338956e-05,7.3940160075e-22,-5.7714440019e-19,,1.71314244053e-18,6.91778865148e-19,4.98542383031e-40,"[0.0027805642778060543, -1.988710141296362e-30, -2.0676700004889832e-27, -5.520574898770056e-34, -6.633135162846893e-34, 6.461753590897132e-42, -1.9887101471738337e-30, 0.002450001999998841, 5.1450654268073535e-33, 1.223052178623929e-38, 2.2642306703422183e-38, 4.399370712811754e-47, -2.067670000488218e-27, 5.145065425865681e-33, 0.0039219992458306326, -8.664121286863134e-36, -4.387473829526865e-36, 8.162623424621566e-48, -5.520574898763049e-34, 1.223052178623929e-38, -8.664121284060537e-36, 0.000981997000393339, 4.5641419073164624e-35, 2.541557976525493e-32, -6.633135162846893e-34, 2.2642309506019112e-38, -4.387473829526865e-36, 4.550644937099977e-35, 0.000981997000393339, -1.0564394558030069e-32, 6.461753601588191e-42, 4.399370712811754e-47, 8.162623424621566e-48, 2.541557976087503e-32, -1.056439455733789e-32, 0.0019600019999984793]"
10274000000,,79,,10,274000000,turtlebot2/odom,turtlebot2/base_footprint_self,,,,-0.086572085286,-3.88394118765e-14,-8.90892092035e-19,,-6.54229039498e-19,-6.2037417769e-19,1.05257168943e-13,1.0,"[0.13953732206920685, 1.803104857046656e-17, 3.0795252953835013e-27, -1.1067870197779887e-31, -2.2347137750606933e-32, -4.922764723179421e-28, 1.803104857046656e-17, 0.13937603682613395, 2.3894686759743712e-27, -4.02263039379109e-31, -3.761896921513082e-31, -7.602739814103657e-27, 3.0795252953835013e-27, 2.389468675986126e-27, 0.006121999490086167, 2.41111591210606e-35, 3.1219484289739035e-36, 2.7886237938029775e-31, -1.1067870197777645e-31, -4.022630393790193e-31, 2.4111159098639824e-35, 0.003061998980751925, 3.791575394555481e-35, 1.2798335330763278e-29, -2.2347137750601328e-32, -3.7618969215112885e-31, 3.1219484261713065e-36, 3.791575394555481e-35, 0.0030619989807519244, 1.4200704149688513e-29, -4.922764723179421e-28, -7.602739814103657e-27, 2.7886237938029775e-31, 1.2798335335171382e-29, 1.4200704149688513e-29, 0.16710100070256834]",,,,-1.19184294326,3.4845092561e-22,-2.17621254157e-18,,-3.95867393159e-18,8.94288440075e-19,-1.69597925219e-38,"[0.0029655052615186217, -1.3750383107823881e-30, -1.2799006008716909e-27, -2.7530538913917224e-32, 6.380950678556294e-33, 8.820529194149826e-42, -1.3750383107823881e-30, 0.0025500019999988585, -6.829716807985207e-33, -3.7593906281447474e-38, 6.99120695797523e-39, 4.758590289848145e-47, -1.279900600871874e-27, -6.829716808612989e-33, 0.0040819992300451455, 8.004687294564574e-35, -2.9393636475573486e-36, 8.921688602287749e-48, -2.7530538913894803e-32, -3.7593900676253617e-38, 8.004687301290806e-35, 0.0010219969385680543, 2.606466466732909e-34, 1.2525274521860367e-32, 6.380950678556294e-33, 6.991207658624462e-39, -2.9393636482579978e-36, 2.606888158891233e-34, 0.0010219969385680543, 1.406590295183639e-32, 8.820529183458767e-42, 4.757521183964108e-47, 8.921688602287749e-48, 1.2525274521586703e-32, 1.4065902950936006e-32, 0.0020400019999984756]"
10374000000,,80,,10,374000000,turtlebot2/odom,turtlebot2/base_footprint_self,,,,-0.14890941596,-3.27478579655e-14,-1.66593160276e-19,,-5.10148974255e-19,2.09217588298e-19,8.84147365235e-14,1.0,"[0.14444823022390718, 1.9690839328154357e-17, 3.0762647871472406e-27, -3.042626918685478e-28, 4.532868664181558e-29, -3.1565372650842306e-24, 1.9690839328154357e-17, 0.14428192916894886, -2.1162787264828102e-27, -1.5922301536322466e-31, 6.423366795015816e-32, -9.201731499697899e-27, 3.076264787141363e-27, -2.1162787264798715e-27, 0.005881999510071692, 6.45327147563133e-36, -2.1458755390897475e-36, 9.303505017104556e-32, -3.0426269186845597e-28, -1.5922301536317982e-31, 6.453271470026136e-36, 0.0029419990206783903, 6.352564327506612e-35, 1.189227295148156e-29, 4.53286866418041e-29, 6.423366795013574e-32, -2.1458755418923445e-36, 6.343160372700034e-35, 0.0029419990206783907, -1.238369724423327e-29, -3.1565372650842306e-24, -9.201731499697899e-27, 9.303505017104556e-32, 1.1892272948542824e-29, -1.2383697250110742e-29, 0.17298100072177633]",,,,-0.471988118198,1.19718155873e-21,6.24483788887e-19,,-4.97489655794e-18,4.51764128468e-18,-3.28182390638e-37,"[0.002952349939474887, -4.156086974934516e-28, -1.4987235904951516e-27, 5.440869539197761e-28, -5.865152231686774e-28, -3.1707318361017994e-40, -4.156086982457679e-28, 0.0024500019999988618, 5.986477330891902e-33, -8.432655425899882e-38, 4.801164671710375e-38, -1.4491944079296692e-45, -1.4987235904953353e-27, 5.9864773301295955e-33, 0.003921999260606065, -4.2920951765462396e-35, 5.332176009877687e-35, -2.635987467681327e-46, 5.440869539201435e-28, -8.43265430486111e-38, -4.2920951776672784e-35, 0.0009819970590145123, -2.706960207723352e-34, 1.1654535621553969e-32, -5.865152231683101e-28, 4.801164671710375e-38, 5.332176010998726e-35, -2.7056583974142547e-34, 0.0009819970590145123, -1.229054584426639e-32, -3.1707318395229383e-40, -1.4491944079296692e-45, -2.639408606510245e-46, 1.1654535624251014e-32, -1.229054584542286e-32, 0.0019600019999985083]"
10472000000,,81,,10,474000000,turtlebot2/odom,turtlebot2/base_footprint_self,,,,-0.14890941596,-3.27478579655e-14,-1.66593160276e-19,,-5.10148974255e-19,2.09217588298e-19,8.84147365235e-14,1.0,"[0.14444823022390718, 1.9690839328154357e-17, 3.0762647871472406e-27, -3.042626918685478e-28, 4.532868664181558e-29, -3.1565372650842306e-24, 1.9690839328154357e-17, 0.14428192916894886, -2.1162787264828102e-27, -1.5922301536322466e-31, 6.423366795015816e-32, -9.201731499697899e-27, 3.076264787141363e-27, -2.1162787264798715e-27, 0.005881999510071692, 6.45327147563133e-36, -2.1458755390897475e-36, 9.303505017104556e-32, -3.0426269186845597e-28, -1.5922301536317982e-31, 6.453271470026136e-36, 0.0029419990206783903, 6.352564327506612e-35, 1.189227295148156e-29, 4.53286866418041e-29, 6.423366795013574e-32, -2.1458755418923445e-36, 6.343160372700034e-35, 0.0029419990206783907, -1.238369724423327e-29, -3.1565372650842306e-24, -9.201731499697899e-27, 9.303505017104556e-32, 1.1892272948542824e-29, -1.2383697250110742e-29, 0.17298100072177633]",,,,-0.471988118198,1.19718155873e-21,6.24483788887e-19,,-4.97489655794e-18,4.51764128468e-18,-3.28182390638e-37,"[0.002952349939474887, -4.156086974934516e-28, -1.4987235904951516e-27, 5.440869539197761e-28, -5.865152231686774e-28, -3.1707318361017994e-40, -4.156086982457679e-28, 0.0024500019999988618, 5.986477330891902e-33, -8.432655425899882e-38, 4.801164671710375e-38, -1.4491944079296692e-45, -1.4987235904953353e-27, 5.9864773301295955e-33, 0.003921999260606065, -4.2920951765462396e-35, 5.332176009877687e-35, -2.635987467681327e-46, 5.440869539201435e-28, -8.43265430486111e-38, -4.2920951776672784e-35, 0.0009819970590145123, -2.706960207723352e-34, 1.1654535621553969e-32, -5.865152231683101e-28, 4.801164671710375e-38, 5.332176010998726e-35, -2.7056583974142547e-34, 0.0009819970590145123, -1.229054584426639e-32, -3.1707318395229383e-40, -1.4491944079296692e-45, -2.639408606510245e-46, 1.1654535624251014e-32, -1.229054584542286e-32, 0.0019600019999985083]"
10575000000,,82,,10,575000000,turtlebot2/odom,turtlebot2/base_footprint_self,,,,-0.137425516113,-1.48152041156e-14,1.31207872788e-18,,-5.83351128268e-19,-1.07314957774e-18,8.20338570043e-14,1.0,"[0.1520759496942131, 2.368765306486739e-17, -3.642897999419444e-27, 7.20953874068759e-28, 8.756974551930985e-28, -4.0481334203935056e-24, 2.368765306486739e-17, 0.15189578218938005, -4.231081452635234e-27, -8.041963998250905e-32, -1.4188108058216264e-31, -1.0824216755301254e-26, -3.642897999419444e-27, -4.231081452635234e-27, 0.009121999490087691, -1.4412583083599265e-35, -3.172603416170225e-35, -8.024302465069227e-32, 7.20953874068759e-28, -8.041963998250905e-32, -1.441258306117849e-35, 0.0045619989807578094, -8.343714003546395e-34, -9.734069759393646e-30, 8.756974551930985e-28, -1.4188108058214022e-31, -3.1726034251385353e-35, -8.34183321258508e-34, 0.004561998980757811, -2.3802934017094975e-29, -4.0481334203935056e-24, -1.0824216755301254e-26, -8.024302465066985e-32, -9.734069760863014e-30, -2.380293401415624e-29, 0.18210100076798438]",,,,0.288269542466,2.91801646927e-22,-1.74586329098e-18,,-3.9242512921e-18,4.11016509998e-18,-9.6978292863e-36,"[0.004532118127869746, -1.7852687812211736e-27, 2.269339592839283e-27, 1.0264662207530841e-27, -1.0436812123654354e-27, -1.3560040181818108e-38, -1.7852687812211736e-27, 0.0038000019999989577, 1.1249493774160056e-32, -2.461202787681572e-38, 1.126159256178343e-38, -4.3692048211877695e-44, 2.269339592839283e-27, 1.124949377111083e-32, 0.00608199922357708, 9.472237643606559e-35, -6.896109010300381e-35, -8.801905979040257e-45, 1.0264662207527168e-27, -2.461202787681572e-38, 9.472237643606559e-35, 0.0015219969256590035, -9.288971782371156e-35, -9.840187283882618e-33, -1.0436812123654354e-27, 1.1261593963081894e-38, -6.896109012542459e-35, -9.27846504603055e-35, 0.0015219969256590037, -2.3993967561140708e-32, -1.3560040181818108e-38, -4.3681100567625157e-44, -8.79095833478772e-45, -9.840187283775582e-33, -2.3993967558141187e-32, 0.003040001999998489]"
10674000000,,83,,10,674000000,turtlebot2/odom,turtlebot2/base_footprint_self,,,,-0.179612647679,4.23068273299e-16,-1.86947215227e-19,,-3.93206306508e-19,-5.18158825372e-19,9.76518961666e-14,1.0,"[0.1595590391977536, 1.7366128983499136e-17, 1.0200853480599232e-26, 1.7287079462624434e-28, 1.9356366972053445e-28, -7.199543662131697e-24, 1.7366128983499133e-17, 0.15936307390659, -3.1916016430329254e-27, -1.691694489661078e-31, -1.7311251305110502e-31, -6.491478274387411e-27, 1.0200853480599232e-26, -3.1916016430211705e-27, 0.008941999671173819, -1.7454577903551284e-36, 4.239010082776458e-37, -5.246717418120602e-32, 1.7287079462624434e-28, -1.691694489661078e-31, -1.7454577903551284e-36, 0.0044719993425899225, -1.759147683452069e-33, 3.101710824308525e-29, 1.9356366972044261e-28, -1.7311251305092565e-31, 4.239010138828397e-37, -1.7589596043559376e-33, 0.0044719993425899225, -1.7277235177354825e-29, -7.199543662131697e-24, -6.491478274387411e-27, -5.246717418111634e-32, 3.1017108254840193e-29, -1.7277235171477354e-29, 0.1910410008123863]",,,,-0.354647883888,-5.57596394758e-22,2.35781475416e-20,,1.64170453957e-18,-1.58476560398e-18,1.05323642268e-34,"[0.00437087608760258, -2.5889318694103387e-28, -4.898491104868251e-27, -8.558886790286462e-30, 8.547792472410829e-30, -1.4835697236164522e-37, -2.5889318694103387e-28, 0.003725001999999252, 8.171136190372978e-33, -1.060362828214282e-38, 1.2376223195365926e-38, 9.598894480624997e-43, -4.8984911048696314e-27, 8.171136191807908e-33, 0.005961999499554584, -2.427135337267401e-36, 2.5991093760095098e-36, -2.380006912857429e-41, -8.558886790286462e-30, -1.0603631084739748e-38, -2.4271353358661026e-36, 0.0014919980160610444, 1.567513009208915e-34, 3.129818435500604e-32, 8.547792472410829e-30, 1.2376223195365926e-38, 2.5991093788121067e-36, 1.5681385371285345e-34, 0.0014919980160610444, -1.7013298224364754e-32, -1.4835697236164522e-37, 9.598894480624997e-43, -2.3800047233285784e-41, 3.1298184356989774e-32, -1.70132982275436e-32, 0.002980001999998996]"
10774000000,,84,,10,774000000,turtlebot2/odom,turtlebot2/base_footprint_self,,,,-0.219401720725,-2.11786445404e-14,7.17489792698e-19,,-1.34705206826e-18,9.73743333038e-19,1.04598656006e-13,1.0,"[0.16462376231598305, 1.8783507758255992e-17, 1.733241362868011e-27, 1.3719735615090521e-27, -7.305531045769223e-28, -9.355201586860264e-24, 1.8783507758255992e-17, 0.1644211512581367, -1.0354532547373062e-27, 3.66007086322111e-31, -2.2618286498176518e-31, -5.700793311232013e-27, 1.733241362879766e-27, -1.0354532547431837e-27, 0.0060619996645551524, -1.9071014341171994e-35, 1.4716943630279437e-35, 6.901683916582356e-32, 1.3719735615094194e-27, 3.6600708632220067e-31, -1.9071014341171994e-35, 0.0030319993293611344, -9.957891825723918e-34, 6.743966091352563e-30, -7.305531045769223e-28, -2.2618286498176518e-31, 1.471694356301711e-35, -9.95695143024326e-34, 0.0030319993293611344, -5.186061531686765e-30, -9.355201586860264e-24, -5.700793311232013e-27, 6.901683916582356e-32, 6.743966094291299e-30, -5.186061530217397e-30, 0.1971010008327884]",,,,-0.398945844942,1.03487680341e-21,-2.06176356698e-18,,3.8804607512e-18,4.02422627369e-18,-4.76922963574e-35,"[0.002927680439331134, 1.879373326883512e-30, -6.17792965559669e-28, -1.675264661377382e-28, -1.5405194242603697e-28, 7.607715532132917e-37, 1.8793733386384554e-30, 0.002525001999999249, 2.6360926570235605e-33, 5.32946091899346e-38, 3.126509871275244e-38, 3.1529215447308384e-43, -6.177929655604037e-28, 2.6360926570235605e-33, 0.004041999493506462, -8.629486189218465e-35, -8.878122154099375e-35, -3.139059900321737e-39, -1.6752646613810553e-28, 5.32946091899346e-38, -8.629486189218465e-35, 0.001011997984239884, 6.044686039634313e-34, 7.083317586999507e-33, -1.5405194242566963e-28, 3.126508750236473e-38, -8.878122163067686e-35, 6.043891831869401e-34, 0.001011997984239884, -5.375190838140668e-33, 7.607715532132917e-37, 3.1529215447308384e-43, -3.139059900321737e-39, 7.08331758747252e-33, -5.375190838362072e-33, 0.00202000199999901]"
10873000000,,85,,10,874000000,turtlebot2/odom,turtlebot2/base_footprint_self,,,,-0.219401720725,-2.11786445404e-14,7.17489792698e-19,,-1.34705206826e-18,9.73743333038e-19,1.04598656006e-13,1.0,"[0.16462376231598305, 1.8783507758255992e-17, 1.733241362868011e-27, 1.3719735615090521e-27, -7.305531045769223e-28, -9.355201586860264e-24, 1.8783507758255992e-17, 0.1644211512581367, -1.0354532547373062e-27, 3.66007086322111e-31, -2.2618286498176518e-31, -5.700793311232013e-27, 1.733241362879766e-27, -1.0354532547431837e-27, 0.0060619996645551524, -1.9071014341171994e-35, 1.4716943630279437e-35, 6.901683916582356e-32, 1.3719735615094194e-27, 3.6600708632220067e-31, -1.9071014341171994e-35, 0.0030319993293611344, -9.957891825723918e-34, 6.743966091352563e-30, -7.305531045769223e-28, -2.2618286498176518e-31, 1.471694356301711e-35, -9.95695143024326e-34, 0.0030319993293611344, -5.186061531686765e-30, -9.355201586860264e-24, -5.700793311232013e-27, 6.901683916582356e-32, 6.743966094291299e-30, -5.186061530217397e-30, 0.1971010008327884]",,,,-0.398945844942,1.03487680341e-21,-2.06176356698e-18,,3.8804607512e-18,4.02422627369e-18,-4.76922963574e-35,"[0.002927680439331134, 1.879373326883512e-30, -6.17792965559669e-28, -1.675264661377382e-28, -1.5405194242603697e-28, 7.607715532132917e-37, 1.8793733386384554e-30, 0.002525001999999249, 2.6360926570235605e-33, 5.32946091899346e-38, 3.126509871275244e-38, 3.1529215447308384e-43, -6.177929655604037e-28, 2.6360926570235605e-33, 0.004041999493506462, -8.629486189218465e-35, -8.878122154099375e-35, -3.139059900321737e-39, -1.6752646613810553e-28, 5.32946091899346e-38, -8.629486189218465e-35, 0.001011997984239884, 6.044686039634313e-34, 7.083317586999507e-33, -1.5405194242566963e-28, 3.126508750236473e-38, -8.878122163067686e-35, 6.043891831869401e-34, 0.001011997984239884, -5.375190838140668e-33, 7.607715532132917e-37, 3.1529215447308384e-43, -3.139059900321737e-39, 7.08331758747252e-33, -5.375190838362072e-33, 0.00202000199999901]"
10974000000,,86,,10,974000000,turtlebot2/odom,turtlebot2/base_footprint_self,,,,-0.279339666259,-5.58686715828e-14,-2.10763372873e-18,,4.20692597373e-19,5.86222151259e-19,1.09817273099e-13,1.0,"[0.1721492513299436, -1.938117460613482e-18, -1.0694799888439554e-26, -6.770041261430172e-28, -1.1036569890644505e-27, -1.424541474786488e-23, -1.938117460613485e-18, 0.1719352665526156, -1.166131162714629e-26, -1.5328825276377931e-31, -1.788303087823168e-31, -6.4588027948328055e-27, -1.0694799888416044e-26, -1.1661311627099271e-26, 0.009001999505225105, -1.697006975017747e-35, -2.2000114710620812e-35, -2.50059861734012e-31, -6.770041261432009e-28, -1.5328825276377931e-31, -1.697006975017747e-35, 0.004501999010998584, 1.2396652302036766e-33, -4.315615063713246e-29, -1.1036569890642668e-27, -1.7883030878227195e-31, -2.2000114733041587e-35, 1.2400413883959397e-33, 0.004501999010998584, -5.97172704418191e-29, -1.424541474786488e-23, -6.4588027948328055e-27, -2.50059861734012e-31, -4.315615064300993e-29, -5.971727045357404e-29, 0.2061010008777884]",,,,-0.401846219617,-1.18910152508e-21,2.35359316705e-18,,4.40547672205e-18,-1.82685055429e-18,-1.03555231251e-35,"[0.004307497584632327, -1.360993525367132e-27, 5.792328150145102e-27, 2.728549825936098e-29, -5.575066445029822e-30, -1.4660358974082247e-36, -1.360993525367132e-27, 0.003750001999998966, 2.8140674760426807e-32, -5.622251583245801e-38, 2.877371335744778e-38, -1.0867069590838956e-42, 5.792328150143334e-27, 2.814067475822957e-32, 0.0060019992469183365, 1.5241381170185978e-34, -4.6563255611225896e-35, 5.755251903351491e-40, 2.728549825933802e-29, -5.622251583245801e-38, 1.52413811679439e-34, 0.0015019970172740968, -8.912275643958996e-35, -4.3279475652552055e-32, -5.575066445032692e-30, 2.877371335744778e-38, -4.6563255611225896e-35, -8.898723890539567e-35, 0.0015019970172740968, -5.987174648873957e-32, -1.4660358974082247e-36, -1.0870572836999768e-42, 5.755258909843813e-40, -4.327947565289315e-32, -5.987174648853499e-32, 0.0030000019999985223]"
11075000000,,87,,11,74000000,turtlebot2/odom,turtlebot2/base_footprint_self,,,,-0.319545354677,-5.98693129593e-14,8.09720573983e-19,,-2.61047261342e-20,1.03380422211e-18,9.1209858841e-14,1.0,"[0.17716299209780612, -7.884134065161601e-19, -2.46366380926456e-27, 8.937101711938378e-29, -9.508052390000041e-28, -4.88611626643e-24, -7.884134065161616e-19, 0.17694336624500462, 1.1132447293985552e-27, -9.289342404347077e-34, 9.951615960892763e-32, -6.622755855963107e-27, -2.46366380926456e-27, 1.1132447293956164e-27, 0.006001999666790533, -3.6256088459244575e-37, 2.3517188790379777e-35, -2.6647015883772104e-31, 8.937101711938378e-29, -9.289342404319051e-34, -3.625608859937442e-37, 0.0030019993338286106, 1.4770293147948398e-34, -7.730192521586524e-30, -9.508052390007388e-28, 9.951615960892763e-32, 2.3517188790379777e-35, 1.4770293147948398e-34, 0.0030019993338286106, 4.942212274227947e-30, -4.88611626643e-24, -6.622755855963107e-27, -2.6647015883807977e-31, -7.730192521586524e-30, 4.942212275697315e-30, 0.21210100089778836]",,,,-0.404010933196,5.44500893524e-22,-2.19670292424e-18,,-1.95218360044e-18,-3.3071479416e-18,-6.51997709827e-37,"[0.002896927166642923, -1.0090614518376674e-29, 8.909451601401653e-28, 1.1870031954578807e-28, 1.9630908511274843e-28, -7.365522574479831e-38, -1.0090614518376674e-29, 0.0025000019999992227, -2.7484604952142372e-33, -1.8316943956963128e-38, -3.1821660831619116e-38, 3.853570776893247e-43, 8.90945160138696e-28, -2.74846049413804e-33, 0.00400199949694805, 5.660578636552357e-35, 9.483385784522334e-35, -2.2219436865842883e-39, 1.1870031954542073e-28, -1.831693835176927e-38, 5.660578636552357e-35, 0.0010019979977808106, -3.364211049321495e-34, -7.803570217776875e-33, 1.9630908511311577e-28, -3.1821660831619116e-38, 9.483385789006489e-35, -3.3643825843964867e-34, 0.0010019979977808106, 5.600102724439028e-33, -7.365522539447369e-38, 3.855322399973653e-43, -2.2219436865842883e-39, -7.803570215729871e-33, 5.6001027243563516e-33, 0.0020000019999989924]"
11174000000,,88,,11,174000000,turtlebot2/odom,turtlebot2/base_footprint_self,,,,-0.37924487316,-4.69480228278e-14,2.06675919551e-19,,-2.57957946251e-19,-3.04999594424e-19,6.79190978278e-14,1.0,"[0.1846378735374508, 2.952429949012264e-18, -1.3622335050975482e-26, -1.3878175162695687e-28, -1.9914083693615068e-28, -1.8438695654297525e-23, 2.9524299490122625e-18, 0.18440722011537225, -2.3137994209796435e-28, -7.360976929834437e-32, -6.613729942100458e-32, -9.357445667805198e-27, -1.3622335050998992e-26, -2.3137994209796435e-28, 0.008941999500280025, -2.0005021192829687e-36, -2.0328496888295474e-36, -5.312400636594239e-32, -1.3878175162695687e-28, -7.360976929829952e-32, -2.0005021178816702e-36, 0.004471999001119476, 6.598219686819379e-34, -4.5430528539822363e-29, -1.9914083693615068e-28, -6.613729942101579e-32, -2.0328496888295474e-36, 6.60198126874201e-34, 0.004471999001119476, -8.0289166750588e-31, -1.8438695654297525e-23, -9.357445667805198e-27, -5.312400636598723e-32, -4.5430528539822363e-29, -8.02891667322209e-31, 0.22104100094219023]",,,,-0.40045940509,3.55057614392e-22,1.29925570551e-18,,3.32912625153e-18,1.4465289427e-18,-2.80253686966e-37,"[0.004305233489141629, -1.3774831660228399e-27, 6.495129353299006e-27, 2.629555833116815e-28, 1.958508395025337e-28, -2.1198027787761904e-38, -1.3774831630135744e-27, 0.0037250019999989247, 5.437634784867635e-34, 3.142929165641431e-38, 2.44593143701736e-38, -8.269850468366928e-44, 6.495129353299373e-27, 5.437634786212881e-34, 0.005961999239543077, 4.1123364694128056e-35, 1.617840325964857e-35, -5.873359687558453e-41, 2.629555833116815e-28, 3.142929165641431e-38, 4.112336469973325e-35, 0.001491996987843876, 6.39000373839029e-35, -4.57906528272105e-32, 1.9585083950244186e-28, 2.44593143701736e-38, 1.6178403262451166e-35, 6.413050434607144e-35, 0.001491996987843876, -1.156265703626488e-33, -2.1198027809657192e-38, -8.269850468366928e-44, -5.873359687558453e-41, -4.5790652830286166e-32, -1.156265703797755e-33, 0.0029800019999984824]"
11274000000,,89,,11,274000000,turtlebot2/odom,turtlebot2/base_footprint_self,,,,-0.420026185966,-3.38339479852e-14,1.11160297396e-18,,4.11002478022e-19,-5.91504730415e-19,7.52438136634e-14,1.0,"[0.1898029840505348, 3.627607943517824e-18, 2.4784199694953565e-27, 1.2635424265251382e-27, -7.748519853285874e-28, -8.232353996283418e-24, 3.6276079435178225e-18, 0.1895659147242261, -7.514017723945331e-28, 1.142234491081418e-31, -1.7844227998830277e-31, -6.820634281982667e-27, 2.478419969489479e-27, -7.514017723945331e-28, 0.0061819996645552065, 1.4446413724382055e-35, -1.4556840594788262e-35, 2.3175445613810854e-31, 1.2635424265258729e-27, 1.142234491081418e-31, 1.4446413724382055e-35, 0.003091999329361183, -2.2348351661039477e-35, 4.509220223146343e-30, -7.748519853289547e-28, -1.7844227998830277e-31, -1.4556840594788262e-35, -2.244239120910526e-35, 0.003091999329361183, -3.8408291423565355e-30, -8.232353996283418e-24, -6.820634281982667e-27, 2.3175445613846728e-31, 4.5092202187382395e-30, -3.8408291452952714e-30, 0.22722100096340836]",,,,-0.396603878924,-5.67214876773e-22,-1.18449774354e-18,,3.38057670458e-19,-2.76174938139e-18,-3.58606309656e-38,"[0.0030284014608261394, -7.300410675047355e-29, -6.13846346250823e-28, 2.1407602409479296e-29, -2.803500675283739e-28, -2.3599031242269496e-39, -7.300410675047355e-29, 0.002575001999999268, 1.7973644194137067e-33, -5.839263249533925e-41, -1.758230903314545e-39, 1.9232821422858114e-43, -6.13846346250823e-28, 1.7973644194024963e-33, 0.004121999493369713, -4.3813774104928966e-36, 3.6394358384646134e-35, -1.7817291021004998e-45, 2.1407602409525213e-29, -5.839263249533925e-41, -4.3813774104928966e-36, 0.0010319979839653708, -1.5622143998094055e-34, 4.3361548279754364e-33, -2.803500675276392e-28, -1.758230903314545e-39, 3.639435839585652e-35, -1.5607633341180164e-34, 0.0010319979839653708, -3.66736868593137e-33, -2.3599031242269496e-39, 1.9241579538260144e-43, -1.7844660131636342e-45, 4.336154827289939e-33, -3.667368685788988e-33, 0.002060001999999024]"
11374000000,,90,,11,374000000,turtlebot2/odom,turtlebot2/base_footprint_self,,,,-0.420026185966,-3.38339479852e-14,1.11160297396e-18,,4.11002478022e-19,-5.91504730415e-19,7.52438136634e-14,1.0,"[0.1898029840505348, 3.627607943517824e-18, 2.4784199694953565e-27, 1.2635424265251382e-27, -7.748519853285874e-28, -8.232353996283418e-24, 3.6276079435178225e-18, 0.1895659147242261, -7.514017723945331e-28, 1.142234491081418e-31, -1.7844227998830277e-31, -6.820634281982667e-27, 2.478419969489479e-27, -7.514017723945331e-28, 0.0061819996645552065, 1.4446413724382055e-35, -1.4556840594788262e-35, 2.3175445613810854e-31, 1.2635424265258729e-27, 1.142234491081418e-31, 1.4446413724382055e-35, 0.003091999329361183, -2.2348351661039477e-35, 4.509220223146343e-30, -7.748519853289547e-28, -1.7844227998830277e-31, -1.4556840594788262e-35, -2.244239120910526e-35, 0.003091999329361183, -3.8408291423565355e-30, -8.232353996283418e-24, -6.820634281982667e-27, 2.3175445613846728e-31, 4.5092202187382395e-30, -3.8408291452952714e-30, 0.22722100096340836]",,,,-0.396603878924,-5.67214876773e-22,-1.18449774354e-18,,3.38057670458e-19,-2.76174938139e-18,-3.58606309656e-38,"[0.0030284014608261394, -7.300410675047355e-29, -6.13846346250823e-28, 2.1407602409479296e-29, -2.803500675283739e-28, -2.3599031242269496e-39, -7.300410675047355e-29, 0.002575001999999268, 1.7973644194137067e-33, -5.839263249533925e-41, -1.758230903314545e-39, 1.9232821422858114e-43, -6.13846346250823e-28, 1.7973644194024963e-33, 0.004121999493369713, -4.3813774104928966e-36, 3.6394358384646134e-35, -1.7817291021004998e-45, 2.1407602409525213e-29, -5.839263249533925e-41, -4.3813774104928966e-36, 0.0010319979839653708, -1.5622143998094055e-34, 4.3361548279754364e-33, -2.803500675276392e-28, -1.758230903314545e-39, 3.639435839585652e-35, -1.5607633341180164e-34, 0.0010319979839653708, -3.66736868593137e-33, -2.3599031242269496e-39, 1.9241579538260144e-43, -1.7844660131636342e-45, 4.336154827289939e-33, -3.667368685788988e-33, 0.002060001999999024]"
11475000000,,91,,11,475000000,turtlebot2/odom,turtlebot2/base_footprint_self,,,,-0.458714573084,-1.33878176665e-14,2.05566665262e-18,,4.98153206321e-19,-6.11652957646e-19,8.04620690333e-14,1.0,"[0.19717897761911726, 6.794373399273079e-18, 9.98947628458745e-27, 1.6151147377872167e-27, -8.814935491961364e-28, -8.325363846686678e-24, 6.794373399273079e-18, 0.19692980190014497, 3.546598543639493e-27, 1.2672395887381401e-31, -2.554883814249135e-31, -3.291986761852624e-27, 9.989476284563941e-27, 3.546598543651248e-27, 0.00882199951482695, 1.7457660362204034e-35, -2.8219481766083093e-35, 1.9031403789043081e-31, 1.6151147377872167e-27, 1.2672395887385885e-31, 1.7457660407045585e-35, 0.004411999030181192, -8.029225183663278e-34, 2.4726574145274242e-29, -8.814935491965037e-28, -2.554883814249135e-31, -2.8219481743662317e-35, -8.034867556547225e-34, 0.004411999030181192, 1.7061335018716663e-29, -8.325363846686678e-24, -3.291986761852624e-27, 1.9031403789034113e-31, 2.4726574142335506e-29, 1.7061335015777927e-29, 0.23604100100662626]",,,,-0.198043807892,3.06989019238e-22,-2.42465601604e-18,,3.66823070419e-18,-2.91030605535e-18,-2.49224960725e-37,"[0.004295796678267646, -1.460235323176321e-27, -3.8285730755391826e-27, 2.0811955379191894e-28, -1.7603072890614182e-28, -1.1510129260423993e-39, -1.460235329194852e-27, 0.003675001999998932, -8.115192892384792e-33, 8.306105843144865e-38, -5.496912722363961e-38, -4.255896703174005e-45, -3.8285730755391826e-27, -8.11519289117407e-33, 0.00588199926196099, -1.120578693112307e-34, 5.510047135469551e-35, -8.217575467061061e-46, 2.0811955379201077e-28, 8.306104722106093e-38, -1.1205786928880992e-34, 0.001471997075866039, -8.240281313989816e-34, 2.476010982511732e-32, -1.7603072890604999e-28, -5.496913843402732e-38, 5.51004713659059e-35, -8.239922002734579e-34, 0.001471997075866039, 1.7204369975340017e-32, -1.1510129246739437e-39, -4.254528247642438e-45, -8.214154328232143e-46, 2.476010982614485e-32, 1.7204369975707526e-32, 0.002940001999998513]"
