rosbagTimestamp,header,seq,stamp,secs,nsecs,frame_id,child_frame_id,pose,pose,position,x,y,z,orientation,x,y,z,w,covariance,twist,twist,linear,x,y,z,angular,x,y,z,covariance
8656000000,,71,,8,656000000,turtlebot2/odom,turtlebot2/base_footprint_distributed,,,,2.87837151591e-05,-6.30593743801e-15,-7.56726501929e-19,,9.02482569954e-19,-9.68560659914e-19,7.48401584726e-14,1.0,"[0.059723958660310855, 2.40125986275705e-18, 1.8370243755445253e-27, 9.207080483948522e-32, -3.770592251435859e-32, -2.814053101483849e-27, 2.40125986275705e-18, 0.059633973212727405, -1.5336891640825333e-30, 1.5966729942957742e-31, -1.499538996573235e-31, -4.1380802720269764e-27, 1.83702437554526e-27, -1.5336891637151913e-30, 0.0006619993060905426, -1.5102883042768985e-35, 1.519729625547807e-35, -8.690692908215906e-32, 9.207080483948522e-32, 1.59667299429555e-31, -1.5102883042768985e-35, 0.0003319986132479147, -4.107526236658473e-35, 5.729282355057986e-29, -3.770592251435859e-32, -1.4995389965730108e-31, 1.5197296261083264e-35, -4.10737929986462e-35, 0.0003319986132479147, 3.203324463961307e-29, -2.814053101483849e-27, -4.1380802720269764e-27, -8.690692908215906e-32, 5.72928235509472e-29, 3.203324463924573e-29, 0.07154673413999266]",,,,9.67359218303e-05,1.21309815632e-21,1.37230233878e-19,,3.25347729113e-18,1.61638628926e-18,-2.11968869775e-21,"[0.002976587509650766, -1.2546309126243766e-28, -4.525747215530492e-28, -3.035478468755845e-31, -1.022432188605847e-31, 3.7858921851437907e-34, -1.2546309123892777e-28, 0.0002750019999988272, 3.7155036920227883e-34, 7.541020983957101e-38, 1.607800252000658e-38, -6.885420134306421e-41, -4.525747215532444e-28, 3.7155036346256032e-34, 0.00044199895945230567, 1.329818969825457e-35, -5.131344284564782e-38, 1.1077684750026976e-38, -3.0354784687560693e-31, 7.541021544476487e-38, 1.3298189696853272e-35, 0.00011199585227909868, 6.800276638737264e-35, 3.822736786644109e-34, -1.022432188605903e-31, 1.607800252000658e-38, -5.131344284564782e-38, 6.800166480142646e-35, 0.00011199585227909868, -8.151922686959279e-34, 3.7858921851437907e-34, -6.885420134306421e-41, 1.1077684750026976e-38, 3.822736671849739e-34, -8.151922686959279e-34, 0.00022000199999848424]"
8757000000,,72,,8,757000000,turtlebot2/odom,turtlebot2/base_footprint_distributed,,,,2.44950741457e-05,-1.76710919805e-14,-2.88012103336e-18,,-1.13426609613e-18,9.67716035609e-19,8.95543413123e-14,1.0,"[0.06067089045073602, 2.102635198418312e-18, 1.680712500369964e-27, -6.94631497334324e-33, -6.390490930373541e-33, -2.8805399886573946e-27, 2.102635198418312e-18, 0.06058410018227052, 6.136514006821543e-28, 1.9749808393129724e-31, -1.7770997238304162e-31, -6.0415908840073795e-27, 1.6807125003692293e-27, 6.136514006822232e-28, 0.0011419954773866279, -1.7405494665331306e-35, -5.403556754734136e-35, -6.774965730462002e-31, -6.94631497334324e-33, 1.9749808393129724e-31, -1.7405494665156144e-35, 0.0005719909999844387, -4.0606361802639046e-35, -9.167651032368939e-28, -6.390490930374242e-33, -1.7770997238304162e-31, -5.403556754734136e-35, -4.0606361802639046e-35, 0.0005719909999844387, -8.535054888847826e-28, -2.8805399886573946e-27, -6.0415908840073795e-27, -6.774965730461553e-31, -9.167651032368824e-28, -8.535054888847711e-28, 0.07268681356321278]",,,,-1.189993045e-05,-2.0543528275e-15,-3.46933226595e-18,,-1.16300760452e-17,9.01772105074e-18,1.12029875977e-15,"[0.0008178623896192487, -1.6607049602809874e-25, -5.442250787228786e-28, 1.199872543390526e-31, -7.756888064899634e-32, -8.810305755232045e-30, -1.6607049602809874e-25, 0.0007536900743524824, -5.418829786658277e-28, 1.1896449608568702e-31, -9.928788799353668e-32, -6.054602683864416e-30, -5.442250787228782e-28, -5.418829786658206e-28, 0.0007619932314551008, 2.187800957821062e-34, -3.164088070388192e-34, -3.048873370954884e-32, 1.199872543390414e-31, 1.1896449608568702e-31, 2.187800957821062e-34, 0.00019197352550038595, -1.2204014227317773e-33, 9.103140986299178e-28, -7.756888064899634e-32, -9.928788799353738e-32, -3.164088070402205e-34, -1.2203991095439426e-33, 0.0001919735255003859, 8.483735105825119e-28, -8.810305755232045e-30, -6.054602683864416e-30, -3.0488733709547437e-32, 9.103140986299218e-28, 8.483735105825133e-28, 0.0006000019999984868]"
8857000000,,73,,8,856000000,turtlebot2/odom,turtlebot2/base_footprint_distributed,,,,2.43032338647e-05,-1.83787319648e-14,3.1405910265e-18,,2.24587378096e-19,2.13687036244e-18,6.86558285549e-14,1.0,"[0.06788538398229635, 2.684923626754968e-18, 1.2639532692732212e-27, -1.3501280873413833e-32, -2.588503129661884e-31, 7.955812662037008e-29, 2.684923626754968e-18, 0.06779509918850854, 1.8503550408315283e-28, -5.203543958810835e-32, -4.616915789463065e-33, -6.876014809249585e-27, 1.2639532692732212e-27, 1.85035504083127e-28, 0.0007819950276242707, -2.1955385296219753e-35, 1.1361242676845344e-34, -5.522426786222463e-32, -1.3501280873414183e-32, -5.203543958810835e-32, -2.1955385296219753e-35, 0.00039199010988241707, -5.631281308405536e-35, -3.448935839161878e-28, -2.588503129661884e-31, -4.6169157894629776e-33, 1.1361242676985473e-34, -5.631428245199389e-35, 0.00039199010988241696, -2.332371503879923e-28, 7.955812662037008e-29, -6.876014809249585e-27, -5.522426786223024e-32, -3.4489358391618495e-28, -2.3323715038799516e-28, 0.08133469152348576]",,,,1.80229840176e-05,-3.00808709288e-16,3.80453681384e-18,,-2.63428626318e-18,-3.67202108183e-18,-5.46879033703e-16,"[0.000809877016661032, 1.6420216228028762e-25, -3.19162138963601e-28, -1.8774512942336534e-32, -1.9839920455092116e-32, -2.0887764434580733e-30, 1.642021622802878e-25, 0.0005768782058818405, -1.4759064995122373e-28, 5.8314364028789334e-33, -4.768801024978715e-33, 8.9534178168986e-31, -3.191621389635963e-28, -1.47590649951225e-28, 0.0005219925611464726, -1.6435477855021966e-34, -2.3823598827428684e-34, -1.5702193258098386e-32, -1.8774512942335133e-32, 5.8314364028788896e-33, -1.6435477854986934e-34, 0.0001319709657227654, 6.701263437202796e-35, 3.424248892840384e-28, -1.9839920455090715e-32, -4.768801024978715e-33, -2.382359882749875e-34, 6.701433206057556e-35, 0.0001319709657227654, 2.313752278319328e-28, -2.0887764434580733e-30, 8.9534178168986e-31, -1.5702193258098386e-32, 3.4242488928403994e-28, 2.3137522783193328e-28, 0.00046000199999900003]"
8956000000,,74,,8,956000000,turtlebot2/odom,turtlebot2/base_footprint_distributed,,,,1.98165063661e-05,5.83407834751e-15,-3.22549191757e-18,,-2.96431285678e-18,-1.04727841126e-18,1.16485139722e-13,1.0,"[0.07309269515943066, 3.250144233768974e-18, 8.926675274116376e-29, -5.3778239142197836e-31, -1.3938641126797968e-31, 3.754247732338051e-27, 3.250144233768974e-18, 0.07299869916501436, 1.7768732916433437e-29, -1.4174093653210167e-30, -5.048146682515687e-31, -2.5846503347566858e-27, 8.926675274116376e-29, 1.7768732916433437e-29, 0.001021995027623616, 2.002341429469572e-34, 1.0532727780206715e-34, -1.0622801356093647e-30, -5.3778239142196715e-31, -1.4174093653210615e-30, 2.002341429497598e-34, 0.0005119901098721985, 1.8132079569549221e-34, -4.642537021801228e-29, -1.3938641126797687e-31, -5.048146682515687e-31, 1.0532727780206715e-34, 1.8132667316724632e-34, 0.0005119901098721987, -2.3469198943713374e-29, 3.754247732338051e-27, -2.5846503347566858e-27, -1.0622801356093647e-30, -4.6425370218011565e-29, -2.3469198943713374e-29, 0.08757715432547764]",,,,-9.69908523567e-05,-1.85753019197e-15,9.46557946626e-19,,4.83002228576e-18,-1.38038174779e-18,1.49921854542e-15,"[0.000775256242688086, -1.927982290374555e-25, -2.947292813256002e-29, 5.1856443973546416e-33, 5.876542152750962e-34, 1.2514650125462076e-30, -1.927982290374555e-25, 0.0006783583468376836, -1.436014220348008e-29, -5.747354517932055e-32, 1.4014754120696203e-32, -9.925710039664531e-30, -2.947292813255975e-29, -1.4360142203480196e-29, 0.0006819925605501163, 1.0815143019225806e-34, -5.662559290157157e-36, 9.430977931853337e-33, 5.185644397354291e-33, -5.747354517932055e-32, 1.0815143019225806e-34, 0.00017197096417110528, -1.0788194505779917e-34, 4.429189549780182e-29, 5.876542152750524e-34, 1.4014754120696116e-32, -5.662559290179052e-36, -1.0787792198280711e-34, 0.00017197096417110528, 2.2420285383601793e-29, 1.2514650125462076e-30, -9.925710039664531e-30, 9.430977931853337e-33, 4.429189549780173e-29, 2.2420285383602045e-29, 0.0005400019999984846]"
9056000000,,75,,9,56000000,turtlebot2/odom,turtlebot2/base_footprint_distributed,,,,1.6101755573e-05,1.26164898672e-14,-9.89656131024e-19,,-8.66408511226e-19,4.97107448491e-19,1.14286103062e-13,1.0,"[0.07814887810770572, 3.7011619658317595e-18, 1.1323323488762318e-27, -2.5835117256210524e-31, 8.57029530231191e-32, 1.152670917587562e-26, 3.7011619658317595e-18, 0.07805243124095346, 4.120237638076379e-28, 1.1365933745371302e-31, -8.539760396965541e-32, -4.809789009767426e-27, 1.1323323488769664e-27, 4.120237638076149e-28, 0.0010219950276233992, 1.4413946834621563e-35, -6.901846809837106e-36, -5.72122991809716e-31, -2.5835117256210524e-31, 1.1365933745371863e-31, 1.4413946834621563e-35, 0.000511990109870487, -7.583062112702062e-36, -5.59635549693701e-28, 8.57029530231205e-32, -8.539760396965681e-32, -6.901846809837106e-36, -7.588939584456174e-36, 0.0005119901098704871, -4.924650064610713e-28, 1.152670917587562e-26, -4.809789009767426e-27, -5.721229918096712e-31, -5.596355496937067e-28, -4.924650064610828e-28, 0.09363974164793795]",,,,1.62133402834e-05,-1.98239935512e-15,-3.68581194704e-18,,8.02671300286e-18,-9.23737901291e-18,5.28221331221e-16,"[0.000764878800918095, 2.239167630968697e-25, -3.6204234689688274e-28, -1.6980615373160307e-31, 2.6092435437524734e-31, -7.657302712041803e-30, 2.239167630968701e-25, 0.0006784942847231571, -3.1359466601493316e-28, -1.1464503365239368e-31, 1.3458885483978044e-31, -5.466965705561491e-30, -3.6204234689688485e-28, -3.1359466601493567e-28, 0.0006819925605493895, -4.109753310008281e-34, 2.485157771063033e-34, -1.3767238352524785e-32, -1.6980615373160307e-31, -1.1464503365239368e-31, -4.109753310008281e-34, 0.00017197096412711733, -8.47289361175823e-34, 5.5496217223526865e-28, 2.6092435437526976e-31, 1.3458885483978044e-31, 2.4851577710560266e-34, -8.472940687006866e-34, 0.0001719709641271173, 4.901277445296889e-28, -7.657302712041814e-30, -5.466965705561491e-30, -1.3767238352524435e-32, 5.54962172235266e-28, 4.901277445296844e-28, 0.000540001999998535]"
9157000000,,76,,9,156000000,turtlebot2/odom,turtlebot2/base_footprint_distributed,,,,1.88767197863e-05,-2.64118779698e-14,4.35775072737e-18,,-2.16602076123e-18,-2.80589969562e-19,1.64881891957e-13,1.0,"[0.08470691268167514, 3.863649151759179e-18, -1.303403178819299e-27, 7.83644941431485e-31, -1.7041974863630783e-32, 3.9994707406648446e-27, 3.863649151759179e-18, 0.08461079678709252, -1.4786566890105853e-29, 9.587600778609308e-31, -9.067339096060715e-32, -1.2243659197977339e-26, -1.3034031788194826e-27, -1.4786566890105853e-29, 0.0005419973760926718, -2.265370542284779e-34, -1.6338681769236693e-35, 1.2545280391451392e-30, 7.83644941431485e-31, 9.587600778609308e-31, -2.265370542284779e-34, 0.0002719947674357698, -4.7782180842558124e-35, -2.32217522307318e-30, -1.7041974863630783e-32, -9.067339096061276e-32, -1.6338681768536043e-35, -4.7780711474619596e-35, 0.0002719947674357697, 3.8763808478694185e-31, 3.9994707406648446e-27, -1.2243659197977339e-26, 1.2545280391450495e-30, -2.322175222705838e-30, 3.8763808460327086e-31, 0.10150540770720833]",,,,2.11302155064e-05,2.1011290915e-21,1.93815427403e-18,,4.09378861973e-18,-5.32715466848e-18,1.3822435249e-21,"[0.0035955172286313963, 1.3014248278779977e-28, 3.3149616441365272e-28, -1.2868697904551396e-32, 5.5925368652484e-32, -2.1454157730636026e-35, 1.3014248278779977e-28, 0.00022500199999925773, -2.039953081388395e-34, 1.8234696705417433e-37, -1.5240066395736112e-37, 4.528996636697809e-41, 3.3149616441366205e-28, -2.0399530811641873e-34, 0.00036199606965477084, 1.493952023210089e-34, -1.711713877097374e-34, 5.901334185400732e-38, -1.2868697904551396e-32, 1.823469726593682e-37, 1.493952023210089e-34, 9.198448215384393e-05, -2.632562353214523e-34, -2.888897273452767e-34, 5.5925368652484e-32, -1.5240066956255498e-37, -1.711713877083361e-34, -2.632554509635544e-34, 9.198448215384393e-05, 4.043909277342984e-34, -2.1454157730636026e-35, 4.528996636697809e-41, 5.901334745920118e-38, -2.888897271659105e-34, 4.043909278688231e-34, 0.00018000199999900065]"
9256000000,,77,,9,256000000,turtlebot2/odom,turtlebot2/base_footprint_distributed,,,,2.09835990825e-05,-1.51594813257e-14,1.87188148501e-18,,-4.15994588556e-19,-6.47313065589e-19,1.55302660776e-13,1.0,"[0.08976772629498772, 2.2357171133734915e-17, -3.397170744928977e-27, 5.837408516042655e-32, 7.801701404203015e-32, 3.888316470726769e-27, 2.2357171133734915e-17, 0.08961378804958764, -7.279752973452775e-30, -6.296352544869295e-32, -7.512257578353854e-32, -1.1928826562228993e-26, -3.3971707449275076e-27, -7.27975297354461e-30, 0.0004819994568492497, -2.0753609302279947e-35, -2.566686105797551e-35, -5.826155197684193e-32, 5.837408516042655e-32, -6.296352544869295e-32, -2.0753609324700722e-35, 0.00024199891435040853, 2.3956850376246693e-35, -3.999869039930258e-30, 7.801701404205257e-32, -7.512257578356096e-32, -2.5666861080396286e-35, 2.3956850376246693e-35, 0.00024199891435040853, 3.1496927405134823e-29, 3.888316470726769e-27, -1.1928826562228993e-26, -5.826155197684193e-32, -3.999869039746587e-30, 3.1496927405134823e-29, 0.10750679549778326]",,,,2.13482665323e-05,-2.27108764709e-21,1.00424899035e-18,,-4.51437231666e-19,3.94977594767e-19,2.93650586631e-21,"[0.0063593657305693425, -9.873916096218547e-30, 2.9435735321196683e-28, -1.0102829768978045e-32, -5.563603661993744e-33, 1.1842941114694308e-34, -9.873916093279811e-30, 0.00020000199999889055, 1.0426718691683934e-34, 8.063048942949568e-39, -2.3463852960594216e-39, -4.699394529959707e-41, 2.9435735321201275e-28, 1.0426719265655785e-34, 0.00032199918548385083, -6.668592550992362e-36, 6.217721953485939e-36, 2.568763935465909e-38, -1.0102829768978045e-32, 8.063047541651104e-39, -6.668592550992362e-36, 8.199675072021438e-05, 2.8011009549578134e-37, -1.5281393126829418e-34, -5.563603661993744e-33, -2.3463849457348055e-39, 6.21772195208464e-36, 2.813343061803944e-37, 8.199675072021438e-05, -2.6247541613029484e-34, 1.184294111245223e-34, -4.698273491188247e-41, 2.5687650565046806e-38, -1.52813931985759e-34, -2.6247541039057633e-34, 0.00016000199999853222]"
9357000000,,78,,9,357000000,turtlebot2/odom,turtlebot2/base_footprint_distributed,,,,2.32613290925e-05,-2.80221099029e-14,-1.02699312409e-18,,7.41334957714e-19,-5.44275967947e-19,1.2671738744e-13,1.0,"[0.0947459884450995, 1.3966764039150425e-17, -1.306002838281816e-27, -1.2813523185607622e-31, 1.2021582268800786e-31, 5.3374695121605075e-27, 1.3966764039150425e-17, 0.09461765796714071, 1.4285602070858822e-29, 7.222354321744251e-32, -5.238891009121879e-32, -1.2175714085357807e-26, -1.3060028382810814e-27, 1.428560207030781e-29, 0.0004819993248307529, -2.1056493743578574e-35, 1.653535818947865e-35, 2.554918667660224e-31, -1.2813523185607622e-31, 7.222354321744251e-32, -2.1056493743578574e-35, 0.0002419986506713677, -1.7677414655451728e-35, -5.0109364456024615e-29, 1.2021582268800786e-31, -5.238891009123e-32, 1.6535358200689037e-35, -1.7676679971482464e-35, 0.0002419986506713677, -2.0743211012319337e-29, 5.3374695121605075e-27, -1.2175714085357807e-26, 2.554918667662018e-31, -5.0109364455840944e-29, -2.0743211012411172e-29, 0.11350926578942235]",,,,2.33882361474e-05,-6.61515745032e-22,1.6568219746e-18,,3.29836082288e-18,2.27864649723e-18,2.13740157936e-21,"[0.0031168944549496745, 3.838106169936941e-29, 1.7062847496258616e-28, -1.4357412911108524e-31, -7.757716863976658e-32, -1.069272888987188e-34, 3.838106169936941e-29, 0.00020000199999883807, 7.195999603213871e-35, -7.12523442985527e-38, -4.5198114055238525e-38, -5.585015159412991e-41, 1.706284749625632e-28, 7.195999603213871e-35, 0.0003219989875819598, 7.698064919880406e-35, 7.373743174772241e-35, 4.062906830843031e-38, -1.4357412911108524e-31, -7.125235550894042e-38, 7.698064919880406e-35, 8.199596395127879e-05, 1.6609755878220876e-34, -7.890277389097912e-35, -7.757716863977219e-32, -4.5198108450044667e-38, 7.373743173651202e-35, 1.6609783056684852e-34, 8.199596395127879e-05, -1.0025505480181498e-34, -1.0692728887629802e-34, -5.586136198184451e-41, 4.062906830843031e-38, -7.890278537041614e-35, -1.0025505480181498e-34, 0.00016000199999848192]"
9456000000,,79,,9,456000000,turtlebot2/odom,turtlebot2/base_footprint_distributed,,,,2.33649043428e-05,-5.05572669833e-14,-2.52406586099e-18,,-6.58554565844e-19,7.24621605949e-19,1.23678219402e-13,1.0,"[0.09980169775662068, 1.4886423606306968e-17, -6.936972462679642e-27, -1.09686046497122e-31, 7.544114104698624e-32, 3.1601381940890916e-27, 1.4886423606306968e-17, 0.09966860093235179, -1.6614663595472406e-28, -5.436875457275698e-32, 7.965408932086009e-32, -1.6849175833824248e-26, -6.936972462676703e-27, -1.661466359545404e-28, 0.0020419992543488094, 3.336886687531103e-35, -4.678097423258927e-35, 4.058017019140811e-31, -1.09686046497122e-31, -5.436875457274577e-32, 3.336886687531103e-35, 0.0010219985099258508, -1.6513583407036312e-35, -1.081846934741501e-29, 7.544114104699745e-32, 7.96540893208713e-32, -4.678097418774772e-35, -1.6513583407036312e-35, 0.0010219985099258508, -3.914154448559655e-30, 3.1601381940890916e-27, -1.6849175833824248e-26, 4.058017019140811e-31, -1.0818469346680326e-29, -3.914154449294339e-30, 0.11956990743457302]",,,,7.89566472436e-06,1.00092198652e-21,-1.84962951044e-18,,1.53356908784e-18,3.2967272668e-18,1.77776665439e-21,"[0.003047592121062209, 1.3837756095348997e-29, 4.060420271858826e-27, 8.361075857715884e-33, 1.1759157656942637e-32, 1.5703369039964824e-35, 1.3837756089471525e-29, 0.0008500019999985267, -2.096757015056202e-33, 1.2241053945497154e-38, 4.1644740645760655e-38, 1.9564929158903096e-41, 4.060420271859014e-27, -2.0967570179260613e-33, 0.0013619988811232634, -2.2244383776026703e-35, -6.572705787749092e-35, -4.643024216375619e-38, 8.361075857715884e-33, 1.2241053945497154e-38, -2.22443837788293e-35, 0.00034199554260113773, 8.390705670642975e-35, -5.585362537221716e-33, 1.1759157656942637e-32, 4.1644740645760655e-38, -6.572705787749092e-35, 8.391053538082199e-35, 0.00034199554260113773, 4.2531421648748074e-33, 1.5703369041366123e-35, 1.9564929158903096e-41, -4.643024216375619e-38, -5.585362535786786e-33, 4.253142163439878e-33, 0.0006800019999980136]"
9557000000,,80,,9,557000000,turtlebot2/odom,turtlebot2/base_footprint_distributed,,,,3.74021934073e-05,-1.54605912918e-15,-4.43026170047e-19,,-9.85615643898e-19,-9.89151263939e-19,1.31753588117e-13,1.0,"[0.10320448625184495, 1.4123275101729072e-17, 2.0337465517065453e-27, -1.6203355721882282e-31, -1.551215939728858e-31, 3.8600214643405e-27, 1.4123275101729072e-17, 0.10307452020055755, 1.588463258350818e-27, -1.7206996876607e-31, -1.915240654257339e-31, -1.2709062273401104e-26, 2.0337465517065453e-27, 1.5884632583511853e-27, 0.0017419987197722355, 9.51638092772044e-36, 6.488125558951434e-36, 5.639961836207484e-32, -1.6203355721883403e-31, -1.7206996876607e-31, 9.516380931924335e-36, 0.0008719974431780691, 4.393345851350989e-35, -1.1452503612133104e-26, -1.551215939728746e-31, -1.9152406542571147e-31, 6.488125557550135e-36, 4.393345851350989e-35, 0.0008719974431780693, -2.1702292487876154e-27, 3.8600214643405e-27, -1.2709062273401104e-26, 5.639961836206363e-32, -1.1452503612133104e-26, -2.1702292487876154e-27, 0.1236537077550129]",,,,0.000162471981738,1.7799150459e-16,-3.16582479128e-18,,3.99478154863e-18,-4.96270754131e-18,-1.00088696041e-15,"[0.0010763773033764202, 2.577450538273519e-24, -6.37327900801267e-28, 1.0698963913164248e-32, -1.0542792291824012e-32, 4.18866339197629e-31, 2.577450538273519e-24, 0.0026127139179923783, -8.57514461641187e-28, 1.183976797031135e-31, -1.3961524705164437e-31, 6.336589267654017e-30, -6.373279008012196e-28, -8.575144616411245e-28, 0.0011619980799473704, -1.5473157311139356e-34, 1.6879445794811479e-34, 7.63010238554984e-34, 1.0698963913158642e-32, 1.183976797031135e-31, -1.5473157310578837e-34, 0.0002919923705815445, -2.834085389713315e-34, 7.006595271379172e-27, -1.0542792291829617e-32, -1.3961524705163877e-31, 1.687944579425096e-34, -2.834054728097799e-34, 0.00029199237058154454, 1.318223024584448e-27, 4.188663391976283e-31, 6.336589267654017e-30, 7.630102385551592e-34, 7.006595271379336e-27, 1.3182230245843834e-27, 0.002040001999998006]"
9660000000,,81,,9,656000000,turtlebot2/odom,turtlebot2/base_footprint_distributed,,,,5.02227599763e-05,4.47929594282e-15,4.5258826418e-19,,-7.15017459797e-19,-2.56525298096e-20,1.34345166916e-13,1.0,"[0.10711560319783985, 1.5191324146387344e-17, 1.5504130321323424e-28, -5.816144566917706e-32, 1.5218811492350362e-32, 4.4287876956566495e-27, 1.5191324146387344e-17, 0.10698195516126512, -3.966139881745824e-30, -6.16440715635179e-32, -3.356952833136637e-33, -1.3815711981514416e-26, 1.5504130321328016e-28, -3.966139880276456e-30, 0.0004219992963249656, -9.571780027963575e-36, -5.621577425561107e-37, -1.6474234853116337e-31, -5.816144566917706e-32, -6.164407156350669e-32, -9.571780027963575e-36, 0.00021199859374780366, 8.880414992277867e-36, -2.6167346851277136e-29, 1.5218811492353164e-32, -3.3569528331373374e-33, -5.621577429064353e-37, 8.879680308308603e-36, 0.00021199859374780366, 2.6578568654503166e-29, 4.4287876956566495e-27, -1.3815711981514416e-26, -1.6474234853116337e-31, -2.6167346851277136e-29, 2.657856865523785e-29, 0.12834057077433766]",,,,0.000166031829687,-1.95984528982e-21,-1.49937275132e-18,,-7.5216054793e-19,4.68278784366e-19,2.24279350752e-21,"[0.003128499516136421, 1.7494217849563506e-27, -3.3350698401065304e-29, -1.3661330887018907e-31, 9.165141869607436e-32, 3.665969774202285e-34, 1.7494217842040342e-27, 0.00017500199999934303, 6.699136565617707e-35, 2.2022335829044812e-38, -8.88376563143072e-39, -1.946123307254306e-41, -3.3350698401068173e-29, 6.699137139589558e-35, 0.00028199894486496914, -3.1897082027178846e-37, -1.684754601383255e-35, -1.989335988777769e-38, -1.3661330887019468e-31, 2.202233863164174e-38, -3.1897082027178846e-37, 7.199579426438304e-05, -9.723414999844091e-36, 8.305345133139483e-35, 9.165141869606875e-32, -8.883764230132256e-39, -1.684754601523385e-35, -9.723820914495739e-36, 7.199579426438304e-05, -1.7650891416217598e-34, 3.665969774202285e-34, -1.9483653847972257e-41, -1.9893348677389975e-38, 8.305345133139483e-35, -1.7650890842245747e-34, 0.00014000199999912588]"
9757000000,,82,,9,757000000,turtlebot2/odom,turtlebot2/base_footprint_distributed,,,,3.458384442e-05,-5.14207302664e-15,-3.10217363531e-18,,-7.50993319295e-19,-1.47559169363e-18,1.23356870907e-13,1.0,"[0.11242360125914408, 1.691871218353493e-17, 5.5784023926467135e-27, -1.4739975564513135e-31, -5.256582035034816e-31, 3.1153315691054182e-27, 1.691871218353493e-17, 0.11228379910506418, -9.50457726957814e-30, -5.213335544500284e-32, 5.653998622927816e-32, -8.309693304182428e-27, 5.578402392647448e-27, -9.50457726957814e-30, 0.0007219979214773404, 5.924557124046483e-35, 8.827423678445993e-35, 2.864974838413011e-31, -1.4739975564512014e-31, -5.213335544500565e-32, 5.924557124046483e-35, 0.0003619958525283212, 6.726872033401122e-35, -9.478472967714435e-31, -5.256582035034816e-31, 5.653998622927816e-32, 8.827423680127551e-35, 6.726872033401122e-35, 0.0003619958525283212, 2.9332446395467557e-30, 3.1153315691054182e-27, -8.309693304182428e-27, 2.864974838413011e-31, -9.478472971387855e-31, 2.933244639500838e-30, 0.13470153182178168]",,,,-7.04888915697e-05,1.33455019837e-21,9.84940260856e-19,,5.49413467633e-18,-5.66992360513e-18,-1.84180512641e-21,"[0.003173661173256855, 3.086165317769748e-28, -1.413348607789515e-27, 1.0530266038247813e-30, -8.62646402572841e-31, -2.158519112319694e-34, 3.0861653182399456e-28, 0.0003000019999988492, -1.0313794357650203e-34, 3.546629660618307e-38, -1.572122492449716e-38, -2.244880139848357e-41, -1.4133486077897148e-27, -1.0313794357650203e-34, 0.0004819968855121474, -1.9045562598502767e-35, -6.848854002676491e-35, 9.751725696338119e-39, 1.0530266038247813e-30, 3.546629660618307e-38, -1.9045562598152442e-35, 0.00012198767044917553, -3.3301435030164703e-34, 1.4989323941606443e-33, -8.626464025728186e-31, -1.5721225625146392e-38, -6.848854002606426e-35, -3.3301061326425173e-34, 0.00012198767044917553, 1.8815196042311923e-34, -2.158519112319694e-34, -2.244880139848357e-41, 9.751724995688887e-39, 1.4989323941606443e-33, 1.8815196042311923e-34, 0.0002400019999984882]"
9856000000,,83,,9,856000000,turtlebot2/odom,turtlebot2/base_footprint_distributed,,,,3.63814077886e-05,9.40462389121e-15,4.56780415978e-18,,-2.1658472459e-18,5.78389385439e-18,1.21807648315e-13,1.0,"[0.11834818681385549, 2.2098133011174836e-17, -3.4875378709844525e-27, -7.460975316485522e-31, 1.1261926327111392e-30, 3.5421429018531204e-27, 2.2098133011174836e-17, 0.1181872095300076, 8.83704242823102e-28, -1.692116947752215e-31, 5.017703989088015e-31, -9.144126288128041e-27, -3.487537870981514e-27, 8.837042428230532e-28, 0.0012019950276255069, -2.528469695682648e-34, 4.967145135571461e-34, -4.171541873747769e-31, -7.460975316485522e-31, -1.6921169477521589e-31, -2.528469695710674e-34, 0.0006019901098822504, -6.273338303027555e-34, 6.711297315562552e-28, 1.1261926327111168e-30, 5.017703989088015e-31, 4.967145135515409e-34, -6.273279528310014e-34, 0.0006019901098822504, -9.137958589868047e-28, 3.5421429018531204e-27, -9.144126288128041e-27, -4.1715418737482175e-31, 6.711297315562724e-28, -9.137958589868277e-28, 0.1417832473807534]",,,,2.404135725e-05,-1.52747822423e-15,1.85451796927e-18,,3.31712565121e-18,-3.11426392684e-18,-9.27356172618e-16,"[0.0010286885905544394, 8.37434882057159e-25, 6.7426352212885995e-28, 1.6794118559600393e-32, -1.1743797891614562e-32, -2.9361287165814432e-30, 8.37434882057159e-25, 0.0007557955861220642, -5.8306201861442925e-28, -2.0925227200334565e-32, 4.709125388167064e-33, 2.1898632549137297e-30, 6.742635221288492e-28, -5.830620186144186e-28, 0.0008019925600067832, -6.624856935377771e-35, -4.5902362787001637e-35, -8.125713870645077e-33, 1.6794118559600393e-32, -2.092522720033474e-32, -6.624856935377771e-35, 0.00020197096323723573, -9.850924365828747e-35, -6.6624935736179845e-28, -1.1743797891613161e-32, 4.709125388167064e-33, -4.5902362786914055e-35, -9.852790353115754e-35, 0.00020197096323723568, 9.069565854117925e-28, -2.9361287165814432e-30, 2.1898632549137297e-30, -8.125713870644726e-33, -6.662493573617879e-28, 9.069565854117923e-28, 0.000600001999998487]"
9956000000,,84,,9,956000000,turtlebot2/odom,turtlebot2/base_footprint_distributed,,,,3.91239767403e-05,-2.23021005734e-14,5.69290199459e-19,,-8.32592910087e-19,5.15410098862e-19,1.17411970924e-13,1.0,"[0.12482859388540424, 2.669304040839856e-17, 2.212316568631983e-27, -5.057131402523976e-32, 2.9163317318852506e-32, 2.9662229737736773e-27, 2.669304040839856e-17, 0.12464944140760666, -4.295641801032905e-30, -1.0501790499191192e-32, -8.136958966846824e-32, -4.663051956688156e-27, 2.2123165686334524e-27, -4.295641801032905e-30, 0.0006019995800278502, -1.2302180131544507e-35, 1.0880591986495038e-35, 9.709504356834987e-32, -5.057131402523976e-32, -1.050179049918839e-32, -1.2302180198806834e-35, 0.000301999160446625, -1.8993600986388058e-35, 1.5320659784323397e-28, 2.9163317318852506e-32, -8.136958966846824e-32, 1.0880591986495038e-35, -1.8993600986388058e-35, 0.000301999160446625, 5.737184185931064e-29, 2.9662229737736773e-27, -4.663051956688156e-27, 9.709504356839471e-32, 1.5320659784323397e-28, 5.737184185857596e-29, 0.14953078824419394]",,,,1.79780634182e-05,-3.38202796987e-21,1.58866215373e-18,,5.72861332731e-18,-4.70833853972e-18,1.788230703e-21,"[0.004544913916231142, -8.320444442711388e-29, -3.208566757094996e-28, 7.684212885834013e-32, -2.1173100370777577e-32, 2.43437532374824e-35, -8.3204444403604e-29, 0.000250001999999255, 1.7767630403046233e-34, -8.254970780623495e-38, 7.923228503218009e-38, -2.237593387833868e-41, -3.2085667570936183e-28, 1.7767631550989935e-34, 0.0004019993701464813, 8.476310038843675e-35, -9.028647664350987e-35, 1.9809214717591913e-38, 7.684212885834013e-32, -8.254970780623495e-38, 8.47631003435952e-35, 0.0001019974859187043, -3.1886019687667324e-34, 3.936395381342864e-35, -2.117310037078038e-32, 7.923228503218009e-38, -9.028647666593065e-35, -3.1885726062950226e-34, 0.0001019974859187043, -4.301000668189321e-34, 2.434375324869279e-35, -2.237593387833868e-41, 1.9809225927979627e-38, 3.936395381342864e-35, -4.301000668189321e-34, 0.00020000199999898856]"
10057000000,,85,,10,57000000,turtlebot2/odom,turtlebot2/base_footprint_distributed,,,,3.86777225878e-05,2.1024812918e-15,1.35546334719e-18,,1.62208200399e-18,2.11023244081e-19,1.28529121014e-13,1.0,"[0.1257202608350265, 2.4673053172173797e-17, -1.5521961370517298e-27, -2.8153249980076013e-31, -1.0543060267423626e-32, 4.3031345132614556e-27, 2.4673053172173797e-17, 0.12554962671925934, -7.32755466279521e-28, 5.041629462308755e-31, -1.5528557808409097e-32, -2.710039096851767e-27, -1.5521961370531991e-27, -7.327554662794794e-28, 0.001081995027625959, 1.2910798464885865e-36, -4.203351356580861e-36, 1.4253678516333572e-31, -2.815324998007489e-31, 5.041629462308755e-31, 1.2910798464885865e-36, 0.0005419901098886485, 3.714027924298122e-35, 4.389717724036633e-28, -1.054306026742345e-32, -1.5528557808409097e-32, -4.203351356580861e-36, 3.7143217978858275e-35, 0.0005419901098886485, 7.056327049623081e-28, 4.3031345132614556e-27, -2.710039096851767e-27, 1.4253678516334132e-31, 4.3897177240366905e-28, 7.056327049623253e-28, 0.15061085304738375]",,,,5.54573475746e-06,1.20401558451e-15,1.10708249136e-18,,-2.43611797085e-18,-7.04174993377e-18,-9.31399954319e-16,"[0.0009466940802893703, -2.0022289454674103e-24, 4.129255489809872e-28, -1.3751836126482421e-33, -5.582096421077459e-33, -1.0459187681658674e-30, -2.0022289454674074e-24, 0.0007047918483743521, 4.496297703563572e-28, -1.1724888512935374e-32, -8.173565312595714e-32, -6.147607747298828e-30, 4.129255489809929e-28, 4.496297703563433e-28, 0.0007219925603844658, -3.278487855209661e-35, -1.1907907057868618e-34, -7.091554684468284e-33, -1.3751836126482421e-33, -1.1724888512935461e-32, -3.278487855192145e-35, 0.00018197096421751957, 3.1707513459244583e-34, -4.3379317722288265e-28, -5.582096421077459e-33, -8.173565312595644e-32, -1.1907907057833585e-34, 3.170671165920956e-34, 0.00018197096421751957, -7.007361599350528e-28, -1.0459187681658674e-30, -6.147607747298828e-30, -7.091554684468635e-33, -4.3379317722287835e-28, -7.007361599350546e-28, 0.0005600019999990022]"
10157000000,,86,,10,156000000,turtlebot2/odom,turtlebot2/base_footprint_distributed,,,,4.32867304862e-05,3.75582536563e-14,1.55882723401e-18,,-1.96400912637e-18,1.72160280269e-18,1.15626108064e-13,1.0,"[0.13217918256702402, 2.442508284615941e-17, 1.323310377060503e-27, -4.1016695500979e-31, 3.992660717197321e-31, 4.155412563961718e-27, 2.442508284615941e-17, 0.1320088647511053, -5.288772857147895e-30, -2.8107981201307623e-31, 7.110267427883034e-32, -6.712819987798926e-27, 1.3233103770603193e-27, -5.288772857147895e-30, 0.0004219976253291536, -5.500563233222466e-35, 5.256579781590612e-35, -4.104828816124115e-31, -4.1016695500979e-31, -2.8107981201306502e-31, -5.500563233502726e-35, 0.00021199526315228727, -1.477225842756618e-34, -1.6999863627503318e-30, 3.99266071719777e-31, 7.110267427883314e-32, 5.256579781030093e-35, -1.477225842756618e-34, 0.00021199526315228727, 2.194280733600966e-31, 4.155412563961718e-27, -6.712819987798926e-27, -4.104828816125012e-31, -1.6999863625666608e-30, 2.1942807331417887e-31, 0.15835659946488007]",,,,3.00687705118e-05,2.31356724359e-22,-1.0064341873e-18,,3.28884381091e-18,5.54069540314e-18,9.2816530816e-22,"[0.00355716413193893, 8.199057667446606e-29, -2.756272836338861e-28, -2.4319077895535813e-32, -6.672065715948756e-32, -1.944488369736505e-35, 8.199057667446606e-29, 0.0001750019999992563, -4.391791580420066e-35, 7.930911822697902e-38, 9.968430898652094e-38, 2.1109160066589044e-41, -2.7562728363388325e-28, -4.391791589388376e-35, 0.0002819964425694423, -4.1055912198676845e-35, -1.2163000557168468e-34, -1.277064247022404e-38, -2.4319077895535813e-32, 7.930911822697902e-38, -4.1055912198676845e-35, 7.198593711003396e-05, 2.863547024939558e-34, 2.5651037815439954e-34, -6.672065715948756e-32, 9.968430898652094e-38, -1.2163000557028338e-34, 2.863552854348176e-34, 7.198593711003396e-05, 8.500294394309753e-35, -1.9444883702970243e-35, 2.1109160066589044e-41, -1.2770643871522504e-38, 2.5651037779566713e-34, 8.500294403278063e-35, 0.00014000199999899317]"
10256000000,,87,,10,256000000,turtlebot2/odom,turtlebot2/base_footprint_distributed,,,,-0.195479723478,1.48977085575e-14,-1.92342844065e-18,,-1.15581201785e-18,-1.50939518766e-19,1.21894239836e-13,1.0,"[0.13929918940007968, 2.775801485770361e-17, 2.833918553328548e-26, 1.0035556026699883e-27, 2.4698409313879254e-28, 3.73204730963444e-24, 2.775801485770361e-17, 0.1391117897609572, -3.072144773266384e-27, -4.423561430700974e-31, -6.866488432744255e-32, -6.174642944066186e-27, 2.833918553328548e-26, -3.072144773266384e-27, 0.002401998389983345, 4.0438411619061917e-35, 1.8755309288501203e-35, 5.572148064168169e-34, 1.0035556026698965e-27, -4.423561430700974e-31, 4.0438411613456723e-35, 0.0012019967857171468, -7.348291841422295e-36, -6.001900727092206e-27, 2.46984093138804e-28, -6.866488432744815e-32, 1.8755309288501203e-35, -7.301272067389404e-36, 0.0012019967857171466, 3.9877664172083855e-27, 3.73204730963444e-24, -6.174642944066186e-27, 5.572148064168169e-34, -6.001900727092023e-27, 3.9877664172083855e-27, 0.1668782339012278]",,,,-1.18082852736,-2.77111980876e-15,-2.91096388225e-18,,1.21419546473e-18,4.56772958817e-18,-7.62220223033e-16,"[0.004091951712795004, -2.5268894828807896e-21, -6.845950924179834e-27, 3.084645492319642e-27, -1.3496053836113902e-26, 1.5881317932892867e-24, -2.5268894828807896e-21, 0.001798855031316892, 2.5384774179874253e-27, 1.1206352053178703e-33, -3.4614031587941697e-32, -4.0957500956521305e-33, -6.845950924178364e-27, 2.538477417987084e-27, 0.0016019975845630856, -9.530902428512433e-36, -1.768243115990053e-34, 8.778325615364074e-35, 3.084645492319642e-27, 1.1206352053178703e-33, -9.530902428337271e-36, 0.0004019904203150152, 6.342162883891836e-35, 5.9876572081231544e-27, -1.349605383611427e-26, -3.46140315879424e-32, -1.7682431160180789e-34, 6.339258395994476e-35, 0.0004019904203150152, -3.978325624592758e-27, 1.5881317932892867e-24, -4.0957500956521305e-33, 8.778325615372832e-35, 5.9876572081229205e-27, -3.978325624592667e-27, 0.0014200019999980715]"
10356000000,,88,,10,356000000,turtlebot2/odom,turtlebot2/base_footprint_distributed,,,,-0.165666566157,2.76295493878e-14,1.89166021094e-18,,-8.69648491696e-19,-1.61336232094e-18,9.5687263709e-14,1.0,"[0.14449716394621578, 2.929966087894175e-17, -1.3805148906166967e-26, 8.634930119740923e-28, 1.3700644122898216e-27, 2.1783153983793784e-23, 2.929966087894175e-17, 0.14431271507274232, -6.660709622721888e-27, -1.192134995600806e-31, -2.024142875854289e-31, -5.655326979098563e-27, -1.3805148906166967e-26, -6.660709622722622e-27, 0.0025819982791597178, -4.891338628100518e-35, -7.032772678279549e-35, -3.1577192745173323e-31, 8.634930119740463e-28, -1.192134995600806e-31, -4.891338628380778e-35, 0.0012919965648834362, 3.323567931930973e-35, 8.152892604529462e-27, 1.3700644122898216e-27, -2.024142875854289e-31, -7.032772678279549e-35, 3.3212169432293285e-35, 0.0012919965648834362, 8.71085309428278e-27, 2.1783153983793784e-23, -5.655326979098563e-27, -3.1577192745177807e-31, 8.152892604529462e-27, 8.71085309428278e-27, 0.17311995264368332]",,,,-0.201871389847,-1.58808020196e-15,3.1241902676e-18,,8.08649695621e-18,-3.2472340102e-18,-7.28926763204e-16,"[0.0023485988788413395, -4.677967820894395e-22, 9.024864508688e-27, 6.131459550091238e-28, -3.821656605446319e-28, -1.2941508224776314e-26, -4.677967820894395e-22, 0.0018278289259438395, 5.566934772256817e-27, 8.998209121556194e-32, -2.826525451840343e-32, -3.0841891019507203e-30, 9.024864508687059e-27, 5.566934772256483e-27, 0.0017219974180294143, 3.907630513822102e-34, -9.004535047616079e-35, -2.4260934080776747e-32, 6.131459550091238e-28, 8.998209121556474e-32, 3.90763051376605e-34, 0.0004319897661229381, -2.5581253380468358e-34, -8.132131070050608e-27, -3.821656605446434e-28, -2.826525451840413e-32, -9.00453504733582e-35, -2.5576919215885985e-34, 0.0004319897661229381, -8.688440400660465e-27, -1.2941508224776314e-26, -3.0841891019507203e-30, -2.4260934080773945e-32, -8.132131070050422e-27, -8.688440400660485e-27, 0.0014400019999985625]"
10456000000,,89,,10,456000000,turtlebot2/odom,turtlebot2/base_footprint_distributed,,,,-0.18187266356,2.46110848871e-14,2.56535490817e-19,,-1.21124416136e-18,1.65224593685e-18,9.12850768465e-14,1.0,"[0.14845029066082566, 3.521439845238859e-17, 3.0918617735692057e-28, -3.765953128853348e-28, 4.281238820947836e-28, 2.6942528929235795e-23, 3.521439845238859e-17, 0.1482607560391724, 1.2500967892633916e-27, 1.543718783011489e-31, -3.405971986370198e-32, -4.891496131468854e-27, 3.0918617735655322e-28, 1.250096789263759e-27, 0.0013819991080277262, -3.234154591098695e-36, 1.9419770837009292e-35, -1.0197123768723698e-32, -3.7659531288538073e-28, 1.5437187830112648e-31, -3.234154593901292e-36, 0.0006919982178201856, -8.761877751640089e-35, -5.2380935477474005e-28, 4.281238820947377e-28, -3.405971986370198e-32, 1.9419770837009292e-35, -8.760702257289266e-35, 0.0006919982178201858, -1.8317077605453183e-27, 2.6942528929235795e-23, -4.891496131468854e-27, -1.0197123768720895e-32, -5.2380935477474005e-28, -1.8317077605451347e-27, 0.1778601131885435]",,,,-0.212107974722,-6.41130152136e-15,6.29372793098e-19,,-5.33217752286e-18,-2.19304591539e-18,2.30325205862e-15,"[0.0013389518407050875, -1.0483915198682962e-22, -7.110542826411669e-29, -4.36550235098251e-28, -1.8920147054431635e-28, 9.03546366210405e-26, -1.0483915198682962e-22, 0.001982864858378998, -1.1503487335678347e-27, 2.54131022696583e-31, 1.3275147799207566e-31, -3.854659273731387e-29, -7.110542826416261e-29, -1.1503487335676659e-27, 0.0009219986622324835, -1.3476604745832763e-35, -1.9560177232496306e-35, 2.3913241297711772e-32, -4.365502350982969e-28, 2.541310226965718e-31, -1.3476604746533412e-35, 0.00023199467355424397, 1.1761487514457905e-34, 5.229669365162009e-28, -1.8920147054431635e-28, 1.3275147799208687e-31, -1.9560177232496306e-35, 1.1760949667240549e-34, 0.00023199467355424375, 1.8297089148774363e-27, 9.03546366210405e-26, -3.854659273731387e-29, 2.3913241297717377e-32, 5.2296693651621075e-28, 1.829708914877368e-27, 0.0015800019999979292]"
10557000000,,90,,10,557000000,turtlebot2/odom,turtlebot2/base_footprint_distributed,,,,-0.144310111145,1.7949614593e-14,1.49993927824e-18,,6.25136837814e-19,-1.37986096115e-18,1.13711877747e-13,1.0,"[0.15475958915919627, 3.7082216638460247e-17, 2.882048822268564e-27, 5.220283139840353e-28, -8.546562476798913e-28, 3.465361712414769e-23, 3.7082216638460247e-17, 0.15456861158232368, 1.2242345281052717e-28, -1.7851099512166974e-31, 5.242258961512768e-31, -4.316536399835846e-27, 2.8820488222663598e-27, 1.224234528134659e-28, 0.0017419982791591385, 3.023380547365856e-35, -4.6589852452260566e-35, -4.6103037251822093e-32, 5.220283139840353e-28, -1.7851099512166974e-31, 3.0233805476461157e-35, 0.0008719965648846126, -5.210702428882578e-35, 1.1599561798384573e-29, -8.546562476798913e-28, 5.242258961513217e-31, -4.658985244945797e-35, -5.209526934531755e-35, 0.0008719965648846123, -4.606807294144105e-31, 3.465361712414769e-23, -4.316536399835846e-27, -4.610303725181649e-32, 1.1599561798384573e-29, -4.606807294144105e-31, 0.18542756246728007]",,,,0.105450075057,-2.51706329443e-21,1.68678614511e-18,,2.41367162544e-18,6.59933681145e-18,1.96929577484e-21,"[0.0013034303966695821, -1.4930057524315955e-27, 9.005396706478419e-28, 1.1377090948660558e-27, 6.50971074055732e-27, 1.7327950235428962e-30, -1.4930057524315955e-27, 0.0007250019999993657, 1.8866737649095347e-33, 7.379024015118677e-39, 9.928697921475243e-38, 1.715189320333576e-41, 9.005396706478419e-28, 1.88667376419207e-33, 0.0011619974197597702, 2.507985464781864e-35, 1.2754929768837581e-34, 1.848959513815566e-38, 1.137709094865964e-27, 7.379024015118677e-39, 2.5079854647468317e-35, 0.0002919897697246489, 2.9809163463797653e-34, 8.410001869011869e-33, 6.50971074055732e-27, 9.928697921475243e-38, 1.2754929768557322e-34, 2.9809597228450533e-34, 0.0002919897697246489, -3.788495374475949e-33, 1.7327950220735282e-30, 1.7140682815621162e-41, 1.848959513815566e-38, 8.410001869011869e-33, -3.788495374475949e-33, 0.0005800019999991452]"
10657000000,,91,,10,657000000,turtlebot2/odom,turtlebot2/base_footprint_distributed,,,,-0.157528377554,2.69936001183e-14,-6.15260208423e-19,,1.20759720682e-18,-1.00098992413e-19,1.53681981879e-13,1.0,"[0.15971434289263944, 3.8298498731654134e-17, 2.547969699129154e-27, -1.0607509633896806e-27, 3.759836596577552e-28, 2.6675303109558875e-23, 3.8298498731654134e-17, 0.15951999792482352, -1.8835579361277872e-30, -4.120945926279415e-31, 6.385556167401428e-32, -1.1797807763683617e-27, 2.547969699129154e-27, -1.8835579361277872e-30, 0.0016219980044346273, -1.5929864521899787e-35, -1.4789008921942298e-36, -6.522482313404777e-32, -1.0607509633896806e-27, -4.120945926279639e-31, -1.5929864522600436e-35, 0.0008119960176938196, -1.3373673271673942e-35, 1.0633850868448698e-29, 3.7598365965777815e-28, 6.385556167401428e-32, -1.478900892281811e-36, -1.3350163384657497e-35, 0.0008119960176938192, 3.623700436480687e-30, 2.6675303109558875e-23, -1.1797807763683617e-27, -6.522482313405898e-32, 1.0633850868448698e-29, 3.623700436480687e-30, 0.19136904836162694]",,,,-0.198672995417,-1.29003361195e-21,3.88266059448e-18,,1.95643769286e-18,-3.80970570346e-18,-3.91195059357e-21,"[0.0010844129321879682, -5.3152347282815e-28, -1.5971393052567624e-27, -2.3669575723686163e-28, 3.4549502293105355e-28, 3.7456646799006426e-32, -5.3152347282815e-28, 0.0006750019999989042, -1.0282378905217422e-35, 2.8289830984731776e-38, -7.266186207902002e-39, 1.2821880948572076e-41, -1.5971393052567165e-27, -1.0282378905217422e-35, 0.0010819970085143827, 1.7426359064028313e-34, -1.5707602101423516e-34, -3.663772186652465e-38, -2.366957572368846e-28, 2.8289828182134847e-38, 1.7426359064028313e-34, 0.0002719881547463092, -1.0038324142697823e-34, 1.258952589487901e-32, 3.454950229310765e-28, -7.266186207902002e-39, -1.5707602101703776e-34, -1.0039289609804228e-34, 0.00027198815474630927, 9.271001401945196e-37, 3.7456646799006426e-32, 1.2821880948572076e-41, -3.663772186652465e-38, 1.2589525894161544e-32, 9.271001401945196e-37, 0.000540001999998535]"
10756000000,,92,,10,756000000,turtlebot2/odom,turtlebot2/base_footprint_distributed,,,,-0.177741025334,-3.62182802169e-14,2.15897928259e-18,,1.62705194627e-18,1.11740648372e-18,1.61278019988e-13,1.0,"[0.16482089649386636, 3.999445153191448e-17, 5.717297647909033e-27, 3.9961198241976365e-28, 2.440892223337198e-28, 2.845130094557264e-23, 3.999445153191448e-17, 0.1646200087919159, -1.9539160271548235e-28, -8.66325426018004e-31, -4.766793495728753e-31, -3.249149076635609e-27, 5.7172976479149104e-27, -1.9539160271695171e-28, 0.003481998865070498, 9.436553360731006e-35, 3.4016061072030114e-35, 3.0710505896203204e-31, 3.996119824196718e-28, -8.663254260178247e-31, 9.436553365215161e-35, 0.001741997732998964, 2.909330150064891e-35, 2.34742824357276e-29, 2.440892223337198e-28, -4.766793495728753e-31, 3.40160610832405e-35, 2.909330150064891e-35, 0.0017419977329989637, 4.789419099928439e-30, 2.845130094557264e-23, -3.249149076635609e-27, 3.071050589620769e-31, 2.3474282432788863e-29, 4.789419099193755e-30, 0.19748969625906232]",,,,-0.203266425259,1.13869065123e-22,-5.85174104196e-19,,5.41402590203e-18,9.53797032583e-19,2.09654496793e-21,"[0.0020474278653796396, -8.34586835755682e-28, -3.468370772879026e-27, 3.0578039136397337e-28, -8.796773465845517e-30, 8.302021698369021e-32, -8.34586835755682e-28, 0.0014500019999984467, -4.801804623778028e-33, 1.4565659560174807e-37, -4.88266580188874e-39, 3.7863084506056557e-41, -3.4683707728788195e-27, -4.801804623778028e-33, 0.0023219982948663198, -6.950338948099935e-35, -6.094113827929595e-36, -1.0315780558093537e-38, 3.057803913640652e-28, 1.4565659560174807e-37, -6.950338947819675e-35, 0.0005819932253384216, 1.2242636755272602e-34, 2.2815415861597506e-32, -8.796773465845158e-30, -4.88266580188874e-39, -6.094113827929595e-36, 1.2250913637877052e-34, 0.0005819932253384216, 9.832248604788654e-33, 8.302021702960796e-32, 3.7863084506056557e-41, -1.0315781959392001e-38, 2.28154158637499e-32, 9.832248604788654e-33, 0.0011600019999978837]"
10857000000,,93,,10,856000000,turtlebot2/odom,turtlebot2/base_footprint_distributed,,,,-0.197020119429,-4.46809352509e-14,1.75457994803e-18,,-2.860659794e-20,-8.20027703974e-19,1.44995417211e-13,1.0,"[0.1697755821090479, 4.1255498702494883e-17, -1.2020351288059388e-26, -2.107989829044306e-28, 1.594706295624045e-28, 3.4927536518837224e-23, 4.1255498702494883e-17, 0.1695700509409265, -3.6721653615696374e-28, -1.182463185820635e-31, 4.959620159366807e-31, -3.599352809235465e-27, -1.202035128805351e-26, -3.672165361628412e-28, 0.0034219972307751607, 1.375309649759158e-36, -3.6551915483634087e-35, -4.318049223779968e-31, -2.107989829044306e-28, -1.182463185820691e-31, 1.3753096497810533e-36, 0.0017119944785312351, 2.9306601897143383e-35, -4.958711875282222e-29, 1.594706295624045e-28, 4.959620159366807e-31, -3.6551915483634087e-35, 2.92125623490776e-35, 0.001711994478531235, 3.676024156404884e-29, 3.4927536518837224e-23, -3.599352809235465e-27, -4.318049223779968e-31, -4.958711875576096e-29, 3.676024156404884e-29, 0.20343025295328093]",,,,-0.204547676917,-2.37582319092e-21,4.05670697759e-18,,6.91285210915e-19,-3.56499543673e-19,-5.73493480671e-22,"[0.001965303206387801, -8.078065316145706e-28, 6.591267829139904e-27, 1.0773372283547033e-28, 1.502310943163486e-28, -1.1062138995581836e-31, -8.078065301099379e-28, 0.0014250019999988333, -1.7701847129620166e-32, -2.7500679244808773e-38, -1.233457870695389e-38, -1.603435767803672e-42, 6.591267829139996e-27, -1.770184712683999e-32, 0.0022819958435782326, 2.1050095251364034e-35, -8.470467346546734e-36, -1.9761507511373974e-38, 1.0773372283547033e-28, -2.7500679244808773e-38, 2.1050095251714359e-35, 0.0005719836176380068, -1.5691403250564863e-36, -5.133885731035733e-32, 1.5023109431636007e-28, -1.2334578356629273e-38, -8.470467346634315e-36, -1.5338120182074467e-36, 0.0005719836176380068, 3.5679604021143956e-32, -1.1062138986398286e-31, -1.603435767803672e-42, -1.9761507511373974e-38, -5.133885730972955e-32, 3.567960402060586e-32, 0.001140001999998472]"
10956000000,,94,,10,956000000,turtlebot2/odom,turtlebot2/base_footprint_distributed,,,,-0.217599878457,3.86494141117e-15,1.27740799167e-18,,3.46580790421e-20,-1.08425096329e-18,1.44985426139e-13,1.0,"[0.1749312389581708, 4.2826581346012036e-17, 2.291747779267649e-28, -1.0191582504330343e-28, -1.8074861895061554e-27, 3.2291051950694066e-23, 4.2826581346012036e-17, 0.1747253309628129, 1.7138420600390645e-30, -3.923818880080376e-32, 8.528662074949711e-32, -1.1257141013929854e-26, 2.2917477792713223e-28, 1.7138420600390645e-30, 0.000601997732996634, 6.420883770794785e-36, -3.1384603068493685e-35, 2.2616614937945317e-31, -1.019158250432977e-28, -3.923818880080656e-32, 6.42088377114511e-36, 0.00030199547737938786, 1.7940314569333252e-35, -4.6736017396091e-30, -1.8074861895059718e-27, 8.52866207494859e-32, -3.1384603068493685e-35, 1.7940314569333252e-35, 0.00030199547737938786, -2.448768199690034e-30, 3.2291051950694066e-23, -1.1257141013929854e-26, 2.261661493794756e-31, -4.6736017396091e-30, -2.4487681995981983e-30, 0.2096145200176214]",,,,-0.201308412462,-1.29621760263e-21,-2.94608524188e-18,,2.81309996657e-18,1.33756930792e-19,1.23877643549e-21,"[0.0008651070540723993, -1.6852519019336627e-27, 1.447947058815648e-29, 1.2758565536098334e-28, -1.5811160950515347e-29, 2.33979241917342e-31, -1.6852519019336627e-27, 0.00025000199999922895, 6.79605083376254e-35, -2.8288809438151283e-38, 2.5533251121189796e-39, 1.900160717624452e-42, 1.4479470588202398e-29, 6.79605083376254e-35, 0.0004019966035444961, -9.656981397019179e-35, -1.7982391811291262e-35, -8.454417591050846e-39, 1.2758565536099482e-28, -2.8288810839449747e-38, -9.656981397019179e-35, 0.00010198656649430333, 8.359485516861875e-35, -8.355934588781276e-34, -1.5811160950515347e-29, 2.5533251121189796e-39, -1.7982391811466424e-35, 8.359403807358615e-35, 0.00010198656649430333, -1.2761894648200009e-34, 2.33979241917342e-31, 1.900160717624452e-42, -8.454418992349311e-39, -8.355934588781276e-34, -1.2761894612326768e-34, 0.0002000019999989955]"
11056000000,,95,,11,56000000,turtlebot2/odom,turtlebot2/base_footprint_distributed,,,,-0.237967186133,-4.34957202965e-14,3.86566701622e-19,,1.5478370492e-19,-8.13646180324e-19,1.65339963529e-13,1.0,"[0.17993942787766493, 4.5341720094743544e-17, -6.379083080006729e-30, -9.105095312985811e-30, 6.079883627565574e-28, 2.8095991144640957e-23, 4.5341720094743544e-17, 0.17972756704906329, 4.9425511467495925e-30, -2.266922285458244e-32, 1.976438327059767e-31, -1.0274749327574314e-26, -6.379083080374071e-30, 4.942551146474086e-30, 0.0006019994447866587, 5.199421293812411e-37, -7.819909674430539e-36, -1.6493434869016622e-32, -9.105095312985811e-30, -2.2669222854588045e-32, 5.199421293812411e-37, 0.0003019988902549452, -1.2296267840326154e-35, -1.4998576431796304e-29, 6.079883627567411e-28, 1.9764383270593188e-31, -7.819909674430539e-36, -1.229920657620321e-35, 0.0003019988902549452, -4.243100511098379e-31, 2.8095991144640957e-23, -1.0274749327574314e-26, -1.6493434869022228e-32, -1.4998576431796304e-29, -4.243100508343314e-31, 0.21561597804952945]",,,,-0.206314743783,-2.27453617778e-21,-1.13488763062e-18,,-3.37123622881e-18,1.91617347658e-18,-1.16232298019e-21,"[0.0009059599924570458, -4.571310083197508e-28, -2.0032034389373975e-29, 9.682927196532996e-29, -6.35222396123865e-29, -8.335264075939832e-34, -4.571310083197508e-28, 0.0002500019999988651, 1.5393237290681141e-34, 3.93389656798466e-38, -1.9208705076287084e-38, 1.631111412474087e-41, -2.0032034389351016e-29, 1.5393237290681141e-34, 0.00040199916738037616, 5.2698457968007e-35, -2.026730728508482e-35, 5.950868965075843e-39, 9.682927196532996e-29, 3.93389656798466e-38, 5.269845793437584e-35, 0.00010199667874953339, -7.874874236223781e-35, 2.579147764254521e-34, -6.35222396123865e-29, -1.9208705076287084e-38, -2.026730728508482e-35, -7.875044122082584e-35, 0.00010199667874953371, -3.0740948434546933e-34, -8.335264068765184e-34, 1.631671931859817e-41, 5.950868965075843e-39, 2.5791477929531135e-34, -3.0740948461451864e-34, 0.00020000199999849547]"
11156000000,,96,,11,156000000,turtlebot2/odom,turtlebot2/base_footprint_distributed,,,,-0.256208428204,-6.00968021559e-14,-2.00883146838e-18,,-2.55318748159e-18,-3.17343398354e-19,1.8993304054e-13,1.0,"[0.18439561728096918, 4.7185918970382337e-17, 7.074658416632953e-26, -3.515397738125916e-27, -5.364491535204937e-28, 5.2335521249467e-23, 4.7185918970382337e-17, 0.1841827804133116, 5.955626917604831e-26, -2.4202614027578e-31, -4.0152229736863457e-32, -9.23750537196312e-27, 7.074658416634128e-26, 5.955626917605493e-26, 0.004261997230774048, 1.4895721880266469e-34, -2.659082586029359e-37, -7.0058813078598055e-31, -3.5153977381260994e-27, -2.420261402757912e-31, 1.489572187970595e-34, 0.0021319944784970878, -5.971846501738197e-35, -8.474194507570481e-26, -5.364491535205626e-28, -4.015222973686626e-32, -2.6590825851535477e-37, -5.981250456544776e-35, 0.0021319944784970878, -8.246765092693451e-26, 5.2335521249467e-23, -9.23750537196312e-27, -7.005881307859357e-31, -8.474194507569894e-26, -8.246765092692863e-26, 0.22095937703213545]",,,,-0.212002793134,-7.10549524499e-15,2.74279809927e-18,,8.66339687018e-18,-6.16324679793e-18,3.02573632975e-15,"[0.0027779184713108795, 1.3668881679586515e-22, -6.75203429162831e-26, -5.24914060671993e-27, 3.0165299013661432e-27, -5.042498734868574e-25, 1.3668881679586515e-22, 0.00259980764611645, -5.250950218821218e-26, -1.7202048251471717e-31, 9.213060871920856e-32, -2.6550354196120965e-29, -6.752034291628108e-26, -5.250950218821145e-26, 0.00284199583862306, 3.6937812264980973e-34, -2.2296531854303775e-34, 7.511918850768957e-32, -5.24914060671993e-27, -1.7202048251471717e-31, 3.6937812264420454e-34, 0.0007119836063950558, -6.965040859413042e-34, 7.72641437070875e-26, 3.0165299013660973e-27, 9.213060871920856e-32, -2.2296531854303775e-34, -6.965217555806589e-34, 0.0007119836063950558, 7.51874227056642e-26, -5.042498734868574e-25, -2.6550354196120965e-29, 7.511918850769518e-32, 7.726414370708963e-26, 7.518742270566491e-26, 0.0019800019999985036]"
11256000000,,97,,11,256000000,turtlebot2/odom,turtlebot2/base_footprint_distributed,,,,-0.267692825964,-4.9341295436e-14,2.67422018112e-18,,-8.03296867551e-19,-2.29273942088e-19,1.52428942133e-13,1.0,"[0.1872966304972013, 4.774770492533068e-17, 1.6101032004849585e-27, -3.8597487625353822e-28, -2.238919862305454e-28, 6.020991525224466e-23, 4.774770492533068e-17, 0.1870822813796853, 6.821622229882772e-30, 7.375963642825961e-32, 5.306235271510539e-32, -1.634578457925476e-26, 1.6101032004845912e-27, 6.821622229699101e-30, 0.001681998336414447, -4.3967145302597525e-35, -3.3653879469886514e-35, -2.3268205361823055e-31, -3.859748762535612e-28, 7.375963642825961e-32, -4.396714529699233e-35, 0.000841996678965914, -9.315936222528726e-36, 1.867769685661287e-30, -2.238919862305454e-28, 5.306235271510539e-32, -3.3653879469886514e-35, -9.315936222528726e-36, 0.000841996678965914, 6.732854921468234e-30, 6.020991525224466e-23, -1.634578457925476e-26, -2.326820536182754e-31, 1.867769685661287e-30, 6.732854921100892e-30, 0.22443966776224525]",,,,-0.205924710224,-3.38123492958e-21,2.11579882926e-18,,9.45874039151e-19,2.18152155912e-18,-2.66806187911e-22,"[0.001347154239706056, -1.3030840047701438e-27, -1.4458768127403094e-27, 5.787573163692921e-29, -1.2740057437620434e-27, 8.514429097418274e-31, -1.3030840047701438e-27, 0.0007000019999991716, 3.0036361585088858e-34, -3.568105960882549e-38, -2.853260594367605e-38, 2.9516950852537947e-41, -1.445876812739942e-27, 3.0036361585088858e-34, 0.0011219975056240275, -7.448700451982596e-36, 1.6311075250619523e-35, -4.653286205289563e-38, 5.787573163692921e-29, -3.5681058207527026e-38, -7.44870045233292e-36, 0.0002819901071840502, 5.266634176649954e-35, 2.9608286108910196e-33, -1.2740057437619515e-27, -2.8532607344974515e-38, 1.6311075251320172e-35, 5.265082203498188e-35, 0.00028199010718405035, -6.319892958970999e-34, 8.514429097418274e-31, 2.9516950852537947e-41, -4.6532850842507913e-38, 2.9608286105322872e-33, -6.319892973320295e-34, 0.0005600019999988464]"
11357000000,,98,,11,357000000,turtlebot2/odom,turtlebot2/base_footprint_distributed,,,,-0.298629956534,-8.0244094958e-14,-2.298507218e-18,,-6.07098322462e-20,5.10816797836e-19,1.25135777316e-13,1.0,"[0.19491063079721116, 3.7942680358975794e-17, 1.194038653014902e-27, -8.54368105076589e-28, -2.0150293720999252e-27, 1.8721351842818258e-23, 3.7942680358975794e-17, 0.19468836310083715, -8.111246321621148e-29, 2.3808379377866417e-32, -1.5785002676221964e-31, -2.5328756899327118e-26, 1.1940386530147183e-27, -8.111246321621148e-29, 0.001861998336414814, 2.365200143501275e-35, -2.157993944947674e-35, -4.110540241501882e-31, -8.54368105076589e-28, 2.3808379377867117e-32, 2.365200143501275e-35, 0.0009319966789679168, -3.6285569143792207e-35, -8.298620265140279e-30, -2.0150293720999252e-27, -1.5785002676223085e-31, -2.1579939443871547e-35, -3.63325889178251e-35, 0.0009319966789679169, 4.741639008802596e-30, 1.8721351842818258e-23, -2.5328756899327118e-26, -4.110540241501882e-31, -8.298620263670911e-30, 4.741639008802596e-30, 0.2335644806162278]",,,,-0.204109134466,-2.80515321127e-21,-3.06706270648e-18,,5.08605943744e-18,6.00645608742e-18,2.3248851793e-21,"[0.0014398235591149109, -1.3017360644576604e-28, 2.9498546314013313e-28, 4.428013428317408e-28, 7.40202152601244e-28, 1.2753372841923664e-31, -1.3017360653980559e-28, 0.0007750019999992813, -2.6324966997007853e-33, -6.560856989193364e-38, -7.926559109408017e-38, -1.654653226674744e-41, 2.949854631403168e-28, -2.6324966996111022e-33, 0.0012419975053311997, -1.9736148299665333e-34, -1.8923840970583631e-34, -1.9789394752112502e-38, 4.428013428317408e-28, -6.56085754971275e-38, -1.9736148300225853e-34, 0.0003119901066314311, 3.138812886056588e-34, -3.706483044945342e-33, 7.402021526012899e-28, -7.926560230446788e-38, -1.892384097114415e-34, 3.138760619193323e-34, 0.00031199010663143106, 5.288807842787749e-33, 1.2753372851107214e-31, -1.654653226674744e-41, -1.9789389146918645e-38, -3.7064830435104124e-33, 5.2888078430567985e-33, 0.0006200019999990053]"
11456000000,,99,,11,456000000,turtlebot2/odom,turtlebot2/base_footprint_distributed,,,,-0.312491082864,-9.30316667037e-14,-1.89532309577e-18,,-1.72324414709e-19,-5.51283167448e-19,1.36264323307e-13,1.0,"[0.19836449237958148, 3.931693473911038e-17, -3.824994939630269e-27, -5.149056540064284e-28, -5.291537152152949e-28, 4.455936342942991e-23, 3.931693473911038e-17, 0.19814336871076882, -1.0596684311465264e-27, -6.117334610035864e-32, -1.1445400012985557e-31, -1.7835784566803772e-26, -3.824994939630269e-27, -1.0596684311464345e-27, 0.001681998782137796, 2.14567334573433e-35, 5.0716390634174704e-36, -8.251427839130885e-31, -5.149056540064284e-28, -6.117334610035304e-32, 2.14567334573433e-35, 0.000841997567563476, -5.0195043709739145e-36, 9.001664745159086e-27, -5.291537152152949e-28, -1.1445400012986678e-31, 5.071639064468444e-36, -5.0077494274656916e-36, 0.0008419975675634755, 1.5608026743374039e-27, 4.455936342942991e-23, -1.7835784566803772e-26, -8.251427839130885e-31, 9.001664745158351e-27, 1.5608026743374957e-27, 0.2377080753456385]",,,,-0.203737877959,-7.31939834861e-15,1.94418971308e-18,,4.7089118404e-19,6.60716503521e-18,-5.43559949989e-15,"[0.0010790024386527768, -4.934927750955954e-22, 6.722086730175277e-28, 8.7664630216537e-30, 4.1705405343420405e-28, -2.4585965712488834e-25, -4.934927750955954e-22, 0.002574666322671868, 6.188860877671635e-28, -6.62512089738638e-33, -9.017839401342376e-32, 2.736012682127163e-29, 6.722086730175277e-28, 6.188860877671818e-28, 0.0011219981734875031, 1.646142715246296e-35, 1.5406738489736132e-34, -6.561782145177675e-32, 8.7664630216537e-30, -6.625120897386205e-33, 1.646142715316361e-35, 0.0002819927398772029, -3.02630495846936e-35, -5.514110847221511e-27, 4.170540534341122e-28, -9.017839401342656e-32, 1.5406738489175613e-34, -3.0252517092977675e-35, 0.0002819927398772029, -9.560184561850032e-28, -2.4585965712488834e-25, 2.736012682127163e-29, -6.561782145179917e-32, -5.5141108472215274e-27, -9.560184561850003e-28, 0.0020000019999990215]"
