rosbagTimestamp,header,seq,stamp,secs,nsecs,frame_id,child_frame_id,pose,pose,position,x,y,z,orientation,x,y,z,w,covariance,twist,twist,linear,x,y,z,angular,x,y,z,covariance
9539000000,,78,,9,539000000,turtlebot2/odom,turtlebot2/base_footprint_distributed,,,,2.36410095987e-05,0.0,0.0,,0.0,0.0,0.0,1.0,"[0.1047349882417679, 0.0, 0.0, 0.0, 0.0, 0.0, 0.0, 0.10466614111085022, 0.0, 0.0, 0.0, 1.6909951908567297e-06, 0.0, 0.0, 9.994450612694084e-07, 0.0, 5.966863773566142e-20, 0.0, 0.0, 0.0, 0.0, 9.988913532459557e-07, 0.0, 0.0, 0.0, 0.0, 5.966863773566139e-20, 0.0, 9.988913532459557e-07, 0.0, 0.0, 1.6909951908567295e-06, 0.0, 0.0, 0.0, 0.12555788416880878]",,,,-2.95995216169e-06,0.0,0.0,,0.0,0.0,0.0,"[0.0009389605477957086, 0.0, 0.0, 0.0, 0.0, 0.0, 0.0, 0.0035952257781878727, 0.0, 0.0, 0.0, 0.0, 0.0, 0.0, 9.99168053694146e-07, 0.0, 1.476829754793361e-28, 0.0, 0.0, 0.0, 0.0, 9.96688730876147e-07, 0.0, 0.0, 0.0, 0.0, 1.4768297547933613e-28, 0.0, 9.96688730876147e-07, 0.0, 0.0, 0.0, 0.0, 0.0, 0.0, 0.002680000999999678]"
9640000000,,79,,9,639000000,turtlebot2/odom,turtlebot2/base_footprint_distributed,,,,3.11043584317e-05,0.0,0.0,,0.0,0.0,0.0,1.0,"[0.1082895607203008, 0.0, 0.0, 0.0, 0.0, 0.0, 0.0, 0.10821196928219654, 0.0, 0.0, 0.0, 1.6622829605059247e-06, 0.0, 0.0, 9.997128089021829e-07, 0.0, 3.0983533825322417e-20, 0.0, 0.0, 0.0, 0.0, 9.994259474447807e-07, 0.0, 0.0, 0.0, 0.0, 3.098353382532241e-20, 0.0, 9.994259474447807e-07, 0.0, 0.0, 1.6622829605059245e-06, 0.0, 0.0, 0.0, 0.12981648749586286]",,,,0.000154920607728,0.0,0.0,,0.0,0.0,0.0,"[0.00017438376713654414, 0.0, 0.0, 0.0, 0.0, 0.0, 0.0, 0.00149706972633184, 0.0, 0.0, 0.0, 0.0, 0.0, 0.0, 9.995693370432025e-07, 0.0, 7.594353957160985e-29, 0.0, 0.0, 0.0, 0.0, 9.982817645695364e-07, 0.0, 0.0, 0.0, 0.0, 7.594353957160982e-29, 0.0, 9.982817645695364e-07, 0.0, 0.0, 0.0, 0.0, 0.0, 0.0, 0.0011600009999996564]"
9739000000,,80,,9,739000000,turtlebot2/odom,turtlebot2/base_footprint_distributed,,,,4.50921276166e-05,0.0,0.0,,0.0,0.0,0.0,1.0,"[0.11274589286970245, 0.0, 0.0, 0.0, 0.0, 0.0, 0.0, 0.11266892086776745, 0.0, 0.0, 0.0, 3.4987985586032216e-06, 0.0, 0.0, 9.986149583092972e-07, 0.0, -7.346159101098627e-18, 0.0, 0.0, 0.0, 0.0, 9.972375668486307e-07, 0.0, 0.0, 0.0, 0.0, -7.346159101098627e-18, 0.0, 9.972375668486307e-07, 0.0, 0.0, 3.4987985586032216e-06, 0.0, 0.0, 0.0, 0.1351608582551033]",,,,0.000158776211717,0.0,0.0,,0.0,0.0,0.0,"[0.0024816606589088855, 0.0, 0.0, 0.0, 0.0, 0.0, 0.0, 9.999997488735494e-10, 0.0, 0.0, 0.0, 0.0, 0.0, 0.0, 9.9792531042175e-07, 0.0, -1.793851423863308e-26, 0.0, 0.0, 0.0, 0.0, 9.918031916319393e-07, 0.0, 0.0, 0.0, 0.0, -1.7938514238633088e-26, 0.0, 9.918031916319393e-07, 0.0, 0.0, 0.0, 0.0, 0.0, 0.0, 9.99999659864177e-10]"
9839000000,,81,,9,839000000,turtlebot2/odom,turtlebot2/base_footprint_distributed,,,,4.66286810507e-05,0.0,0.0,,0.0,0.0,0.0,1.0,"[0.11790352414787487, 0.0, 0.0, 0.0, 0.0, 0.0, 0.0, 0.11782089881530032, 0.0, 0.0, 0.0, 4.9355119021706125e-06, 0.0, 0.0, 9.987212269896267e-07, 0.0, -9.043604443451694e-19, 0.0, 0.0, 0.0, 0.0, 9.974489734649758e-07, 0.0, 0.0, 0.0, 0.0, -9.043604443451694e-19, 0.0, 9.974489734649758e-07, 0.0, 0.0, 4.935511902170613e-06, 0.0, 0.0, 0.0, 0.14134146567145986]",,,,2.12099636936e-05,0.0,0.0,,0.0,0.0,0.0,"[0.0013533215163970822, 0.0, 0.0, 0.0, 0.0, 0.0, 0.0, 9.99999633464622e-10, 0.0, 0.0, 0.0, 0.0, 0.0, 0.0, 9.980842887494691e-07, 0.0, -2.201867044771394e-27, 0.0, 0.0, 0.0, 0.0, 9.924240523537722e-07, 0.0, 0.0, 0.0, 0.0, -2.2018670447713945e-27, 0.0, 9.924240523537722e-07, 0.0, 0.0, 0.0, 0.0, 0.0, 0.0, 9.999995145635781e-10]"
9940000000,,82,,9,940000000,turtlebot2/odom,turtlebot2/base_footprint_distributed,,,,3.56857073992e-05,0.0,0.0,,0.0,0.0,0.0,1.0,"[0.12295976057242508, 0.0, 0.0, 0.0, 0.0, 0.0, 0.0, 0.12287272993860326, 0.0, 0.0, 0.0, 4.415289848590787e-06, 0.0, 0.0, 9.98960498544664e-07, 0.0, 3.9335053879941555e-18, 0.0, 0.0, 0.0, 0.0, 9.979253067900186e-07, 0.0, 0.0, 0.0, 0.0, 3.933505387994154e-18, 0.0, 9.979253067900186e-07, 0.0, 0.0, 4.415289848590788e-06, 0.0, 0.0, 0.0, 0.1474020218591128]",,,,-0.00011383016688,0.0,0.0,,0.0,0.0,0.0,"[0.0012464173250657852, 0.0, 0.0, 0.0, 0.0, 0.0, 0.0, 9.99999626080374e-10, 0.0, 0.0, 0.0, 0.0, 0.0, 0.0, 9.98442365889154e-07, 0.0, 9.600587867781192e-27, 0.0, 0.0, 0.0, 0.0, 9.938270150344632e-07, 0.0, 0.0, 0.0, 0.0, 9.600587867781189e-27, 0.0, 9.938270150344632e-07, 0.0, 0.0, 0.0, 0.0, 0.0, 0.0, 9.999995049509852e-10]"
10039000000,,83,,10,39000000,turtlebot2/odom,turtlebot2/base_footprint_distributed,,,,4.53168244789e-05,0.0,0.0,,0.0,0.0,0.0,1.0,"[0.12721452545191086, 0.0, 0.0, 0.0, 0.0, 0.0, 0.0, 0.12712699602258828, 0.0, 0.0, 0.0, 3.954557180490593e-06, 0.0, 0.0, 9.99383477356263e-07, 0.0, -2.6684219969850515e-18, 0.0, 0.0, 0.0, 0.0, 9.987684731354604e-07, 0.0, 0.0, 0.0, 0.0, -2.6684219969850522e-18, 0.0, 9.987684731354604e-07, 0.0, 0.0, 3.954557180490595e-06, 0.0, 0.0, 0.0, 0.15250286751120895]",,,,0.000129756491869,0.0,0.0,,0.0,0.0,0.0,"[0.0008591688429937814, 0.0, 0.0, 0.0, 0.0, 0.0, 0.0, 0.00223167656432107, 0.0, 0.0, 0.0, 0.0, 0.0, 0.0, 9.99075785834463e-07, 0.0, -6.586689792953278e-27, 0.0, 0.0, 0.0, 0.0, 9.963235061751616e-07, 0.0, 0.0, 0.0, 0.0, -6.586689792953278e-27, 0.0, 9.963235061751616e-07, 0.0, 0.0, 0.0, 0.0, 0.0, 0.0, 0.001700000999999522]"
10139000000,,84,,10,139000000,turtlebot2/odom,turtlebot2/base_footprint_distributed,,,,4.3284096385e-05,0.0,0.0,,0.0,0.0,0.0,1.0,"[0.13227032743974704, 0.0, 0.0, 0.0, 0.0, 0.0, 0.0, 0.13218289621761736, 0.0, 0.0, 0.0, 5.3512242630397675e-06, 0.0, 0.0, 9.991680527533361e-07, 0.0, 2.13163985170665e-18, 0.0, 0.0, 0.0, 0.0, 9.983388654182252e-07, 0.0, 0.0, 0.0, 0.0, 2.1316398517066495e-18, 0.0, 9.983388654182252e-07, 0.0, 0.0, 5.35122426303977e-06, 0.0, 0.0, 0.0, 0.1585677064359378]",,,,-7.69227512393e-05,0.0,0.0,,0.0,0.0,0.0,"[0.0006936577259357354, 0.0, 0.0, 0.0, 0.0, 0.0, 0.0, 0.000893362115649723, 0.0, 0.0, 0.0, 0.0, 0.0, 0.0, 9.987531152409895e-07, 0.0, 5.186435382581804e-27, 0.0, 0.0, 0.0, 0.0, 9.950493436946656e-07, 0.0, 0.0, 0.0, 0.0, 5.186435382581805e-27, 0.0, 9.950493436946656e-07, 0.0, 0.0, 0.0, 0.0, 0.0, 0.0, 0.0007000009999996717]"
10239000000,,85,,10,239000000,turtlebot2/odom,turtlebot2/base_footprint_distributed,,,,0.00356639624663,0.0,0.0,,0.0,0.0,0.0,1.0,"[0.13968318357112103, 0.0, 0.0, 0.0, 0.0, 0.0, 0.0, 0.13959122439089922, 0.0, 0.0, 0.0, 0.0001811442552347212, 0.0, 0.0, 9.994054698510228e-07, 0.0, -7.548708973817122e-16, 0.0, 0.0, 0.0, 0.0, 9.988123518053222e-07, 0.0, 0.0, 0.0, 0.0, -7.548708973817122e-16, 0.0, 9.988123518053211e-07, 0.0, 0.0, 0.0001811442552347212, 0.0, 0.0, 0.0, 0.16745091638222565]",,,,0.036632560139,0.0,0.0,,0.0,0.0,0.0,"[0.0009951560631149875, 0.0, 0.0, 0.0, 0.0, 0.0, 0.0, 0.0022067520963151904, 0.0, 0.0, 0.0, 0.0, 0.0, 0.0, 9.99108734668739e-07, 0.0, -1.8637080781696143e-24, 0.0, 0.0, 0.0, 0.0, 9.964538783222243e-07, 0.0, 0.0, 0.0, 0.0, -1.8637080781696146e-24, 0.0, 9.964538783222243e-07, 0.0, 0.0, 0.0, 0.0, 0.0, 0.0, 0.0016800009999994874]"
10340000000,,86,,10,339000000,turtlebot2/odom,turtlebot2/base_footprint_distributed,,,,-0.068342087473,0.0,0.0,,0.0,0.0,0.0,1.0,"[0.1446900323467879, 0.0, 0.0, 0.0, 0.0, 0.0, 0.0, 0.14466121921792716, 0.0, 0.0, 0.0, -0.003337523030598263, 0.0, 0.0, 9.993597949460921e-07, 0.0, 1.8788990244950872e-14, 0.0, 0.0, 0.0, 0.0, 9.987212232971846e-07, 0.0, 0.0, 0.0, 0.0, 1.8788990244950878e-14, 0.0, 9.987212232966331e-07, 0.0, 0.0, -0.0033375230305982637, 0.0, 0.0, 0.0, 0.17345543085367957]",,,,-0.884036827804,0.0,0.0,,0.0,0.0,0.0,"[0.0009473844366735744, 0.0, 0.0, 0.0, 0.0, 0.0, 0.0, 0.0009198156742244339, 0.0, 0.0, 0.0, 0.0, 0.0, 0.0, 9.990403054272024e-07, 0.0, 4.5517459903417136e-23, 0.0, 0.0, 0.0, 0.0, 9.96183063264293e-07, 0.0, 0.0, 0.0, 0.0, 4.5517459903417136e-23, 0.0, 9.96183063264293e-07, 0.0, 0.0, 0.0, 0.0, 0.0, 0.0, 0.000720000999999654]"
10440000000,,87,,10,439000000,turtlebot2/odom,turtlebot2/base_footprint_distributed,,,,-0.0766137034947,0.0,0.0,,0.0,0.0,0.0,1.0,"[0.14789479536449673, 0.0, 0.0, 0.0, 0.0, 0.0, 0.0, 0.14882505499247553, 0.0, 0.0, 0.0, -0.013329857691315831, 0.0, 0.0, 9.997397193548527e-07, 0.0, 7.791316617329583e-15, 0.0, 0.0, 0.0, 0.0, 9.99479709393525e-07, 0.0, 0.0, 0.0, 0.0, 7.791316617329585e-15, 0.0, 9.994797093932915e-07, 0.0, 0.0, -0.013329857691315835, 0.0, 0.0, 0.0, 0.17729773076297]",,,,0.0908321749802,0.0,0.0,,0.0,0.0,0.0,"[0.00027533369889475544, 0.0, 0.0, 0.0, 0.0, 0.0, 0.0, 9.999996232451925e-10, 0.0, 0.0, 0.0, 0.0, 0.0, 0.0, 9.996096804129647e-07, 0.0, 1.927608381543318e-23, 0.0, 0.0, 0.0, 0.0, 9.984423583353365e-07, 0.0, 0.0, 0.0, 0.0, 1.9276083815433183e-23, 0.0, 9.984423583353365e-07, 0.0, 0.0, 0.0, 0.0, 0.0, 0.0, 9.999995000005001e-10]"
10540000000,,88,,10,539000000,turtlebot2/odom,turtlebot2/base_footprint_distributed,,,,-0.0600737395216,0.0,0.0,,0.0,0.0,0.0,1.0,"[0.15295036847098925, 0.0, 0.0, 0.0, 0.0, 0.0, 0.0, 0.15356219058001924, 0.0, 0.0, 0.0, -0.011007423458832327, 0.0, 0.0, 9.988123510453176e-07, 0.0, -6.859464783327261e-15, 0.0, 0.0, 0.0, 0.0, 9.976303266174039e-07, 0.0, 0.0, 0.0, 0.0, -6.859464783327257e-15, 0.0, 9.976303266173643e-07, 0.0, 0.0, -0.011007423458832332, 0.0, 0.0, 0.0, 0.1833583577524906]",,,,0.204002930589,0.0,0.0,,0.0,0.0,0.0,"[0.0015262667585563686, 0.0, 0.0, 0.0, 0.0, 0.0, 0.0, 9.99999627223375e-10, 0.0, 0.0, 0.0, 0.0, 0.0, 0.0, 9.982206385508917e-07, 0.0, -1.672374910950375e-23, 0.0, 0.0, 0.0, 0.0, 9.92957582234869e-07, 0.0, 0.0, 0.0, 0.0, -1.6723749109503753e-23, 0.0, 9.92957582234869e-07, 0.0, 0.0, 0.0, 0.0, 0.0, 0.0, 9.999995049509852e-10]"
10639000000,,89,,10,639000000,turtlebot2/odom,turtlebot2/base_footprint_distributed,,,,-0.033170094226,0.0,0.0,,0.0,0.0,0.0,1.0,"[0.1597126484300324, 0.0, 0.0, 0.0, 0.0, 0.0, 0.0, 0.15986329446266667, 0.0, 0.0, 0.0, -0.005885952292162404, 0.0, 0.0, 9.997864163372754e-07, 0.0, -1.437981740819941e-15, 0.0, 0.0, 0.0, 0.0, 9.99573015516874e-07, 0.0, 0.0, 0.0, 0.0, -1.4379817408199407e-15, 0.0, 9.995730155168643e-07, 0.0, 0.0, -0.00588595229216241, 0.0, 0.0, 0.0, 0.1914652935385429]",,,,0.211907911546,0.0,0.0,,0.0,0.0,0.0,"[0.0023769239617683004, 0.0, 0.0, 0.0, 0.0, 0.0, 0.0, 0.0036593973418528967, 0.0, 0.0, 0.0, 0.0, 0.0, 0.0, 9.996796930826506e-07, 0.0, -3.580260450145183e-24, 0.0, 0.0, 0.0, 0.0, 9.987212247583647e-07, 0.0, 0.0, 0.0, 0.0, -3.580260450145183e-24, 0.0, 9.987212247583647e-07, 0.0, 0.0, 0.0, 0.0, 0.0, 0.0, 0.002700000999999501]"
10739000000,,90,,10,739000000,turtlebot2/odom,turtlebot2/base_footprint_distributed,,,,0.127547597824,0.0,0.0,,0.0,0.0,0.0,1.0,"[0.16471797427025203, 0.0, 0.0, 0.0, 0.0, 0.0, 0.0, 0.1657461238129703, 0.0, 0.0, 0.0, 0.014348161724363047, 0.0, 0.0, 9.997807985606655e-07, 0.0, -9.550991577608304e-15, 0.0, 0.0, 0.0, 0.0, 9.99561788295042e-07, 0.0, 0.0, 0.0, 0.0, -9.550991577608309e-15, 0.0, 9.995617882946256e-07, 0.0, 0.0, 0.014348161724363043, 0.0, 0.0, 0.0, 0.19746402514772524]",,,,1.3225328133,0.0,0.0,,0.0,0.0,0.0,"[0.002284375522744219, 0.0, 0.0, 0.0, 0.0, 0.0, 0.0, 0.002237776906189823, 0.0, 0.0, 0.0, 0.0, 0.0, 0.0, 9.996712692224662e-07, 0.0, -2.3286996245247993e-23, 0.0, 0.0, 0.0, 0.0, 9.986876453162794e-07, 0.0, 0.0, 0.0, 0.0, -2.3286996245247993e-23, 0.0, 9.986876453162794e-07, 0.0, 0.0, 0.0, 0.0, 0.0, 0.0, 0.0017000009999996483]"
10839000000,,91,,10,839000000,turtlebot2/odom,turtlebot2/base_footprint_distributed,,,,0.157452444315,0.0,0.0,,0.0,0.0,0.0,1.0,"[0.1697271483363803, 0.0, 0.0, 0.0, 0.0, 0.0, 0.0, 0.1759869812476354, 0.0, 0.0, 0.0, 0.035279842271010727, 0.0, 0.0, 9.994054691433486e-07, 0.0, -6.050866432702726e-15, 0.0, 0.0, 0.0, 0.0, 9.98812345977261e-07, 0.0, 0.0, 0.0, 0.0, -6.050866432702722e-15, 0.0, 9.988123459771991e-07, 0.0, 0.0, 0.035279842271010727, 0.0, 0.0, 0.0, 0.20346795559603503]",,,,0.308716719362,0.0,0.0,,0.0,0.0,0.0,"[0.0011030005603497209, 0.0, 0.0, 0.0, 0.0, 0.0, 0.0, 0.0008942178804586774, 0.0, 0.0, 0.0, 0.0, 0.0, 0.0, 9.991087322011312e-07, 0.0, -1.4534032796202267e-23, 0.0, 0.0, 0.0, 0.0, 9.964537260352285e-07, 0.0, 0.0, 0.0, 0.0, -1.453403279620227e-23, 0.0, 9.964537260352285e-07, 0.0, 0.0, 0.0, 0.0, 0.0, 0.0, 0.000700000999999634]"
10939000000,,92,,10,939000000,turtlebot2/odom,turtlebot2/base_footprint_distributed,,,,0.173085830695,0.0,0.0,,0.0,0.0,0.0,1.0,"[0.1733328425679242, 0.0, 0.0, 0.0, 0.0, 0.0, 0.0, 0.18128124510321192, 0.0, 0.0, 0.0, 0.039866069847947015, 0.0, 0.0, 9.976303306146042e-07, 0.0, -2.4132709299844022e-14, 0.0, 0.0, 0.0, 0.0, 9.95283008542892e-07, 0.0, 0.0, 0.0, 0.0, -2.4132709299844012e-14, 0.0, 9.952830085426464e-07, 0.0, 0.0, 0.039866069847947015, 0.0, 0.0, 0.0, 0.20779020153661965]",,,,0.206392748923,0.0,0.0,,0.0,0.0,0.0,"[0.00024308503776207123, 0.0, 0.0, 0.0, 0.0, 0.0, 0.0, 0.00017576994661467918, 0.0, 0.0, 0.0, 0.0, 0.0, 0.0, 9.96453896484803e-07, 0.0, -5.804228124341002e-23, 0.0, 0.0, 0.0, 0.0, 9.861108151979566e-07, 0.0, 0.0, 0.0, 0.0, -5.804228124340999e-23, 0.0, 9.861108151979566e-07, 0.0, 0.0, 0.0, 0.0, 0.0, 0.0, 0.00014000099999949346]"
11040000000,,93,,11,39000000,turtlebot2/odom,turtlebot2/base_footprint_distributed,,,,0.193305907511,0.0,0.0,,0.0,0.0,0.0,1.0,"[0.17833825906584624, 0.0, 0.0, 0.0, 0.0, 0.0, 0.0, 0.18803864840615447, 0.0, 0.0, 0.0, 0.04422200981679365, 0.0, 0.0, 9.979253055270783e-07, 0.0, -1.395906336647516e-14, 0.0, 0.0, 0.0, 0.0, 9.958677224958794e-07, 0.0, 0.0, 0.0, 0.0, -1.3959063366475167e-14, 0.0, 9.958677224957856e-07, 0.0, 0.0, 0.04422200981679365, 0.0, 0.0, 0.0, 0.21379109714694974]",,,,0.198254919831,0.0,0.0,,0.0,0.0,0.0,"[0.00019693096698221278, 0.0, 0.0, 0.0, 0.0, 0.0, 0.0, 0.00020100873341700727, 0.0, 0.0, 0.0, 0.0, 0.0, 0.0, 9.9689439053564e-07, 0.0, -3.321776711590888e-23, 0.0, 0.0, 0.0, 0.0, 9.878036588511625e-07, 0.0, 0.0, 0.0, 0.0, -3.321776711590888e-23, 0.0, 9.878036588511625e-07, 0.0, 0.0, 0.0, 0.0, 0.0, 0.0, 0.00016000099999947733]"
11140000000,,94,,11,139000000,turtlebot2/odom,turtlebot2/base_footprint_distributed,,,,0.218674489629,0.0,0.0,,0.0,0.0,0.0,1.0,"[0.1847952557437984, 0.0, 0.0, 0.0, 0.0, 0.0, 0.0, 0.19692395923761025, 0.0, 0.0, 0.0, 0.049791754270021076, 0.0, 0.0, 9.994054693133437e-07, 0.0, -3.821872522316669e-15, 0.0, 0.0, 0.0, 0.0, 9.988123474482391e-07, 0.0, 0.0, 0.0, 0.0, -3.8218725223166686e-15, 0.0, 9.988123474482148e-07, 0.0, 0.0, 0.04979175427002107, 0.0, 0.0, 0.0, 0.22153248418097837]",,,,0.195521582429,0.0,0.0,,0.0,0.0,0.0,"[0.0009108353107041417, 0.0, 0.0, 0.0, 0.0, 0.0, 0.0, 0.0009467076035741065, 0.0, 0.0, 0.0, 0.0, 0.0, 0.0, 9.99108732824912e-07, 0.0, -9.243098440543963e-24, 0.0, 0.0, 0.0, 0.0, 9.964537640080543e-07, 0.0, 0.0, 0.0, 0.0, -9.243098440543966e-24, 0.0, 9.964537640080543e-07, 0.0, 0.0, 0.0, 0.0, 0.0, 0.0, 0.0007400009999994807]"
11239000000,,95,,11,239000000,turtlebot2/odom,turtlebot2/base_footprint_distributed,,,,0.174064049545,0.0,0.0,,0.0,0.0,0.0,1.0,"[0.18845004467719384, 0.0, 0.0, 0.0, 0.0, 0.0, 0.0, 0.20205014641444546, 0.0, 0.0, 0.0, 0.052974786075843716, 0.0, 0.0, 9.984894256543703e-07, 0.0, -9.62618940993337e-15, 0.0, 0.0, 0.0, 0.0, 9.96987948021057e-07, 0.0, 0.0, 0.0, 0.0, -9.62618940993337e-15, 0.0, 9.969879480209957e-07, 0.0, 0.0, 0.05297478607584371, 0.0, 0.0, 0.0, 0.22591464418847815]",,,,-0.855180156553,0.0,0.0,,0.0,0.0,0.0,"[0.0003735925672705211, 0.0, 0.0, 0.0, 0.0, 0.0, 0.0, 0.0002769168677111063, 0.0, 0.0, 0.0, 0.0, 0.0, 0.0, 9.97737555112838e-07, 0.0, -2.3445669999051472e-23, 0.0, 0.0, 0.0, 0.0, 9.910713003736766e-07, 0.0, 0.0, 0.0, 0.0, -2.3445669999051478e-23, 0.0, 9.910713003736766e-07, 0.0, 0.0, 0.0, 0.0, 0.0, 0.0, 0.0002200009999994796]"
11339000000,,96,,11,339000000,turtlebot2/odom,turtlebot2/base_footprint_distributed,,,,0.139704272298,0.0,0.0,,0.0,0.0,0.0,1.0,"[0.19350700408570817, 0.0, 0.0, 0.0, 0.0, 0.0, 0.0, 0.19946644056430235, 0.0, 0.0, 0.0, 0.0327669228630641, 0.0, 0.0, 9.981549779951223e-07, 0.0, 5.377865975944904e-14, 0.0, 0.0, 0.0, 0.0, 9.963234984574603e-07, 0.0, 0.0, 0.0, 0.0, 5.377865975944902e-14, 0.0, 9.963234984558928e-07, 0.0, 0.0, 0.03276692286306409, 0.0, 0.0, 0.0, 0.23197595246380037]",,,,0.0537898559748,0.0,0.0,,0.0,0.0,0.0,"[0.0004259968486153037, 0.0, 0.0, 0.0, 0.0, 0.0, 0.0, 0.0002262864070796169, 0.0, 0.0, 0.0, 0.0, 0.0, 0.0, 9.97237556091981e-07, 0.0, 1.287467630833457e-22, 0.0, 0.0, 0.0, 0.0, 9.8912960265244e-07, 0.0, 0.0, 0.0, 0.0, 1.2874676308334568e-22, 0.0, 9.8912960265244e-07, 0.0, 0.0, 0.0, 0.0, 0.0, 0.0, 0.00018000099999952138]"
11439000000,,97,,11,439000000,turtlebot2/odom,turtlebot2/base_footprint_distributed,,,,0.155859093021,0.0,0.0,,0.0,0.0,0.0,1.0,"[0.19986867399013453, 0.0, 0.0, 0.0, 0.0, 0.0, 0.0, 0.20653840362018155, 0.0, 0.0, 0.0, 0.0352010257769078, 0.0, 0.0, 9.993834774116917e-07, 0.0, -3.806851343708784e-15, 0.0, 0.0, 0.0, 0.0, 9.987684735016751e-07, 0.0, 0.0, 0.0, 0.0, -3.8068513437087835e-15, 0.0, 9.987684735016516e-07, 0.0, 0.0, 0.035201025776907785, 0.0, 0.0, 0.0, 0.23960031370740384]",,,,0.187188114793,0.0,0.0,,0.0,0.0,0.0,"[0.0009918374733705604, 0.0, 0.0, 0.0, 0.0, 0.0, 0.0, 0.0036956964519216976, 0.0, 0.0, 0.0, 0.0, 0.0, 0.0, 9.990757859891848e-07, 0.0, -9.412063871510814e-24, 0.0, 0.0, 0.0, 0.0, 9.96323515910001e-07, 0.0, 0.0, 0.0, 0.0, -9.412063871510816e-24, 0.0, 9.96323515910001e-07, 0.0, 0.0, 0.0, 0.0, 0.0, 0.0, 0.002720000999999499]"
11539000000,,98,,11,539000000,turtlebot2/odom,turtlebot2/base_footprint_distributed,,,,0.158368983975,0.0,0.0,,0.0,0.0,0.0,1.0,"[0.2005199500339427, 0.0, 0.0, 0.0, 0.0, 0.0, 0.0, 0.20735148617543964, 0.0, 0.0, 0.0, 0.03578552948137628, 0.0, 0.0, 9.98721226898591e-07, 0.0, -7.948388457874317e-15, 0.0, 0.0, 0.0, 0.0, 9.97448972664915e-07, 0.0, 0.0, 0.0, 0.0, -7.948388457874317e-15, 0.0, 9.974489726648655e-07, 0.0, 0.0, 0.03578552948137627, 0.0, 0.0, 0.0, 0.24037854579258813]",,,,0.189678073148,0.0,0.0,,0.0,0.0,0.0,"[0.0013267905462139027, 0.0, 0.0, 0.0, 0.0, 0.0, 0.0, 9.999997549452937e-10, 0.0, 0.0, 0.0, 0.0, 0.0, 0.0, 9.980842884107023e-07, 0.0, -1.9336146991281007e-23, 0.0, 0.0, 0.0, 0.0, 9.92424031392649e-07, 0.0, 0.0, 0.0, 0.0, -1.9336146991281013e-23, 0.0, 9.92424031392649e-07, 0.0, 0.0, 0.0, 0.0, 0.0, 0.0, 9.999996644297555e-10]"
11639000000,,99,,11,639000000,turtlebot2/odom,turtlebot2/base_footprint_distributed,,,,0.185514622932,0.0,0.0,,0.0,0.0,0.0,1.0,"[0.20738750102888046, 0.0, 0.0, 0.0, 0.0, 0.0, 0.0, 0.21630275701240703, 0.0, 0.0, 0.0, 0.042287696100282, 0.0, 0.0, 9.994450606010543e-07, 0.0, -3.7551006756149854e-15, 0.0, 0.0, 0.0, 0.0, 9.988913478395208e-07, 0.0, 0.0, 0.0, 0.0, -3.755100675614986e-15, 0.0, 9.988913478394953e-07, 0.0, 0.0, 0.04228769610028198, 0.0, 0.0, 0.0, 0.24859867181148868]",,,,0.203422484577,0.0,0.0,,0.0,0.0,0.0,"[0.0003830866830655845, 0.0, 0.0, 0.0, 0.0, 0.0, 0.0, 0.0009469266529537582, 0.0, 0.0, 0.0, 0.0, 0.0, 0.0, 9.991680514056192e-07, 0.0, -9.024631898761696e-24, 0.0, 0.0, 0.0, 0.0, 9.966885894183298e-07, 0.0, 0.0, 0.0, 0.0, -9.024631898761693e-24, 0.0, 9.966885894183298e-07, 0.0, 0.0, 0.0, 0.0, 0.0, 0.0, 0.0007400009999994808]"
11739000000,,100,,11,739000000,turtlebot2/odom,turtlebot2/base_footprint_distributed,,,,0.215026134745,0.0,0.0,,0.0,0.0,0.0,1.0,"[0.21469601088832443, 0.0, 0.0, 0.0, 0.0, 0.0, 0.0, 0.22636119675056723, 0.0, 0.0, 0.0, 0.049784179558150524, 0.0, 0.0, 9.997807980701243e-07, 0.0, -1.480947241434992e-15, 0.0, 0.0, 0.0, 0.0, 9.995617880919e-07, 0.0, 0.0, 0.0, 0.0, -1.4809472414349909e-15, 0.0, 9.995617880918897e-07, 0.0, 0.0, 0.049784179558150496, 0.0, 0.0, 0.0, 0.25736165539123607]",,,,0.205785171428,0.0,0.0,,0.0,0.0,0.0,"[0.0004277943602696501, 0.0, 0.0, 0.0, 0.0, 0.0, 0.0, 0.002185497118763778, 0.0, 0.0, 0.0, 0.0, 0.0, 0.0, 9.99671269136507e-07, 0.0, -3.585646747899369e-24, 0.0, 0.0, 0.0, 0.0, 9.98687640116993e-07, 0.0, 0.0, 0.0, 0.0, -3.5856467478993695e-24, 0.0, 9.98687640116993e-07, 0.0, 0.0, 0.0, 0.0, 0.0, 0.0, 0.0016600009999995038]"
11839000000,,101,,11,839000000,turtlebot2/odom,turtlebot2/base_footprint_distributed,,,,0.235587051663,0.0,0.0,,0.0,0.0,0.0,1.0,"[0.2198506357435051, 0.0, 0.0, 0.0, 0.0, 0.0, 0.0, 0.23375682198854816, 0.0, 0.0, 0.0, 0.055302974994996104, 0.0, 0.0, 9.99383476687356e-07, 0.0, -4.126814784300722e-15, 0.0, 0.0, 0.0, 0.0, 9.987684677274121e-07, 0.0, 0.0, 0.0, 0.0, -4.126814784300724e-15, 0.0, 9.987684677273846e-07, 0.0, 0.0, 0.05530297499499608, 0.0, 0.0, 0.0, 0.2635458428738056]",,,,0.19698367884,0.0,0.0,,0.0,0.0,0.0,"[0.000267298383266244, 0.0, 0.0, 0.0, 0.0, 0.0, 0.0, 0.0008946751564551839, 0.0, 0.0, 0.0, 0.0, 0.0, 0.0, 9.990757835452491e-07, 0.0, -9.946815422742544e-24, 0.0, 0.0, 0.0, 0.0, 9.963233645549986e-07, 0.0, 0.0, 0.0, 0.0, -9.946815422742547e-24, 0.0, 9.963233645549986e-07, 0.0, 0.0, 0.0, 0.0, 0.0, 0.0, 0.0007000009999996717]"
11947000000,,102,,11,939000000,turtlebot2/odom,turtlebot2/base_footprint_distributed,,,,0.250800029488,0.0,0.0,,0.0,0.0,0.0,1.0,"[0.2237052660471103, 0.0, 0.0, 0.0, 0.0, 0.0, 0.0, 0.2393805707936732, 0.0, 0.0, 0.0, 0.05934750108901005, 0.0, 0.0, 9.997836437041434e-07, 0.0, -1.4343551528795482e-15, 0.0, 0.0, 0.0, 0.0, 9.995674749217365e-07, 0.0, 0.0, 0.0, 0.0, -1.434355152879549e-15, 0.0, 9.99567474921727e-07, 0.0, 0.0, 0.05934750108901003, 0.0, 0.0, 0.0, 0.26817065847142335]",,,,0.19812354358,0.0,0.0,,0.0,0.0,0.0,"[0.00031557457262626487, 0.0, 0.0, 0.0, 0.0, 0.0, 0.0, 0.0030033329810200964, 0.0, 0.0, 0.0, 0.0, 0.0, 0.0, 9.99675535891329e-07, 0.0, -3.555389526261214e-24, 0.0, 0.0, 0.0, 0.0, 9.987046570391174e-07, 0.0, 0.0, 0.0, 0.0, -3.555389526261215e-24, 0.0, 9.987046570391174e-07, 0.0, 0.0, 0.0, 0.0, 0.0, 0.0, 0.002240000999999671]"
12039000000,,103,,12,39000000,turtlebot2/odom,turtlebot2/base_footprint_distributed,,,,0.265192688464,0.0,0.0,,0.0,0.0,0.0,1.0,"[0.2273081124262438, 0.0, 0.0, 0.0, 0.0, 0.0, 0.0, 0.2447361776680595, 0.0, 0.0, 0.0, 0.06321441391329742, 0.0, 0.0, 9.99510284218135e-07, 0.0, -3.251293075241337e-15, 0.0, 0.0, 0.0, 0.0, 9.9902152668108e-07, 0.0, 0.0, 0.0, 0.0, -3.2512930752413373e-15, 0.0, 9.990215266810581e-07, 0.0, 0.0, 0.06321441391329741, 0.0, 0.0, 0.0, 0.27249146897001614]",,,,0.202413222593,0.0,0.0,,0.0,0.0,0.0,"[0.00040657418359295756, 0.0, 0.0, 0.0, 0.0, 0.0, 0.0, 0.000868527717035983, 0.0, 0.0, 0.0, 0.0, 0.0, 0.0, 9.992657858757723e-07, 0.0, -8.026053647647388e-24, 0.0, 0.0, 0.0, 0.0, 9.970760010006904e-07, 0.0, 0.0, 0.0, 0.0, -8.026053647647391e-24, 0.0, 9.970760010006904e-07, 0.0, 0.0, 0.0, 0.0, 0.0, 0.0, 0.000680000999999645]"
12139000000,,104,,12,139000000,turtlebot2/odom,turtlebot2/base_footprint_distributed,,,,0.295650999364,0.0,0.0,,0.0,0.0,0.0,1.0,"[0.23481709158575279, 0.0, 0.0, 0.0, 0.0, 0.0, 0.0, 0.25641713768702834, 0.0, 0.0, 0.0, 0.07173028226300251, 0.0, 0.0, 9.995242628084369e-07, 0.0, -3.3035487494644294e-15, 0.0, 0.0, 0.0, 0.0, 9.990494300596297e-07, 0.0, 0.0, 0.0, 0.0, -3.3035487494644297e-15, 0.0, 9.99049430059607e-07, 0.0, 0.0, 0.07173028226300249, 0.0, 0.0, 0.0, 0.28149653609127545]",,,,0.202839086483,0.0,0.0,,0.0,0.0,0.0,"[0.00042569073505130086, 0.0, 0.0, 0.0, 0.0, 0.0, 0.0, 0.0008946477130920833, 0.0, 0.0, 0.0, 0.0, 0.0, 0.0, 9.992867335635712e-07, 0.0, -8.162611876161078e-24, 0.0, 0.0, 0.0, 0.0, 9.971590722172283e-07, 0.0, 0.0, 0.0, 0.0, -8.162611876161083e-24, 0.0, 9.971590722172283e-07, 0.0, 0.0, 0.0, 0.0, 0.0, 0.0, 0.0007000009999996673]"
12240000000,,105,,12,239000000,turtlebot2/odom,turtlebot2/base_footprint_distributed,,,,0.315822997496,0.0,0.0,,0.0,0.0,0.0,1.0,"[0.23982170109803033, 0.0, 0.0, 0.0, 0.0, 0.0, 0.0, 0.2644823173336226, 0.0, 0.0, 0.0, 0.07753475033697145, 0.0, 0.0, 9.994054692331583e-07, 0.0, -4.016642925846703e-15, 0.0, 0.0, 0.0, 0.0, 9.98812346803922e-07, 0.0, 0.0, 0.0, 0.0, -4.0166429258467025e-15, 0.0, 9.988123468038948e-07, 0.0, 0.0, 0.07753475033697142, 0.0, 0.0, 0.0, 0.28749851508664553]",,,,0.202013329705,0.0,0.0,,0.0,0.0,0.0,"[0.00026102189148249514, 0.0, 0.0, 0.0, 0.0, 0.0, 0.0, 0.0009208563412670382, 0.0, 0.0, 0.0, 0.0, 0.0, 0.0, 9.991087325517647e-07, 0.0, -9.684704423355296e-24, 0.0, 0.0, 0.0, 0.0, 9.964537473367821e-07, 0.0, 0.0, 0.0, 0.0, -9.684704423355291e-24, 0.0, 9.964537473367821e-07, 0.0, 0.0, 0.0, 0.0, 0.0, 0.0, 0.0007200009999994867]"
12340000000,,106,,12,339000000,turtlebot2/odom,turtlebot2/base_footprint_distributed,,,,0.330917728308,0.0,0.0,,0.0,0.0,0.0,1.0,"[0.24357510305783547, 0.0, 0.0, 0.0, 0.0, 0.0, 0.0, 0.2706562371612828, 0.0, 0.0, 0.0, 0.08190563408012931, 0.0, 0.0, 9.981549809757491e-07, 0.0, -1.1787130884936524e-14, 0.0, 0.0, 0.0, 0.0, 9.963235236734973e-07, 0.0, 0.0, 0.0, 0.0, -1.1787130884936521e-14, 0.0, 9.96323523673422e-07, 0.0, 0.0, 0.08190563408012927, 0.0, 0.0, 0.0, 0.29200091728403005]",,,,0.201919789524,0.0,0.0,,0.0,0.0,0.0,"[0.0002989902406776544, 0.0, 0.0, 0.0, 0.0, 0.0, 0.0, 0.00022630082928406728, 0.0, 0.0, 0.0, 0.0, 0.0, 0.0, 9.972375667842749e-07, 0.0, -2.857245753089304e-23, 0.0, 0.0, 0.0, 0.0, 9.891302562731777e-07, 0.0, 0.0, 0.0, 0.0, -2.857245753089304e-23, 0.0, 9.891302562731777e-07, 0.0, 0.0, 0.0, 0.0, 0.0, 0.0, 0.0001800009999995166]"
12439000000,,107,,12,439000000,turtlebot2/odom,turtlebot2/base_footprint_distributed,,,,0.349550668257,0.0,0.0,,0.0,0.0,0.0,1.0,"[0.24818072064291846, 0.0, 0.0, 0.0, 0.0, 0.0, 0.0, 0.278425684813405, 0.0, 0.0, 0.0, 0.08738146550071917, 0.0, 0.0, 9.989604990109357e-07, 0.0, -6.942123886073644e-15, 0.0, 0.0, 0.0, 0.0, 9.979253104107948e-07, 0.0, 0.0, 0.0, 0.0, -6.942123886073644e-15, 0.0, 9.979253104107486e-07, 0.0, 0.0, 0.08738146550071911, 0.0, 0.0, 0.0, 0.2975220026204801]",,,,0.20433745534,0.0,0.0,,0.0,0.0,0.0,"[0.0008204335766926876, 0.0, 0.0, 0.0, 0.0, 0.0, 0.0, 9.999996282051476e-10, 0.0, 0.0, 0.0, 0.0, 0.0, 0.0, 9.984423674210354e-07, 0.0, -1.7039788440022344e-23, 0.0, 0.0, 0.0, 0.0, 9.93827110467343e-07, 0.0, 0.0, 0.0, 0.0, -1.703978844002235e-23, 0.0, 9.93827110467343e-07, 0.0, 0.0, 0.0, 0.0, 0.0, 0.0, 9.999995049509852e-10]"
12539000000,,108,,12,539000000,turtlebot2/odom,turtlebot2/base_footprint_distributed,,,,0.369788540437,0.0,0.0,,0.0,0.0,0.0,1.0,"[0.2531848217950415, 0.0, 0.0, 0.0, 0.0, 0.0, 0.0, 0.2871194064067826, 0.0, 0.0, 0.0, 0.09349087805316496, 0.0, 0.0, 9.989604986275902e-07, 0.0, -7.013563322582904e-15, 0.0, 0.0, 0.0, 0.0, 9.979253073585472e-07, 0.0, 0.0, 0.0, 0.0, -7.013563322582903e-15, 0.0, 9.979253073584995e-07, 0.0, 0.0, 0.0934908780531649, 0.0, 0.0, 0.0, 0.3035226510649877]",,,,0.206012270947,0.0,0.0,,0.0,0.0,0.0,"[0.0006689187066422812, 0.0, 0.0, 0.0, 0.0, 0.0, 0.0, 9.999996243069003e-10, 0.0, 0.0, 0.0, 0.0, 0.0, 0.0, 9.984423661297729e-07, 0.0, -1.713330226017836e-23, 0.0, 0.0, 0.0, 0.0, 9.938270299771868e-07, 0.0, 0.0, 0.0, 0.0, -1.7133302260178363e-23, 0.0, 9.938270299771868e-07, 0.0, 0.0, 0.0, 0.0, 0.0, 0.0, 9.999995000005001e-10]"
12639000000,,109,,12,639000000,turtlebot2/odom,turtlebot2/base_footprint_distributed,,,,0.396498538168,0.0,0.0,,0.0,0.0,0.0,1.0,"[0.25979255188987654, 0.0, 0.0, 0.0, 0.0, 0.0, 0.0, 0.2990294929561982, 0.0, 0.0, 0.0, 0.10176586833096166, 0.0, 0.0, 9.997807981705966e-07, 0.0, -1.4865969276555777e-15, 0.0, 0.0, 0.0, 0.0, 9.995617888969183e-07, 0.0, 0.0, 0.0, 0.0, -1.4865969276555777e-15, 0.0, 9.995617888969086e-07, 0.0, 0.0, 0.10176586833096159, 0.0, 0.0, 0.0, 0.3114491202101707]",,,,0.203324569434,0.0,0.0,,0.0,0.0,0.0,"[0.0004210898276261417, 0.0, 0.0, 0.0, 0.0, 0.0, 0.0, 0.0035829158524064856, 0.0, 0.0, 0.0, 0.0, 0.0, 0.0, 9.99671269476592e-07, 0.0, -3.7001583243888566e-24, 0.0, 0.0, 0.0, 0.0, 9.986876609731517e-07, 0.0, 0.0, 0.0, 0.0, -3.700158324388857e-24, 0.0, 9.986876609731517e-07, 0.0, 0.0, 0.0, 0.0, 0.0, 0.0, 0.002640000999999494]"
12739000000,,110,,12,739000000,turtlebot2/odom,turtlebot2/base_footprint_distributed,,,,0.41696930187,0.0,0.0,,0.0,0.0,0.0,1.0,"[0.264846965350408, 0.0, 0.0, 0.0, 0.0, 0.0, 0.0, 0.3084153925364076, 0.0, 0.0, 0.0, 0.10822863103014206, 0.0, 0.0, 9.997864162419e-07, 0.0, -1.4512816974321444e-15, 0.0, 0.0, 0.0, 0.0, 9.995730147499548e-07, 0.0, 0.0, 0.0, 0.0, -1.4512816974321448e-15, 0.0, 9.995730147499448e-07, 0.0, 0.0, 0.10822863103014198, 0.0, 0.0, 0.0, 0.3175078917364061]",,,,0.201906614686,0.0,0.0,,0.0,0.0,0.0,"[0.00029256024397315795, 0.0, 0.0, 0.0, 0.0, 0.0, 0.0, 0.0022414938804468034, 0.0, 0.0, 0.0, 0.0, 0.0, 0.0, 9.996796927586971e-07, 0.0, -3.514872087038067e-24, 0.0, 0.0, 0.0, 0.0, 9.987212049030736e-07, 0.0, 0.0, 0.0, 0.0, -3.5148720870380655e-24, 0.0, 9.987212049030736e-07, 0.0, 0.0, 0.0, 0.0, 0.0, 0.0, 0.0017000009999996435]"
12840000000,,111,,12,840000000,turtlebot2/odom,turtlebot2/base_footprint_distributed,,,,0.437156215196,0.0,0.0,,0.0,0.0,0.0,1.0,"[0.2699013624256035, 0.0, 0.0, 0.0, 0.0, 0.0, 0.0, 0.31800713513723505, 0.0, 0.0, 0.0, 0.11471448404235464, 0.0, 0.0, 9.997864162550706e-07, 0.0, -1.4259283849977204e-15, 0.0, 0.0, 0.0, 0.0, 9.995730148584383e-07, 0.0, 0.0, 0.0, 0.0, -1.4259283849977204e-15, 0.0, 9.99573014858429e-07, 0.0, 0.0, 0.11471448404235456, 0.0, 0.0, 0.0, 0.32356891207825417]",,,,0.20120927024,0.0,0.0,,0.0,0.0,0.0,"[0.0002892956183981625, 0.0, 0.0, 0.0, 0.0, 0.0, 0.0, 0.0022693625421909484, 0.0, 0.0, 0.0, 0.0, 0.0, 0.0, 9.996796928046078e-07, 0.0, -3.466958553120181e-24, 0.0, 0.0, 0.0, 0.0, 9.987212076732462e-07, 0.0, 0.0, 0.0, 0.0, -3.466958553120182e-24, 0.0, 9.987212076732462e-07, 0.0, 0.0, 0.0, 0.0, 0.0, 0.0, 0.0017200009999995061]"
12940000000,,112,,12,940000000,turtlebot2/odom,turtlebot2/base_footprint_distributed,,,,0.441612991002,0.0,0.0,,0.0,0.0,0.0,1.0,"[0.27105130027670127, 0.0, 0.0, 0.0, 0.0, 0.0, 0.0, 0.3202204163456619, 0.0, 0.0, 0.0, 0.11620961991843085, 0.0, 0.0, 9.981549777923441e-07, 0.0, -1.215314983502926e-14, 0.0, 0.0, 0.0, 0.0, 9.963234984574603e-07, 0.0, 0.0, 0.0, 0.0, -1.2153149835029261e-14, 0.0, 9.963234984573804e-07, 0.0, 0.0, 0.11620961991843076, 0.0, 0.0, 0.0, 0.3249489303213247]",,,,0.197915332498,0.0,0.0,,0.0,0.0,0.0,"[0.00023959636506522866, 0.0, 0.0, 0.0, 0.0, 0.0, 0.0, 0.00022630349224355448, 0.0, 0.0, 0.0, 0.0, 0.0, 0.0, 9.97237556091981e-07, 0.0, -2.909478002170124e-23, 0.0, 0.0, 0.0, 0.0, 9.8912960265244e-07, 0.0, 0.0, 0.0, 0.0, -2.9094780021701266e-23, 0.0, 9.8912960265244e-07, 0.0, 0.0, 0.0, 0.0, 0.0, 0.0, 0.00018000099999950682]"
13039000000,,113,,13,39000000,turtlebot2/odom,turtlebot2/base_footprint_distributed,,,,0.470099099323,0.0,0.0,,0.0,0.0,0.0,1.0,"[0.2784603231087325, 0.0, 0.0, 0.0, 0.0, 0.0, 0.0, 0.33467572801672907, 0.0, 0.0, 0.0, 0.12574457171981301, 0.0, 0.0, 9.99207606969501e-07, 0.0, -5.117432174051606e-15, 0.0, 0.0, 0.0, 0.0, 9.984177203009906e-07, 0.0, 0.0, 0.0, 0.0, -5.117432174051607e-15, 0.0, 9.984177203009573e-07, 0.0, 0.0, 0.12574457171981293, 0.0, 0.0, 0.0, 0.33383060428475]",,,,0.186929360425,0.0,0.0,,0.0,0.0,0.0,"[0.0003129141287001383, 0.0, 0.0, 0.0, 0.0, 0.0, 0.0, 0.0014774641889078724, 0.0, 0.0, 0.0, 0.0, 0.0, 0.0, 9.98812351184224e-07, 0.0, -1.2567245717985184e-23, 0.0, 0.0, 0.0, 0.0, 9.952829573876537e-07, 0.0, 0.0, 0.0, 0.0, -1.2567245717985184e-23, 0.0, 9.952829573876537e-07, 0.0, 0.0, 0.0, 0.0, 0.0, 0.0, 0.0011400009999995076]"
13139000000,,114,,13,139000000,turtlebot2/odom,turtlebot2/base_footprint_distributed,,,,0.476637121799,0.0,0.0,,0.0,0.0,0.0,1.0,"[0.28501761984645135, 0.0, 0.0, 0.0, 0.0, 0.0, 0.0, 0.3461507952228138, 0.0, 0.0, 0.0, 0.13213929368739555, 0.0, 0.0, 9.994259473677158e-07, 0.0, 2.1615277016182228e-16, 0.0, 0.0, 0.0, 0.0, 9.988532113413112e-07, 0.0, 0.0, 0.0, 0.0, 2.1615277016182238e-16, 0.0, 9.988532113413112e-07, 0.0, 0.0, 0.1321392936873954, 0.0, 0.0, 0.0, 0.3416930697835242]",,,,-0.0103075494888,0.0,0.0,,0.0,0.0,0.0,"[0.00033830297185867536, 0.0, 0.0, 0.0, 0.0, 0.0, 0.0, 0.002269456949874734, 0.0, 0.0, 0.0, 0.0, 0.0, 0.0, 9.991394150978681e-07, 0.0, 5.338507334943174e-25, 0.0, 0.0, 0.0, 0.0, 9.965753219502944e-07, 0.0, 0.0, 0.0, 0.0, 5.338507334943176e-25, 0.0, 9.965753219502944e-07, 0.0, 0.0, 0.0, 0.0, 0.0, 0.0, 0.0017200009999995159]"
13239000000,,115,,13,239000000,turtlebot2/odom,turtlebot2/base_footprint_distributed,,,,0.475877802987,0.0,0.0,,0.0,0.0,0.0,1.0,"[0.288570810689648, 0.0, 0.0, 0.0, 0.0, 0.0, 0.0, 0.34944460877774763, 0.0, 0.0, 0.0, 0.131803778439887, 0.0, 0.0, 9.98154980910173e-07, 0.0, 1.0335017659091796e-15, 0.0, 0.0, 0.0, 0.0, 9.963235232338908e-07, 0.0, 0.0, 0.0, 0.0, 1.0335017659091788e-15, 0.0, 9.963235232338903e-07, 0.0, 0.0, 0.13180377843988683, 0.0, 0.0, 0.0, 0.345957187636763]",,,,-0.0126579980314,0.0,0.0,,0.0,0.0,0.0,"[0.00028352256419611217, 0.0, 0.0, 0.0, 0.0, 0.0, 0.0, 0.00022630403252132334, 0.0, 0.0, 0.0, 0.0, 0.0, 0.0, 9.9723756659804e-07, 0.0, 2.5046966876700605e-24, 0.0, 0.0, 0.0, 0.0, 9.891302447955052e-07, 0.0, 0.0, 0.0, 0.0, 2.504696687670061e-24, 0.0, 9.891302447955052e-07, 0.0, 0.0, 0.0, 0.0, 0.0, 0.0, 0.00018000099999966897]"
13339000000,,116,,13,339000000,turtlebot2/odom,turtlebot2/base_footprint_distributed,,,,0.475221275265,0.0,0.0,,0.0,0.0,0.0,1.0,"[0.293525582083886, 0.0, 0.0, 0.0, 0.0, 0.0, 0.0, 0.3540353641071712, 0.0, 0.0, 0.0, 0.13132597462603987, 0.0, 0.0, 9.97925306365424e-07, 0.0, 4.1818853466787005e-16, 0.0, 0.0, 0.0, 0.0, 9.958677292038076e-07, 0.0, 0.0, 0.0, 0.0, 4.1818853466786985e-16, 0.0, 9.958677292038074e-07, 0.0, 0.0, 0.1313259746260397, 0.0, 0.0, 0.0, 0.3518982603489743]",,,,-0.00406533532292,0.0,0.0,,0.0,0.0,0.0,"[0.00024372792906833784, 0.0, 0.0, 0.0, 0.0, 0.0, 0.0, 0.00020103085964151823, 0.0, 0.0, 0.0, 0.0, 0.0, 0.0, 9.968943933845047e-07, 0.0, 9.977428412198755e-25, 0.0, 0.0, 0.0, 0.0, 9.878038305794961e-07, 0.0, 0.0, 0.0, 0.0, 9.977428412198744e-25, 0.0, 9.878038305794961e-07, 0.0, 0.0, 0.0, 0.0, 0.0, 0.0, 0.0001600009999994824]"
13439000000,,117,,13,439000000,turtlebot2/odom,turtlebot2/base_footprint_distributed,,,,0.475014431847,0.0,0.0,,0.0,0.0,0.0,1.0,"[0.29852999035237265, 0.0, 0.0, 0.0, 0.0, 0.0, 0.0, 0.3588518323432001, 0.0, 0.0, 0.0, 0.13107422768575613, 0.0, 0.0, 9.976303261901717e-07, 0.0, 5.582133162426707e-16, 0.0, 0.0, 0.0, 0.0, 9.952829737744564e-07, 0.0, 0.0, 0.0, 0.0, 5.582133162426709e-16, 0.0, 9.952829737744564e-07, 0.0, 0.0, 0.13107422768575597, 0.0, 0.0, 0.0, 0.3578992652556676]",,,,0.00011445470641,0.0,0.0,,0.0,0.0,0.0,"[0.00023974796985618357, 0.0, 0.0, 0.0, 0.0, 0.0, 0.0, 0.00017578968663270909, 0.0, 0.0, 0.0, 0.0, 0.0, 0.0, 9.964538817286393e-07, 0.0, 1.3286406722688745e-24, 0.0, 0.0, 0.0, 0.0, 9.861099202070783e-07, 0.0, 0.0, 0.0, 0.0, 1.3286406722688747e-24, 0.0, 9.861099202070783e-07, 0.0, 0.0, 0.0, 0.0, 0.0, 0.0, 0.0001400009999994984]"
13539000000,,118,,13,539000000,turtlebot2/odom,turtlebot2/base_footprint_distributed,,,,0.47496475524,0.0,0.0,,0.0,0.0,0.0,1.0,"[0.30248466159746035, 0.0, 0.0, 0.0, 0.0, 0.0, 0.0, 0.36274790941722296, 0.0, 0.0, 0.0, 0.13099181799436876, 0.0, 0.0, 9.997891186869154e-07, 0.0, 2.0374561930779464e-17, 0.0, 0.0, 0.0, 0.0, 9.99578415093903e-07, 0.0, 0.0, 0.0, 0.0, 2.0374561930779455e-17, 0.0, 9.995784150939028e-07, 0.0, 0.0, 0.13099181799436857, 0.0, 0.0, 0.0, 0.3626401390061058]",,,,-0.00118718862652,0.0,0.0,,0.0,0.0,0.0,"[0.00029874256637207365, 0.0, 0.0, 0.0, 0.0, 0.0, 0.0, 0.0022694800776265384, 0.0, 0.0, 0.0, 0.0, 0.0, 0.0, 9.996837447285856e-07, 0.0, 4.9351789862656457e-26, 0.0, 0.0, 0.0, 0.0, 9.987373515889925e-07, 0.0, 0.0, 0.0, 0.0, 4.9351789862656457e-26, 0.0, 9.987373515889925e-07, 0.0, 0.0, 0.0, 0.0, 0.0, 0.0, 0.0017200009999995109]"
13639000000,,119,,13,639000000,turtlebot2/odom,turtlebot2/base_footprint_distributed,,,,0.474876577216,0.0,0.0,,0.0,0.0,0.0,1.0,"[0.3098434212633227, 0.0, 0.0, 0.0, 0.0, 0.0, 0.0, 0.3699594081866371, 0.0, 0.0, 0.0, 0.13078545464131863, 0.0, 0.0, 9.997836436103467e-07, 0.0, 2.8115615911313006e-17, 0.0, 0.0, 0.0, 0.0, 9.99567474258394e-07, 0.0, 0.0, 0.0, 0.0, 2.811561591131302e-17, 0.0, 9.99567474258394e-07, 0.0, 0.0, 0.1307854546413185, 0.0, 0.0, 0.0, 0.37146440371062456]",,,,-0.00109677542739,0.0,0.0,,0.0,0.0,0.0,"[0.000411064706365093, 0.0, 0.0, 0.0, 0.0, 0.0, 0.0, 0.0022140686625650593, 0.0, 0.0, 0.0, 0.0, 0.0, 0.0, 9.996755356110155e-07, 0.0, 6.80814743786081e-26, 0.0, 0.0, 0.0, 0.0, 9.98704639903189e-07, 0.0, 0.0, 0.0, 0.0, 6.808147437860805e-26, 0.0, 9.98704639903189e-07, 0.0, 0.0, 0.0, 0.0, 0.0, 0.0, 0.0016800009999996572]"
13739000000,,120,,13,739000000,turtlebot2/odom,turtlebot2/base_footprint_distributed,,,,0.474881114117,0.0,0.0,,0.0,0.0,0.0,1.0,"[0.31489774791789815, 0.0, 0.0, 0.0, 0.0, 0.0, 0.0, 0.3749368102639404, 0.0, 0.0, 0.0, 0.13067631438169966, 0.0, 0.0, 9.99780798084084e-07, 0.0, 2.3396356009500477e-17, 0.0, 0.0, 0.0, 0.0, 9.995617882950421e-07, 0.0, 0.0, 0.0, 0.0, 2.339635600950048e-17, 0.0, 9.995617882950423e-07, 0.0, 0.0, 0.13067631438169952, 0.0, 0.0, 0.0, 0.3775255093029109]",,,,-0.000721319493596,0.0,0.0,,0.0,0.0,0.0,"[0.00029508906247071134, 0.0, 0.0, 0.0, 0.0, 0.0, 0.0, 0.002241913063740331, 0.0, 0.0, 0.0, 0.0, 0.0, 0.0, 9.996712692224666e-07, 0.0, 5.704442461892337e-26, 0.0, 0.0, 0.0, 0.0, 9.986876453163622e-07, 0.0, 0.0, 0.0, 0.0, 5.704442461892338e-26, 0.0, 9.986876453163622e-07, 0.0, 0.0, 0.0, 0.0, 0.0, 0.0, 0.0017000009999994816]"
13840000000,,121,,13,839000000,turtlebot2/odom,turtlebot2/base_footprint_distributed,,,,0.474885108712,0.0,0.0,,0.0,0.0,0.0,1.0,"[0.31850149015311807, 0.0, 0.0, 0.0, 0.0, 0.0, 0.0, 0.378480185044442, 0.0, 0.0, 0.0, 0.13059533637580498, 0.0, 0.0, 9.997025581863344e-07, 0.0, 3.4307778553596e-17, 0.0, 0.0, 0.0, 0.0, 9.99405470045308e-07, 0.0, 0.0, 0.0, 0.0, 3.4307778553596015e-17, 0.0, 9.99405470045308e-07, 0.0, 0.0, 0.13059533637580487, 0.0, 0.0, 0.0, 0.38184555495380174]",,,,-0.000926710138923,0.0,0.0,,0.0,0.0,0.0,"[0.000400701582368904, 0.0, 0.0, 0.0, 0.0, 0.0, 0.0, 0.001450524260245587, 0.0, 0.0, 0.0, 0.0, 0.0, 0.0, 9.995539699804463e-07, 0.0, 8.433651217799448e-26, 0.0, 0.0, 0.0, 0.0, 9.98220621019241e-07, 0.0, 0.0, 0.0, 0.0, 8.433651217799452e-26, 0.0, 9.98220621019241e-07, 0.0, 0.0, 0.0, 0.0, 0.0, 0.0, 0.0011200009999995236]"
13939000000,,122,,13,939000000,turtlebot2/odom,turtlebot2/base_footprint_distributed,,,,0.474966938729,0.0,0.0,,0.0,0.0,0.0,1.0,"[0.32355514376089184, 0.0, 0.0, 0.0, 0.0, 0.0, 0.0, 0.3834577618261211, 0.0, 0.0, 0.0, 0.130484018913872, 0.0, 0.0, 9.992764110186553e-07, 0.0, 3.795921358976609e-17, 0.0, 0.0, 0.0, 0.0, 9.985549123482184e-07, 0.0, 0.0, 0.0, 0.0, 3.7959213589766097e-17, 0.0, 9.985549123482184e-07, 0.0, 0.0, 0.1304840189138719, 0.0, 0.0, 0.0, 0.3879068687445935]",,,,-0.000504897719489,0.0,0.0,,0.0,0.0,0.0,"[0.0002514069566444216, 0.0, 0.0, 0.0, 0.0, 0.0, 0.0, 0.0014775083277480928, 0.0, 0.0, 0.0, 0.0, 0.0, 0.0, 9.98915401056665e-07, 0.0, 9.328637906734473e-26, 0.0, 0.0, 0.0, 0.0, 9.956896008324754e-07, 0.0, 0.0, 0.0, 0.0, 9.328637906734479e-26, 0.0, 9.956896008324754e-07, 0.0, 0.0, 0.0, 0.0, 0.0, 0.0, 0.0011400009999995076]"
14040000000,,123,,14,40000000,turtlebot2/odom,turtlebot2/base_footprint_distributed,,,,0.474993059643,0.0,0.0,,0.0,0.0,0.0,1.0,"[0.3299620803491444, 0.0, 0.0, 0.0, 0.0, 0.0, 0.0, 0.38976580869568533, 0.0, 0.0, 0.0, 0.13033732307808896, 0.0, 0.0, 9.993597952954591e-07, 0.0, 2.827625448400164e-17, 0.0, 0.0, 0.0, 0.0, 9.987212277980197e-07, 0.0, 0.0, 0.0, 0.0, 2.8276254484001635e-17, 0.0, 9.9872122779802e-07, 0.0, 0.0, 0.13033732307808885, 0.0, 0.0, 0.0, 0.3955890288824159]",,,,-0.000677795317829,0.0,0.0,,0.0,0.0,0.0,"[0.0003334203660739261, 0.0, 0.0, 0.0, 0.0, 0.0, 0.0, 0.0022416654860803503, 0.0, 0.0, 0.0, 0.0, 0.0, 0.0, 9.99040307331719e-07, 0.0, 6.977519647811636e-26, 0.0, 0.0, 0.0, 0.0, 9.961831814860986e-07, 0.0, 0.0, 0.0, 0.0, 6.977519647811632e-26, 0.0, 9.961831814860986e-07, 0.0, 0.0, 0.0, 0.0, 0.0, 0.0, 0.0017000009999994818]"
14140000000,,124,,14,139000000,turtlebot2/odom,turtlebot2/base_footprint_distributed,,,,0.474993027724,0.0,0.0,,0.0,0.0,0.0,1.0,"[0.3348674623401752, 0.0, 0.0, 0.0, 0.0, 0.0, 0.0, 0.3945876526738232, 0.0, 0.0, 0.0, 0.13021242230451277, 0.0, 0.0, 9.995242628242307e-07, 0.0, 7.60255567177711e-17, 0.0, 0.0, 0.0, 0.0, 9.99049430282221e-07, 0.0, 0.0, 0.0, 0.0, 7.602555671777107e-17, 0.0, 9.99049430282221e-07, 0.0, 0.0, 0.13021242230451266, 0.0, 0.0, 0.0, 0.4014732285865758]",,,,-0.00057459647785,0.0,0.0,,0.0,0.0,0.0,"[0.00029602129060672536, 0.0, 0.0, 0.0, 0.0, 0.0, 0.0, 0.0008947142027307908, 0.0, 0.0, 0.0, 0.0, 0.0, 0.0, 9.992867336575908e-07, 0.0, 1.8815947116313285e-25, 0.0, 0.0, 0.0, 0.0, 9.971590781293908e-07, 0.0, 0.0, 0.0, 0.0, 1.8815947116313288e-25, 0.0, 9.971590781293908e-07, 0.0, 0.0, 0.0, 0.0, 0.0, 0.0, 0.000700000999999665]"
14239000000,,125,,14,239000000,turtlebot2/odom,turtlebot2/base_footprint_distributed,,,,0.474982997752,0.0,0.0,,0.0,0.0,0.0,1.0,"[0.33997265514273123, 0.0, 0.0, 0.0, 0.0, 0.0, 0.0, 0.39965687239306974, 0.0, 0.0, 0.0, 0.130124089608501, 0.0, 0.0, 9.997836436908128e-07, 0.0, 1.7727023252024392e-17, 0.0, 0.0, 0.0, 0.0, 9.995674749030327e-07, 0.0, 0.0, 0.0, 0.0, 1.7727023252024392e-17, 0.0, 9.995674749030325e-07, 0.0, 0.0, 0.13012408960850091, 0.0, 0.0, 0.0, 0.4076034759136155]",,,,-0.000525321834362,0.0,0.0,,0.0,0.0,0.0,"[0.0002993210065944397, 0.0, 0.0, 0.0, 0.0, 0.0, 0.0, 0.003732162618479833, 0.0, 0.0, 0.0, 0.0, 0.0, 0.0, 9.996755358834393e-07, 0.0, 4.391006729249075e-26, 0.0, 0.0, 0.0, 0.0, 9.987046565497341e-07, 0.0, 0.0, 0.0, 0.0, 4.391006729249073e-26, 0.0, 9.987046565497341e-07, 0.0, 0.0, 0.0, 0.0, 0.0, 0.0, 0.0027400009999996714]"
14340000000,,126,,14,340000000,turtlebot2/odom,turtlebot2/base_footprint_distributed,,,,0.475006302668,0.0,0.0,,0.0,0.0,0.0,1.0,"[0.34492689153461936, 0.0, 0.0, 0.0, 0.0, 0.0, 0.0, 0.40454682665536656, 0.0, 0.0, 0.0, 0.13004549654715092, 0.0, 0.0, 9.993597952992547e-07, 0.0, 2.6254209629143837e-17, 0.0, 0.0, 0.0, 0.0, 9.98721227828303e-07, 0.0, 0.0, 0.0, 0.0, 2.6254209629143837e-17, 0.0, 9.98721227828303e-07, 0.0, 0.0, 0.13004549654715078, 0.0, 0.0, 0.0, 0.4135404918172386]",,,,-0.000422594892033,0.0,0.0,,0.0,0.0,0.0,"[0.0002541803956026425, 0.0, 0.0, 0.0, 0.0, 0.0, 0.0, 0.002297208790113811, 0.0, 0.0, 0.0, 0.0, 0.0, 0.0, 9.990403073445153e-07, 0.0, 6.479390705553331e-26, 0.0, 0.0, 0.0, 0.0, 9.96183182290067e-07, 0.0, 0.0, 0.0, 0.0, 6.479390705553326e-26, 0.0, 9.96183182290067e-07, 0.0, 0.0, 0.0, 0.0, 0.0, 0.0, 0.0017400009999996593]"
14440000000,,127,,14,439000000,turtlebot2/odom,turtlebot2/base_footprint_distributed,,,,0.475034628575,0.0,0.0,,0.0,0.0,0.0,1.0,"[0.35008069768215133, 0.0, 0.0, 0.0, 0.0, 0.0, 0.0, 0.4096531528960677, 0.0, 0.0, 0.0, 0.12997240005628996, 0.0, 0.0, 9.994629432615145e-07, 0.0, 1.9978572928232518e-17, 0.0, 0.0, 0.0, 0.0, 9.989270390305438e-07, 0.0, 0.0, 0.0, 0.0, 1.9978572928232512e-17, 0.0, 9.989270390305438e-07, 0.0, 0.0, 0.1299724000562899, 0.0, 0.0, 0.0, 0.41972132368563203]",,,,-0.000395965783795,0.0,0.0,,0.0,0.0,0.0,"[0.0002621415086687874, 0.0, 0.0, 0.0, 0.0, 0.0, 0.0, 0.002269493564682818, 0.0, 0.0, 0.0, 0.0, 0.0, 0.0, 9.99194847347104e-07, 0.0, 4.936911095091736e-26, 0.0, 0.0, 0.0, 0.0, 9.967948531737836e-07, 0.0, 0.0, 0.0, 0.0, 4.936911095091737e-26, 0.0, 9.967948531737836e-07, 0.0, 0.0, 0.0, 0.0, 0.0, 0.0, 0.0017200009999995252]"
14540000000,,128,,14,540000000,turtlebot2/odom,turtlebot2/base_footprint_distributed,,,,0.471328790875,0.0,0.0,,0.0,0.0,0.0,1.0,"[0.3550838691944337, 0.0, 0.0, 0.0, 0.0, 0.0, 0.0, 0.41441296445400116, 0.0, 0.0, 0.0, 0.12957445885197857, 0.0, 0.0, 9.994450606807058e-07, 0.0, 4.98035189973793e-16, 0.0, 0.0, 0.0, 0.0, 9.988913485600968e-07, 0.0, 0.0, 0.0, 0.0, 4.980351899737932e-16, 0.0, 9.988913485600963e-07, 0.0, 0.0, 0.12957445885197855, 0.0, 0.0, 0.0, 0.42572561596987535]",,,,-0.0732534250296,0.0,0.0,,0.0,0.0,0.0,"[0.00025164373462357575, 0.0, 0.0, 0.0, 0.0, 0.0, 0.0, 0.0009732993406996219, 0.0, 0.0, 0.0, 0.0, 0.0, 0.0, 9.991680517112232e-07, 0.0, 1.2015876808391736e-24, 0.0, 0.0, 0.0, 0.0, 9.966886079905786e-07, 0.0, 0.0, 0.0, 0.0, 1.2015876808391738e-24, 0.0, 9.966886079905786e-07, 0.0, 0.0, 0.0, 0.0, 0.0, 0.0, 0.0007600009999996673]"
14640000000,,129,,14,639000000,turtlebot2/odom,turtlebot2/base_footprint_distributed,,,,0.461167783181,0.0,0.0,,0.0,0.0,0.0,1.0,"[0.3585873604044376, 0.0, 0.0, 0.0, 0.0, 0.0, 0.0, 0.4165565959068636, 0.0, 0.0, 0.0, 0.12730515650623042, 0.0, 0.0, 9.997620183343246e-07, 0.0, 6.028240106458512e-16, 0.0, 0.0, 0.0, 0.0, 9.995242634598823e-07, 0.0, 0.0, 0.0, 0.0, 6.028240106458514e-16, 0.0, 9.995242634598808e-07, 0.0, 0.0, 0.12730515650623037, 0.0, 0.0, 0.0, 0.429930011986752]",,,,-0.20946480619,0.0,0.0,,0.0,0.0,0.0,"[0.00026560848593312086, 0.0, 0.0, 0.0, 0.0, 0.0, 0.0, 0.0028898829743252952, 0.0, 0.0, 0.0, 0.0, 0.0, 0.0, 9.996431125788357e-07, 0.0, 1.4942207469271634e-24, 0.0, 0.0, 0.0, 0.0, 9.98575491851277e-07, 0.0, 0.0, 0.0, 0.0, 1.4942207469271632e-24, 0.0, 9.98575491851277e-07, 0.0, 0.0, 0.0, 0.0, 0.0, 0.0, 0.002160000999999673]"
14739000000,,130,,14,739000000,turtlebot2/odom,turtlebot2/base_footprint_distributed,,,,0.444292029113,0.0,0.0,,0.0,0.0,0.0,1.0,"[0.36239032062390253, 0.0, 0.0, 0.0, 0.0, 0.0, 0.0, 0.416294197231439, 0.0, 0.0, 0.0, 0.12023747781231899, 0.0, 0.0, 9.995242628053734e-07, 0.0, 3.4659217567865564e-15, 0.0, 0.0, 0.0, 0.0, 9.99049430025446e-07, 0.0, 0.0, 0.0, 0.0, 3.465921756786556e-15, 0.0, 9.990494300254208e-07, 0.0, 0.0, 0.12023747781231894, 0.0, 0.0, 0.0, 0.4344911909535078]",,,,-0.230890321782,0.0,0.0,,0.0,0.0,0.0,"[0.0003883606042294012, 0.0, 0.0, 0.0, 0.0, 0.0, 0.0, 0.0008947022587097412, 0.0, 0.0, 0.0, 0.0, 0.0, 0.0, 9.992867335491304e-07, 0.0, 8.561643496343712e-24, 0.0, 0.0, 0.0, 0.0, 9.971590713103012e-07, 0.0, 0.0, 0.0, 0.0, 8.561643496343712e-24, 0.0, 9.971590713103012e-07, 0.0, 0.0, 0.0, 0.0, 0.0, 0.0, 0.0007000009999996673]"
14839000000,,131,,14,839000000,turtlebot2/odom,turtlebot2/base_footprint_distributed,,,,0.422919734442,0.0,0.0,,0.0,0.0,0.0,1.0,"[0.3675951078851744, 0.0, 0.0, 0.0, 0.0, 0.0, 0.0, 0.41599267366894815, 0.0, 0.0, 0.0, 0.10980283191576176, 0.0, 0.0, 9.994259467921846e-07, 0.0, 4.069279002768552e-15, 0.0, 0.0, 0.0, 0.0, 9.988532066636136e-07, 0.0, 0.0, 0.0, 0.0, 4.069279002768552e-15, 0.0, 9.988532066635848e-07, 0.0, 0.0, 0.1098028319157617, 0.0, 0.0, 0.0, 0.4407333895862571]",,,,-0.193206982231,0.0,0.0,,0.0,0.0,0.0,"[0.00027200503855754374, 0.0, 0.0, 0.0, 0.0, 0.0, 0.0, 0.0009470878483316471, 0.0, 0.0, 0.0, 0.0, 0.0, 0.0, 9.991394131180345e-07, 0.0, 9.814882395280353e-24, 0.0, 0.0, 0.0, 0.0, 9.965751994183494e-07, 0.0, 0.0, 0.0, 0.0, 9.814882395280352e-24, 0.0, 9.965751994183494e-07, 0.0, 0.0, 0.0, 0.0, 0.0, 0.0, 0.000740000999999526]"
14939000000,,132,,14,939000000,turtlebot2/odom,turtlebot2/base_footprint_distributed,,,,0.393127986277,0.0,0.0,,0.0,0.0,0.0,1.0,"[0.3749545546575041, 0.0, 0.0, 0.0, 0.0, 0.0, 0.0, 0.4171289281167605, 0.0, 0.0, 0.0, 0.09641920697221605, 0.0, 0.0, 9.99405469864482e-07, 0.0, 4.1183305951071335e-15, 0.0, 0.0, 0.0, 0.0, 9.988123518200512e-07, 0.0, 0.0, 0.0, 0.0, 4.1183305951071335e-15, 0.0, 9.988123518200226e-07, 0.0, 0.0, 0.09641920697221597, 0.0, 0.0, 0.0, 0.4495564142587247]",,,,-0.210042291028,0.0,0.0,,0.0,0.0,0.0,"[0.000352791515013168, 0.0, 0.0, 0.0, 0.0, 0.0, 0.0, 0.0022416340822729876, 0.0, 0.0, 0.0, 0.0, 0.0, 0.0, 9.991087346749625e-07, 0.0, 1.0168532460569434e-23, 0.0, 0.0, 0.0, 0.0, 9.964538787134024e-07, 0.0, 0.0, 0.0, 0.0, 1.0168532460569427e-23, 0.0, 9.964538787134024e-07, 0.0, 0.0, 0.0, 0.0, 0.0, 0.0, 0.0017000009999995121]"
15039000000,,133,,15,39000000,turtlebot2/odom,turtlebot2/base_footprint_distributed,,,,0.372944448943,0.0,0.0,,0.0,0.0,0.0,1.0,"[0.3799586192422945, 0.0, 0.0, 0.0, 0.0, 0.0, 0.0, 0.4182497826507195, 0.0, 0.0, 0.0, 0.08686284944212859, 0.0, 0.0, 9.99276410495051e-07, 0.0, 4.85840637817709e-15, 0.0, 0.0, 0.0, 0.0, 9.985549080949704e-07, 0.0, 0.0, 0.0, 0.0, 4.858406378177088e-15, 0.0, 9.985549080949375e-07, 0.0, 0.0, 0.08686284944212849, 0.0, 0.0, 0.0, 0.45556127161613486]",,,,-0.202055614331,0.0,0.0,,0.0,0.0,0.0,"[0.00024563014165616135, 0.0, 0.0, 0.0, 0.0, 0.0, 0.0, 0.0008686522996647237, 0.0, 0.0, 0.0, 0.0, 0.0, 0.0, 9.989153992564307e-07, 0.0, 1.1778095810183683e-23, 0.0, 0.0, 0.0, 0.0, 9.956894892652631e-07, 0.0, 0.0, 0.0, 0.0, 1.1778095810183682e-23, 0.0, 9.956894892652631e-07, 0.0, 0.0, 0.0, 0.0, 0.0, 0.0, 0.0006800009999996828]"
15139000000,,134,,15,139000000,turtlebot2/odom,turtlebot2/base_footprint_distributed,,,,0.352430543968,0.0,0.0,,0.0,0.0,0.0,1.0,"[0.3850167111155623, 0.0, 0.0, 0.0, 0.0, 0.0, 0.0, 0.41987205387175186, 0.0, 0.0, 0.0, 0.07728713539485012, 0.0, 0.0, 9.998350382115139e-07, 0.0, 1.1419546448777923e-15, 0.0, 0.0, 0.0, 0.0, 9.996701856431514e-07, 0.0, 0.0, 0.0, 0.0, 1.1419546448777923e-15, 0.0, 9.996701856431437e-07, 0.0, 0.0, 0.07728713539485003, 0.0, 0.0, 0.0, 0.4616292304428436]",,,,-0.200806761079,0.0,0.0,,0.0,0.0,0.0,"[0.0003218907542952818, 0.0, 0.0, 0.0, 0.0, 0.0, 0.0, 0.0036721690958411695, 0.0, 0.0, 0.0, 0.0, 0.0, 0.0, 9.997525982795814e-07, 0.0, 2.834706067929286e-24, 0.0, 0.0, 0.0, 0.0, 9.990118534953436e-07, 0.0, 0.0, 0.0, 0.0, 2.834706067929286e-24, 0.0, 9.990118534953436e-07, 0.0, 0.0, 0.0, 0.0, 0.0, 0.0, 0.002700000999999665]"
15240000000,,135,,15,240000000,turtlebot2/odom,turtlebot2/base_footprint_distributed,,,,0.348173067861,0.0,0.0,,0.0,0.0,0.0,1.0,"[0.3860667404026307, 0.0, 0.0, 0.0, 0.0, 0.0, 0.0, 0.4202639763058499, 0.0, 0.0, 0.0, 0.07532764088016117, 0.0, 0.0, 9.976303253694385e-07, 0.0, 1.5833995430225263e-14, 0.0, 0.0, 0.0, 0.0, 9.952829672101423e-07, 0.0, 0.0, 0.0, 0.0, 1.5833995430225266e-14, 0.0, 9.952829672100364e-07, 0.0, 0.0, 0.07532764088016107, 0.0, 0.0, 0.0, 0.4628876494670058]",,,,-0.203527919749,0.0,0.0,,0.0,0.0,0.0,"[0.0003230208652879473, 0.0, 0.0, 0.0, 0.0, 0.0, 0.0, 0.0001757900407517282, 0.0, 0.0, 0.0, 0.0, 0.0, 0.0, 9.964538789400794e-07, 0.0, 3.7613739100862443e-23, 0.0, 0.0, 0.0, 0.0, 9.861097524653978e-07, 0.0, 0.0, 0.0, 0.0, 3.7613739100862443e-23, 0.0, 9.861097524653978e-07, 0.0, 0.0, 0.0, 0.0, 0.0, 0.0, 0.00014000099999965788]"
15340000000,,136,,15,340000000,turtlebot2/odom,turtlebot2/base_footprint_distributed,,,,0.317271314023,0.0,0.0,,0.0,0.0,0.0,1.0,"[0.3937272995276086, 0.0, 0.0, 0.0, 0.0, 0.0, 0.0, 0.4235667292499779, 0.0, 0.0, 0.0, 0.06039591579862745, 0.0, 0.0, 9.993342211160516e-07, 0.0, 4.550323218380589e-15, 0.0, 0.0, 0.0, 0.0, 9.98670212182749e-07, 0.0, 0.0, 0.0, 0.0, 4.55032321838059e-15, 0.0, 9.986702121827181e-07, 0.0, 0.0, 0.06039591579862736, 0.0, 0.0, 0.0, 0.4720692130863952]",,,,-0.200598975071,0.0,0.0,,0.0,0.0,0.0,"[0.00036868682002224977, 0.0, 0.0, 0.0, 0.0, 0.0, 0.0, 0.0015582540022361046, 0.0, 0.0, 0.0, 0.0, 0.0, 0.0, 9.990019959168319e-07, 0.0, 1.119472082064037e-23, 0.0, 0.0, 0.0, 0.0, 9.960317012821837e-07, 0.0, 0.0, 0.0, 0.0, 1.1194720820640375e-23, 0.0, 9.960317012821837e-07, 0.0, 0.0, 0.0, 0.0, 0.0, 0.0, 0.00120000099999951]"
15439000000,,137,,15,439000000,turtlebot2/odom,turtlebot2/base_footprint_distributed,,,,0.292149735311,0.0,0.0,,0.0,0.0,0.0,1.0,"[0.3999346230979713, 0.0, 0.0, 0.0, 0.0, 0.0, 0.0, 0.42697552321526233, 0.0, 0.0, 0.0, 0.04817992650895219, 0.0, 0.0, 9.993065188741978e-07, 0.0, 4.735004133017596e-15, 0.0, 0.0, 0.0, 0.0, 9.986149584460468e-07, 0.0, 0.0, 0.0, 0.0, 4.735004133017596e-15, 0.0, 9.986149584460144e-07, 0.0, 0.0, 0.0481799265089521, 0.0, 0.0, 0.0, 0.47951120805601893]",,,,-0.203978986646,0.0,0.0,,0.0,0.0,0.0,"[0.0003262515687563729, 0.0, 0.0, 0.0, 0.0, 0.0, 0.0, 0.0021586252980975752, 0.0, 0.0, 0.0, 0.0, 0.0, 0.0, 9.989604991146856e-07, 0.0, 1.1673494550360366e-23, 0.0, 0.0, 0.0, 0.0, 9.958677392420715e-07, 0.0, 0.0, 0.0, 0.0, 1.1673494550360371e-23, 0.0, 9.958677392420715e-07, 0.0, 0.0, 0.0, 0.0, 0.0, 0.0, 0.001640000999999489]"
15539000000,,138,,15,539000000,turtlebot2/odom,turtlebot2/base_footprint_distributed,,,,0.271928733147,0.0,0.0,,0.0,0.0,0.0,1.0,"[0.40494032653192696, 0.0, 0.0, 0.0, 0.0, 0.0, 0.0, 0.4301784832971841, 0.0, 0.0, 0.0, 0.038146209884748074, 0.0, 0.0, 9.995102842641372e-07, 0.0, 3.446768197057401e-15, 0.0, 0.0, 0.0, 0.0, 9.990215270376059e-07, 0.0, 0.0, 0.0, 0.0, 3.446768197057402e-15, 0.0, 9.990215270375817e-07, 0.0, 0.0, 0.038146209884747984, 0.0, 0.0, 0.0, 0.48551577078527125]",,,,-0.20279229144,0.0,0.0,,0.0,0.0,0.0,"[0.00030962717265565527, 0.0, 0.0, 0.0, 0.0, 0.0, 0.0, 0.000868617394278538, 0.0, 0.0, 0.0, 0.0, 0.0, 0.0, 9.992657860263775e-07, 0.0, 8.52989387859257e-24, 0.0, 0.0, 0.0, 0.0, 9.97076010467171e-07, 0.0, 0.0, 0.0, 0.0, 8.529893878592572e-24, 0.0, 9.97076010467171e-07, 0.0, 0.0, 0.0, 0.0, 0.0, 0.0, 0.0006800009999996761]"
15639000000,,139,,15,639000000,turtlebot2/odom,turtlebot2/base_footprint_distributed,,,,0.251841400658,0.0,0.0,,0.0,0.0,0.0,1.0,"[0.40999362508628684, 0.0, 0.0, 0.0, 0.0, 0.0, 0.0, 0.4338622492729229, 0.0, 0.0, 0.0, 0.02807104584395952, 0.0, 0.0, 9.995242628058342e-07, 0.0, 3.2325580778602295e-15, 0.0, 0.0, 0.0, 0.0, 9.990494300429436e-07, 0.0, 0.0, 0.0, 0.0, 3.2325580778602295e-15, 0.0, 9.990494300429217e-07, 0.0, 0.0, 0.028071045843959423, 0.0, 0.0, 0.0, 0.491577464495506]",,,,-0.199862468531,0.0,0.0,,0.0,0.0,0.0,"[0.00030837161953991556, 0.0, 0.0, 0.0, 0.0, 0.0, 0.0, 0.0008947118919898861, 0.0, 0.0, 0.0, 0.0, 0.0, 0.0, 9.992867335565222e-07, 0.0, 7.986268001911996e-24, 0.0, 0.0, 0.0, 0.0, 9.971590717743868e-07, 0.0, 0.0, 0.0, 0.0, 7.986268001911998e-24, 0.0, 9.971590717743868e-07, 0.0, 0.0, 0.0, 0.0, 0.0, 0.0, 0.0007000009999995028]"
15739000000,,140,,15,739000000,turtlebot2/odom,turtlebot2/base_footprint_distributed,,,,0.231483457582,0.0,0.0,,0.0,0.0,0.0,1.0,"[0.4151968914605477, 0.0, 0.0, 0.0, 0.0, 0.0, 0.0, 0.43810094536366956, 0.0, 0.0, 0.0, 0.017670109707835103, 0.0, 0.0, 9.995617881180912e-07, 0.0, 3.013595688744568e-15, 0.0, 0.0, 0.0, 0.0, 9.991243437515747e-07, 0.0, 0.0, 0.0, 0.0, 3.0135956887445688e-15, 0.0, 9.991243437515541e-07, 0.0, 0.0, 0.017670109707835006, 0.0, 0.0, 0.0, 0.49781918040154655]",,,,-0.195621334862,0.0,0.0,,0.0,0.0,0.0,"[0.00030825601678999043, 0.0, 0.0, 0.0, 0.0, 0.0, 0.0, 0.000973218528460565, 0.0, 0.0, 0.0, 0.0, 0.0, 0.0, 9.993429701409714e-07, 0.0, 7.45029298398082e-24, 0.0, 0.0, 0.0, 0.0, 9.973821827049378e-07, 0.0, 0.0, 0.0, 0.0, 7.450292983980819e-24, 0.0, 9.973821827049378e-07, 0.0, 0.0, 0.0, 0.0, 0.0, 0.0, 0.0007600009999994745]"
15839000000,,141,,15,839000000,turtlebot2/odom,turtlebot2/base_footprint_distributed,,,,0.21203789839,0.0,0.0,,0.0,0.0,0.0,1.0,"[0.4200005249339064, 0.0, 0.0, 0.0, 0.0, 0.0, 0.0, 0.44241019438484847, 0.0, 0.0, 0.0, 0.00809008774434735, 0.0, 0.0, 9.994054691287778e-07, 0.0, 4.016692942442313e-15, 0.0, 0.0, 0.0, 0.0, 9.988123459772597e-07, 0.0, 0.0, 0.0, 0.0, 4.016692942442311e-15, 0.0, 9.988123459772328e-07, 0.0, 0.0, 0.008090087744347253, 0.0, 0.0, 0.0, 0.5035810326521015]",,,,-0.208465587304,0.0,0.0,,0.0,0.0,0.0,"[0.0002566863648776238, 0.0, 0.0, 0.0, 0.0, 0.0, 0.0, 0.0008947519907896498, 0.0, 0.0, 0.0, 0.0, 0.0, 0.0, 9.99108732201131e-07, 0.0, 9.647177538416408e-24, 0.0, 0.0, 0.0, 0.0, 9.964537260349854e-07, 0.0, 0.0, 0.0, 0.0, 9.647177538416402e-24, 0.0, 9.964537260349854e-07, 0.0, 0.0, 0.0, 0.0, 0.0, 0.0, 0.0007000009999994622]"
15939000000,,142,,15,939000000,turtlebot2/odom,turtlebot2/base_footprint_distributed,,,,0.191727728852,0.0,0.0,,0.0,0.0,0.0,1.0,"[0.42495406168381084, 0.0, 0.0, 0.0, 0.0, 0.0, 0.0, 0.44724607929001975, 0.0, 0.0, 0.0, -0.002390229455338723, 0.0, 0.0, 9.993834764261587e-07, 0.0, 4.214245044272323e-15, 0.0, 0.0, 0.0, 0.0, 9.987684656569678e-07, 0.0, 0.0, 0.0, 0.0, 4.214245044272323e-15, 0.0, 9.98768465656939e-07, 0.0, 0.0, -0.0023902294553388203, 0.0, 0.0, 0.0, 0.5095234432104669]",,,,-0.204470857773,0.0,0.0,,0.0,0.0,0.0,"[0.0002489971622840447, 0.0, 0.0, 0.0, 0.0, 0.0, 0.0, 0.0008425536265621491, 0.0, 0.0, 0.0, 0.0, 0.0, 0.0, 9.990757826666608e-07, 0.0, 1.0065893588692802e-23, 0.0, 0.0, 0.0, 0.0, 9.96323311374743e-07, 0.0, 0.0, 0.0, 0.0, 1.0065893588692802e-23, 0.0, 9.96323311374743e-07, 0.0, 0.0, 0.0, 0.0, 0.0, 0.0, 0.0006600009999994944]"
16039000000,,143,,16,39000000,turtlebot2/odom,turtlebot2/base_footprint_distributed,,,,0.170932474973,0.0,0.0,,0.0,0.0,0.0,1.0,"[0.42996557467274865, 0.0, 0.0, 0.0, 0.0, 0.0, 0.0, 0.4525870752300401, 0.0, 0.0, 0.0, -0.01298590555181881, 0.0, 0.0, 0.0060010098310862335, 0.0, 2.0769648273635413e-08, 0.0, 0.0, 0.0, 0.0, 0.0030010087317228706, 0.0, 0.0, 0.0, 0.0, 2.0769648273635417e-08, 0.0, 0.0030010087317228706, 0.0, 0.0, -0.012985905551818907, 0.0, 0.0, 0.0, 0.5155306912320294]",,,,-0.211434219799,0.0,0.0,,0.0,0.0,0.0,"[0.002941733590777553, 0.0, 0.0, 0.0, 0.0, 0.0, 0.0, 0.003613071087548615, 0.0, 0.0, 0.0, 0.0, 0.0, 0.0, 0.004001009051224172, 0.0, 1.0101697322605635e-23, 0.0, 0.0, 0.0, 0.0, 0.001000996323311389, 0.0, 0.0, 0.0, 0.0, 1.0101697322605635e-23, 0.0, 0.001000996323311389, 0.0, 0.0, 0.0, 0.0, 0.0, 0.0, 0.0026600009999995233]"
16139000000,,144,,16,139000000,turtlebot2/odom,turtlebot2/base_footprint_distributed,,,,0.160945981771,0.0,0.0,,0.0,0.0,0.0,1.0,"[0.43256339925299775, 0.0, 0.0, 0.0, 0.0, 0.0, 0.0, 0.4555185649075273, 0.0, 0.0, 0.0, -0.018557249582363027, 0.0, 0.0, 9.994450606008978e-07, 0.0, 3.729444992776072e-15, 0.0, 0.0, 0.0, 0.0, 9.98891347839522e-07, 0.0, 0.0, 0.0, 0.0, 3.729444992776072e-15, 0.0, 9.98891347839497e-07, 0.0, 0.0, -0.01855724958236312, 0.0, 0.0, 0.0, 0.5186494687622777]",,,,-0.200120102052,0.0,0.0,,0.0,0.0,0.0,"[0.0003631028525079383, 0.0, 0.0, 0.0, 0.0, 0.0, 0.0, 0.0009471016235474896, 0.0, 0.0, 0.0, 0.0, 0.0, 0.0, 9.991680514056195e-07, 0.0, 8.972197552811826e-24, 0.0, 0.0, 0.0, 0.0, 9.96688589418605e-07, 0.0, 0.0, 0.0, 0.0, 8.972197552811823e-24, 0.0, 9.96688589418605e-07, 0.0, 0.0, 0.0, 0.0, 0.0, 0.0, 0.0007400009999996783]"
16240000000,,145,,16,239000000,turtlebot2/odom,turtlebot2/base_footprint_distributed,,,,0.130776912462,0.0,0.0,,0.0,0.0,0.0,1.0,"[0.4400760260609706, 0.0, 0.0, 0.0, 0.0, 0.0, 0.0, 0.4646345089336452, 0.0, 0.0, 0.0, -0.03437781576299932, 0.0, 0.0, 9.997917536043476e-07, 0.0, 1.3974274969791049e-15, 0.0, 0.0, 0.0, 0.0, 9.995836804041681e-07, 0.0, 0.0, 0.0, 0.0, 1.397427496979105e-15, 0.0, 9.99583680404159e-07, 0.0, 0.0, -0.03437781576299942, 0.0, 0.0, 0.0, 0.5276524893656426]",,,,-0.204850927477,0.0,0.0,,0.0,0.0,0.0,"[0.002338593694670123, 0.0, 0.0, 0.0, 0.0, 0.0, 0.0, 0.0022694154769717294, 0.0, 0.0, 0.0, 0.0, 0.0, 0.0, 9.996876954042718e-07, 0.0, 3.36754087021223e-24, 0.0, 0.0, 0.0, 0.0, 9.987530921257621e-07, 0.0, 0.0, 0.0, 0.0, 3.36754087021223e-24, 0.0, 9.987530921257621e-07, 0.0, 0.0, 0.0, 0.0, 0.0, 0.0, 0.0017200009999994755]"
16340000000,,146,,16,339000000,turtlebot2/odom,turtlebot2/base_footprint_distributed,,,,0.149110335862,0.0,0.0,,0.0,0.0,0.0,1.0,"[0.44117375668446224, 0.0, 0.0, 0.0, 0.0, 0.0, 0.0, 0.46604995354671436, 0.0, 0.0, 0.0, -0.03673783422134617, 0.0, 0.0, 9.976303258126385e-07, 0.0, 1.5514009928734485e-14, 0.0, 0.0, 0.0, 0.0, 9.952829707101409e-07, 0.0, 0.0, 0.0, 0.0, 1.5514009928734488e-14, 0.0, 9.952829707100392e-07, 0.0, 0.0, -0.03673783422134627, 0.0, 0.0, 0.0, 0.5289725439894498]",,,,0.194652707035,0.0,0.0,,0.0,0.0,0.0,"[0.00047752701296217105, 0.0, 0.0, 0.0, 0.0, 0.0, 0.0, 0.00017578991395430894, 0.0, 0.0, 0.0, 0.0, 0.0, 0.0, 9.96453880427003e-07, 0.0, 3.6892346867516605e-23, 0.0, 0.0, 0.0, 0.0, 9.861098418536428e-07, 0.0, 0.0, 0.0, 0.0, 3.6892346867516587e-23, 0.0, 9.861098418536428e-07, 0.0, 0.0, 0.0, 0.0, 0.0, 0.0, 0.00014000099999953393]"
16440000000,,147,,16,439000000,turtlebot2/odom,turtlebot2/base_footprint_distributed,,,,0.196559832357,0.0,0.0,,0.0,0.0,0.0,1.0,"[0.4475356846838822, 0.0, 0.0, 0.0, 0.0, 0.0, 0.0, 0.47056442124713904, 0.0, 0.0, 0.0, -0.019273133407438154, 0.0, 0.0, 9.993342203291785e-07, 0.0, -1.0712961218791925e-14, 0.0, 0.0, 0.0, 0.0, 9.98670205510341e-07, 0.0, 0.0, 0.0, 0.0, -1.0712961218791917e-14, 0.0, 9.986702055101689e-07, 0.0, 0.0, -0.019273133407438258, 0.0, 0.0, 0.0, 0.5365938082923178]",,,,0.489933855681,0.0,0.0,,0.0,0.0,0.0,"[0.0010325223717902706, 0.0, 0.0, 0.0, 0.0, 0.0, 0.0, 0.0008165515534251204, 0.0, 0.0, 0.0, 0.0, 0.0, 0.0, 9.99001993090684e-07, 0.0, -2.570024402220775e-23, 0.0, 0.0, 0.0, 0.0, 9.960315272948877e-07, 0.0, 0.0, 0.0, 0.0, -2.5700244022207744e-23, 0.0, 9.960315272948877e-07, 0.0, 0.0, 0.0, 0.0, 0.0, 0.0, 0.0006400009999995104]"
