rosbagTimestamp,header,seq,stamp,secs,nsecs,frame_id,child_frame_id,pose,pose,position,x,y,z,orientation,x,y,z,w,covariance,twist,twist,linear,x,y,z,angular,x,y,z,covariance
9512000000,,69,,9,512000000,turtlebot2/odom,turtlebot2/base_footprint_self,,,,2.82229345801e-05,0.0,0.0,,0.0,0.0,0.0,1.0,"[0.10455958837601614, 0.0, 0.0, 0.0, 0.0, 0.0, 0.0, 0.10450972460936206, 0.0, 0.0, 0.0, 1.6919762392662233e-06, 0.0, 0.0, 9.99835038216352e-07, 0.0, 2.780616226521072e-19, 0.0, 0.0, 0.0, 0.0, 9.996701857795347e-07, 0.0, 0.0, 0.0, 0.0, 2.780616226521072e-19, 0.0, 9.996701857795347e-07, 0.0, 0.0, 1.691976239266224e-06, 0.0, 0.0, 0.0, 0.12534387629736743]",,,,-3.09770910121e-06,0.0,0.0,,0.0,0.0,0.0,"[0.00017471893582735328, 0.0, 0.0, 0.0, 0.0, 0.0, 0.0, 9.999996249916121e-10, 0.0, 0.0, 0.0, 0.0, 0.0, 0.0, 9.99752598337002e-07, 0.0, 6.9589637789389155e-28, 0.0, 0.0, 0.0, 0.0, 9.990118570363587e-07, 0.0, 0.0, 0.0, 0.0, 6.958963778938915e-28, 0.0, 9.990118570363587e-07, 0.0, 0.0, 0.0, 0.0, 0.0, 0.0, 9.999995049509852e-10]"
9612000000,,70,,9,612000000,turtlebot2/odom,turtlebot2/base_footprint_self,,,,3.35653417223e-05,0.0,0.0,,0.0,0.0,0.0,1.0,"[0.10961673931682162, 0.0, 0.0, 0.0, 0.0, 0.0, 0.0, 0.10956495827823343, 0.0, 0.0, 0.0, 1.648928130135317e-06, 0.0, 0.0, 9.998350382149475e-07, 0.0, 1.86793083489311e-20, 0.0, 0.0, 0.0, 0.0, 9.996701857681455e-07, 0.0, 0.0, 0.0, 0.0, 1.8679308348931094e-20, 0.0, 9.996701857681455e-07, 0.0, 0.0, 1.648928130135318e-06, 0.0, 0.0, 0.0, 0.1314038763075685]",,,,0.000154947660634,0.0,0.0,,0.0,0.0,0.0,"[0.0001744299209978645, 0.0, 0.0, 0.0, 0.0, 0.0, 0.0, 9.999996253826314e-10, 0.0, 0.0, 0.0, 0.0, 0.0, 0.0, 9.997525983322099e-07, 0.0, 4.6716479928734517e-29, 0.0, 0.0, 0.0, 0.0, 9.990118567393826e-07, 0.0, 0.0, 0.0, 0.0, 4.671647992873452e-29, 0.0, 9.990118567393826e-07, 0.0, 0.0, 0.0, 0.0, 0.0, 0.0, 9.999995049509852e-10]"
9713000000,,71,,9,713000000,turtlebot2/odom,turtlebot2/base_footprint_self,,,,4.96157332549e-05,0.0,0.0,,0.0,0.0,0.0,1.0,"[0.11467760613896003, 0.0, 0.0, 0.0, 0.0, 0.0, 0.0, 0.11462279171457047, 0.0, 0.0, 0.0, 3.7580117937649713e-06, 0.0, 0.0, 0.00606101005951359, 0.0, -1.6045097919612074e-11, 0.0, 0.0, 0.0, 0.0, 0.003031009861112387, 0.0, 0.0, 0.0, 0.0, -1.604509791961207e-11, 0.0, 0.003031009861112387, 0.0, 0.0, 3.758011793764972e-06, 0.0, 0.0, 0.0, 0.13746387631776957]",,,,0.000162881874663,0.0,0.0,,0.0,0.0,0.0,"[0.0028656367948258895, 0.0, 0.0, 0.0, 0.0, 0.0, 0.0, 0.0026718823727782505, 0.0, 0.0, 0.0, 0.0, 0.0, 0.0, 0.004041009946877233, 0.0, 4.7347577435215805e-29, 0.0, 0.0, 0.0, 0.0, 0.001010999011856748, 0.0, 0.0, 0.0, 0.0, 4.734757743521581e-29, 0.0, 0.001010999011856748, 0.0, 0.0, 0.0, 0.0, 0.0, 0.0, 0.0020200009999995225]"
9812000000,,72,,9,812000000,turtlebot2/odom,turtlebot2/base_footprint_self,,,,4.77345599009e-05,0.0,0.0,,0.0,0.0,0.0,1.0,"[0.11707806495127011, 0.0, 0.0, 0.0, 0.0, 0.0, 0.0, 0.11702284071738847, 0.0, 0.0, 0.0, 4.8451898320049375e-06, 0.0, 0.0, 9.998882058662272e-07, 0.0, -5.995608766421784e-16, 0.0, 0.0, 0.0, 0.0, 9.997764245963345e-07, 0.0, 0.0, 0.0, 0.0, -5.995608766421784e-16, 0.0, 9.99776424596331e-07, 0.0, 0.0, 4.845189832004938e-06, 0.0, 0.0, 0.0, 0.14034537562313038]",,,,2.21195431238e-05,0.0,0.0,,0.0,0.0,0.0,"[0.00025743491385533685, 0.0, 0.0, 0.0, 0.0, 0.0, 0.0, 9.999997529030807e-10, 0.0, 0.0, 0.0, 0.0, 0.0, 0.0, 9.998321846402974e-07, 0.0, -6.341210507993834e-19, 0.0, 0.0, 0.0, 0.0, 9.99329520763012e-07, 0.0, 0.0, 0.0, 0.0, -6.341210507993836e-19, 0.0, 9.99329520763012e-07, 0.0, 0.0, 0.0, 0.0, 0.0, 0.0, 9.999996644297555e-10]"
9912000000,,73,,9,912000000,turtlebot2/odom,turtlebot2/base_footprint_self,,,,4.41024757331e-05,0.0,0.0,,0.0,0.0,0.0,1.0,"[0.12218731524043777, 0.0, 0.0, 0.0, 0.0, 0.0, 0.0, 0.12212843037726075, 0.0, 0.0, 0.0, 5.162215560072527e-06, 0.0, 0.0, 9.998366549632494e-07, 0.0, -1.2050732586026372e-19, 0.0, 0.0, 0.0, 0.0, 9.996734171520701e-07, 0.0, 0.0, 0.0, 0.0, -1.205073258602637e-19, 0.0, 9.996734171520701e-07, 0.0, 0.0, 5.162215560072528e-06, 0.0, 0.0, 0.0, 0.14646537564017192]",,,,-0.000113061160081,0.0,0.0,,0.0,0.0,0.0,"[0.00017651062137624479, 0.0, 0.0, 0.0, 0.0, 0.0, 0.0, 9.99999630031751e-10, 0.0, 0.0, 0.0, 0.0, 0.0, 0.0, 9.997550226616077e-07, 0.0, -1.5233921688211448e-25, 0.0, 0.0, 0.0, 0.0, 9.990215257736133e-07, 0.0, 0.0, 0.0, 0.0, -1.5233921688211455e-25, 0.0, 9.990215257736133e-07, 0.0, 0.0, 0.0, 0.0, 0.0, 0.0, 9.999995098044023e-10]"
10013000000,,74,,10,13000000,turtlebot2/odom,turtlebot2/base_footprint_self,,,,4.22264446558e-05,0.0,0.0,,0.0,0.0,0.0,1.0,"[0.12719471187551662, 0.0, 0.0, 0.0, 0.0, 0.0, 0.0, 0.12713386021197184, 0.0, 0.0, 0.0, 3.452101195213075e-06, 0.0, 0.0, 9.998333891439895e-07, 0.0, 6.477979019821512e-19, 0.0, 0.0, 0.0, 0.0, 9.99666889812038e-07, 0.0, 0.0, 0.0, 0.0, 6.477979019821513e-19, 0.0, 9.99666889812038e-07, 0.0, 0.0, 3.452101195213076e-06, 0.0, 0.0, 0.0, 0.1524653756501719]",,,,0.000129293274926,0.0,0.0,,0.0,0.0,0.0,"[0.00017274184189643694, 0.0, 0.0, 0.0, 0.0, 0.0, 0.0, 9.999996224818324e-10, 0.0, 0.0, 0.0, 0.0, 0.0, 0.0, 9.997501255456819e-07, 0.0, 1.619909665384766e-27, 0.0, 0.0, 0.0, 0.0, 9.990019950300993e-07, 0.0, 0.0, 0.0, 0.0, 1.619909665384767e-27, 0.0, 9.990019950300993e-07, 0.0, 0.0, 0.0, 0.0, 0.0, 0.0, 9.999995000005e-10]"
10113000000,,75,,10,112000000,turtlebot2/odom,turtlebot2/base_footprint_self,,,,4.8034944687e-05,0.0,0.0,,0.0,0.0,0.0,1.0,"[0.13260352422775326, 0.0, 0.0, 0.0, 0.0, 0.0, 0.0, 0.1325405512667789, 0.0, 0.0, 0.0, 5.6395462760551365e-06, 0.0, 0.0, 9.998457269018989e-07, 0.0, -6.82490948106224e-19, 0.0, 0.0, 0.0, 0.0, 9.996915495028103e-07, 0.0, 0.0, 0.0, 0.0, -6.824909481062243e-19, 0.0, 9.996915495028103e-07, 0.0, 0.0, 5.639546276055137e-06, 0.0, 0.0, 0.0, 0.15894537566183595]",,,,-7.67220798615e-05,0.0,0.0,,0.0,0.0,0.0,"[0.00018654933979084712, 0.0, 0.0, 0.0, 0.0, 0.0, 0.0, 9.999996522412253e-10, 0.0, 0.0, 0.0, 0.0, 0.0, 0.0, 9.997686262464252e-07, 0.0, -1.708356517848925e-27, 0.0, 0.0, 0.0, 0.0, 9.99075784726719e-07, 0.0, 0.0, 0.0, 0.0, -1.708356517848925e-27, 0.0, 9.99075784726719e-07, 0.0, 0.0, 0.0, 0.0, 0.0, 0.0, 9.999995370374657e-10]"
10212000000,,76,,10,212000000,turtlebot2/odom,turtlebot2/base_footprint_self,,,,0.00168669347422,0.0,0.0,,0.0,0.0,0.0,1.0,"[0.13962031885039722, 0.0, 0.0, 0.0, 0.0, 0.0, 0.0, 0.13955345671803152, 0.0, 0.0, 0.0, 3.847820819496338e-06, 0.0, 0.0, 9.9988098099558e-07, 0.0, 3.1918894262120715e-19, 0.0, 0.0, 0.0, 0.0, 9.997620191773892e-07, 0.0, 0.0, 0.0, 0.0, 3.191889426212074e-19, 0.0, 9.997620191773892e-07, 0.0, 0.0, 3.8478208194963385e-06, 0.0, 0.0, 0.0, 0.16734537568143598]",,,,0.0379321517294,0.0,0.0,,0.0,0.0,0.0,"[0.00027879994772082015, 0.0, 0.0, 0.0, 0.0, 0.0, 0.0, 9.99999736714555e-10, 0.0, 0.0, 0.0, 0.0, 0.0, 0.0, 9.998214929405915e-07, 0.0, 8.026745973764621e-28, 0.0, 0.0, 0.0, 0.0, 9.99286732765668e-07, 0.0, 0.0, 0.0, 0.0, 8.026745973764617e-28, 0.0, 9.99286732765668e-07, 0.0, 0.0, 0.0, 0.0, 0.0, 0.0, 9.99999642857398e-10]"
10312000000,,77,,10,312000000,turtlebot2/odom,turtlebot2/base_footprint_self,,,,-0.0380585622378,0.0,0.0,,0.0,0.0,0.0,1.0,"[0.14472951800767236, 0.0, 0.0, 0.0, 0.0, 0.0, 0.0, 0.14466227029094214, 0.0, 0.0, 0.0, 0.000669764240934807, 0.0, 0.0, 9.998366549634556e-07, 0.0, -2.1222764728776095e-16, 0.0, 0.0, 0.0, 0.0, 9.996734171503282e-07, 0.0, 0.0, 0.0, 0.0, -2.1222764728776095e-16, 0.0, 9.99673417150328e-07, 0.0, 0.0, 0.000669764240934807, 0.0, 0.0, 0.0, 0.1734653756918399]",,,,-0.879418683632,0.0,0.0,,0.0,0.0,0.0,"[0.0002844408939586832, 0.0, 0.0, 0.0, 0.0, 0.0, 0.0, 9.999996310521666e-10, 0.0, 0.0, 0.0, 0.0, 0.0, 0.0, 9.997550226608816e-07, 0.0, -5.311676246518293e-25, 0.0, 0.0, 0.0, 0.0, 9.990215257326483e-07, 0.0, 0.0, 0.0, 0.0, -5.311676246518294e-25, 0.0, 9.990215257326483e-07, 0.0, 0.0, 0.0, 0.0, 0.0, 0.0, 9.999995098044023e-10]"
10412000000,,78,,10,412000000,turtlebot2/odom,turtlebot2/base_footprint_self,,,,-0.128538128981,0.0,0.0,,0.0,0.0,0.0,1.0,"[0.14974490755142927, 0.0, 0.0, 0.0, 0.0, 0.0, 0.0, 0.15097089801577684, 0.0, 0.0, 0.0, -0.015025307796676171, 0.0, 0.0, 0.006001018043068171, 0.0, 9.045001775131878e-08, 0.0, 0.0, 0.0, 0.0, 0.0030010096636389643, 0.0, 0.0, 0.0, 0.0, 9.04500177513188e-08, 0.0, 0.0030010096636389643, 0.0, 0.0, -0.015025307796676171, 0.0, 0.0, 0.0, 0.17946537570183999]",,,,-0.93017265124,0.0,0.0,,0.0,0.0,0.0,"[0.0029733849728295738, 0.0, 0.0, 0.0, 0.0, 0.0, 0.0, 0.002655255750711263, 0.0, 0.0, 0.0, 0.0, 0.0, 0.0, 0.0040010097484985616, 0.0, -5.383426447123083e-25, 0.0, 0.0, 0.0, 0.0, 0.001000999021525747, 0.0, 0.0, 0.0, 0.0, -5.383426447123084e-25, 0.0, 0.001000999021525747, 0.0, 0.0, 0.0, 0.0, 0.0, 0.0, 0.0020000009999995385]"
10512000000,,79,,10,512000000,turtlebot2/odom,turtlebot2/base_footprint_self,,,,-0.0930174676787,0.0,0.0,,0.0,0.0,0.0,1.0,"[0.15209396146433907, 0.0, 0.0, 0.0, 0.0, 0.0, 0.0, 0.15500166722034717, 0.0, 0.0, 0.0, -0.02297179992450422, 0.0, 0.0, 9.99886707792226e-07, 0.0, 3.4139060338040174e-12, 0.0, 0.0, 0.0, 0.0, 9.997733824132637e-07, 0.0, 0.0, 0.0, 0.0, 3.413906033804016e-12, 0.0, 9.997732795398654e-07, 0.0, 0.0, -0.022971799924504214, 0.0, 0.0, 0.0, 0.18228678826391656]",,,,0.0677900202372,0.0,0.0,,0.0,0.0,0.0,"[0.00047575308266511383, 0.0, 0.0, 0.0, 0.0, 0.0, 0.0, 9.999997507912944e-10, 0.0, 0.0, 0.0, 0.0, 0.0, 0.0, 9.998299049130448e-07, 0.0, 3.4865474078570135e-15, 0.0, 0.0, 0.0, 0.0, 9.993204192431645e-07, 0.0, 0.0, 0.0, 0.0, 3.4865474078570103e-15, 0.0, 9.99320419138286e-07, 0.0, 0.0, 0.0, 0.0, 0.0, 0.0, 9.99999659864177e-10]"
10612000000,,80,,10,612000000,turtlebot2/odom,turtlebot2/base_footprint_self,,,,-0.0793154649785,0.0,0.0,,0.0,0.0,0.0,1.0,"[0.15715624797785735, 0.0, 0.0, 0.0, 0.0, 0.0, 0.0, 0.15973360928466657, 0.0, 0.0, 0.0, -0.021647704905261245, 0.0, 0.0, 9.998350382178287e-07, 0.0, -3.949259090920822e-16, 0.0, 0.0, 0.0, 0.0, 9.996701857798712e-07, 0.0, 0.0, 0.0, 0.0, -3.9492590909208227e-16, 0.0, 9.99670185779859e-07, 0.0, 0.0, -0.021647704905261238, 0.0, 0.0, 0.0, 0.1883467882805761]",,,,0.183203508927,0.0,0.0,,0.0,0.0,0.0,"[0.00032596617551707474, 0.0, 0.0, 0.0, 0.0, 0.0, 0.0, 9.999996275023326e-10, 0.0, 0.0, 0.0, 0.0, 0.0, 0.0, 9.997525983371368e-07, 0.0, 8.521849611494597e-22, 0.0, 0.0, 0.0, 0.0, 9.990118570406684e-07, 0.0, 0.0, 0.0, 0.0, 8.521849611494588e-22, 0.0, 9.990118570406684e-07, 0.0, 0.0, 0.0, 0.0, 0.0, 0.0, 9.999995049509852e-10]"
10712000000,,81,,10,712000000,turtlebot2/odom,turtlebot2/base_footprint_self,,,,-0.00283406868702,0.0,0.0,,0.0,0.0,0.0,1.0,"[0.16226654051094572, 0.0, 0.0, 0.0, 0.0, 0.0, 0.0, 0.1640695177356699, 0.0, 0.0, 0.0, -0.017986963500091362, 0.0, 0.0, 9.998366549718614e-07, 0.0, -1.0364942337134957e-15, 0.0, 0.0, 0.0, 0.0, 9.996734171402294e-07, 0.0, 0.0, 0.0, 0.0, -1.0364942337134951e-15, 0.0, 9.996734171402229e-07, 0.0, 0.0, -0.017986963500091355, 0.0, 0.0, 0.0, 0.19446678829098013]",,,,1.28457525711,0.0,0.0,,0.0,0.0,0.0,"[0.0002980584364831972, 0.0, 0.0, 0.0, 0.0, 0.0, 0.0, 9.999996314844493e-10, 0.0, 0.0, 0.0, 0.0, 0.0, 0.0, 9.997550226566327e-07, 0.0, -2.5923472983689046e-24, 0.0, 0.0, 0.0, 0.0, 9.990215254694806e-07, 0.0, 0.0, 0.0, 0.0, -2.5923472983689027e-24, 0.0, 9.990215254694806e-07, 0.0, 0.0, 0.0, 0.0, 0.0, 0.0, 9.999995098044021e-10]"
10812000000,,82,,10,812000000,turtlebot2/odom,turtlebot2/base_footprint_self,,,,0.137421933096,0.0,0.0,,0.0,0.0,0.0,1.0,"[0.16968999434616375, 0.0, 0.0, 0.0, 0.0, 0.0, 0.0, 0.17201433939736946, 0.0, 0.0, 0.0, 0.020647934586987163, 0.0, 0.0, 9.998874135219001e-07, 0.0, -5.0338242769010114e-15, 0.0, 0.0, 0.0, 0.0, 9.997748772736206e-07, 0.0, 0.0, 0.0, 0.0, -5.033824276901012e-15, 0.0, 9.997748772733955e-07, 0.0, 0.0, 0.02064793458698717, 0.0, 0.0, 0.0, 0.2033467883128841]",,,,0.307262759848,0.0,0.0,,0.0,0.0,0.0,"[0.0003858240905702452, 0.0, 0.0, 0.0, 0.0, 0.0, 0.0, 9.999997528416948e-10, 0.0, 0.0, 0.0, 0.0, 0.0, 0.0, 9.998311387458407e-07, 0.0, -1.2672825182326795e-23, 0.0, 0.0, 0.0, 0.0, 9.993252357195946e-07, 0.0, 0.0, 0.0, 0.0, -1.2672825182326795e-23, 0.0, 9.993252357195946e-07, 0.0, 0.0, 0.0, 0.0, 0.0, 0.0, 9.999996621623905e-10]"
10912000000,,83,,10,912000000,turtlebot2/odom,turtlebot2/base_footprint_self,,,,0.162371573804,0.0,0.0,,0.0,0.0,0.0,1.0,"[0.1746999144881729, 0.0, 0.0, 0.0, 0.0, 0.0, 0.0, 0.17852250034708764, 0.0, 0.0, 0.0, 0.027051343975295683, 0.0, 0.0, 9.998333891729313e-07, 0.0, -1.7472995353445317e-15, 0.0, 0.0, 0.0, 0.0, 9.996668898236324e-07, 0.0, 0.0, 0.0, 0.0, -1.7472995353445321e-15, 0.0, 9.996668898236142e-07, 0.0, 0.0, 0.02705134397529569, 0.0, 0.0, 0.0, 0.2093467883228841]",,,,0.207285908971,0.0,0.0,,0.0,0.0,0.0,"[0.00024349234861691717, 0.0, 0.0, 0.0, 0.0, 0.0, 0.0, 9.999996239542737e-10, 0.0, 0.0, 0.0, 0.0, 0.0, 0.0, 9.997501255505606e-07, 0.0, -4.372470345629543e-24, 0.0, 0.0, 0.0, 0.0, 9.990019953325968e-07, 0.0, 0.0, 0.0, 0.0, -4.3724703456295466e-24, 0.0, 9.990019953325968e-07, 0.0, 0.0, 0.0, 0.0, 0.0, 0.0, 9.999995000005001e-10]"
11013000000,,84,,11,13000000,turtlebot2/odom,turtlebot2/base_footprint_self,,,,0.182645208584,0.0,0.0,,0.0,0.0,0.0,1.0,"[0.17970868019755337, 0.0, 0.0, 0.0, 0.0, 0.0, 0.0, 0.18476664661048195, 0.0, 0.0, 0.0, 0.03147938084697738, 0.0, 0.0, 9.998333891563083e-07, 0.0, -1.1735225826361861e-15, 0.0, 0.0, 0.0, 0.0, 9.996668898112922e-07, 0.0, 0.0, 0.0, 0.0, -1.1735225826361865e-15, 0.0, 9.99666889811284e-07, 0.0, 0.0, 0.031479380846977385, 0.0, 0.0, 0.0, 0.21534678833288406]",,,,0.199013095866,0.0,0.0,,0.0,0.0,0.0,"[0.00019726665423950597, 0.0, 0.0, 0.0, 0.0, 0.0, 0.0, 9.999996240197905e-10, 0.0, 0.0, 0.0, 0.0, 0.0, 0.0, 9.99750125545368e-07, 0.0, -2.9345001134414488e-24, 0.0, 0.0, 0.0, 0.0, 9.990019950106472e-07, 0.0, 0.0, 0.0, 0.0, -2.934500113441448e-24, 0.0, 9.990019950106472e-07, 0.0, 0.0, 0.0, 0.0, 0.0, 0.0, 9.999995000005e-10]"
11112000000,,85,,11,112000000,turtlebot2/odom,turtlebot2/base_footprint_self,,,,0.202420089671,0.0,0.0,,0.0,0.0,0.0,1.0,"[0.18476717148606217, 0.0, 0.0, 0.0, 0.0, 0.0, 0.0, 0.19120274495614512, 0.0, 0.0, 0.0, 0.035889895538584765, 0.0, 0.0, 9.99835038226309e-07, 0.0, -1.1139326109877805e-15, 0.0, 0.0, 0.0, 0.0, 9.996701857677762e-07, 0.0, 0.0, 0.0, 0.0, -1.1139326109877801e-15, 0.0, 9.996701857677683e-07, 0.0, 0.0, 0.03588989553858477, 0.0, 0.0, 0.0, 0.22140678834308514]",,,,0.192653676903,0.0,0.0,,0.0,0.0,0.0,"[0.0001951243810849073, 0.0, 0.0, 0.0, 0.0, 0.0, 0.0, 9.999996280235715e-10, 0.0, 0.0, 0.0, 0.0, 0.0, 0.0, 9.997525983320542e-07, 0.0, -2.7858373092431412e-24, 0.0, 0.0, 0.0, 0.0, 9.99011856729753e-07, 0.0, 0.0, 0.0, 0.0, -2.7858373092431423e-24, 0.0, 9.99011856729753e-07, 0.0, 0.0, 0.0, 0.0, 0.0, 0.0, 9.999995049509852e-10]"
11212000000,,86,,11,212000000,turtlebot2/odom,turtlebot2/base_footprint_self,,,,0.16833630412,0.0,0.0,,0.0,0.0,0.0,1.0,"[0.18982608360886133, 0.0, 0.0, 0.0, 0.0, 0.0, 0.0, 0.19776680694870077, 0.0, 0.0, 0.0, 0.040272918013758346, 0.0, 0.0, 9.998350382256049e-07, 0.0, -1.076693875204978e-15, 0.0, 0.0, 0.0, 0.0, 9.996701857681453e-07, 0.0, 0.0, 0.0, 0.0, -1.0766938752049775e-15, 0.0, 9.996701857681383e-07, 0.0, 0.0, 0.040272918013758346, 0.0, 0.0, 0.0, 0.2274667883532861]",,,,-0.856827638105,0.0,0.0,,0.0,0.0,0.0,"[0.00037448601364779166, 0.0, 0.0, 0.0, 0.0, 0.0, 0.0, 9.999996280759573e-10, 0.0, 0.0, 0.0, 0.0, 0.0, 0.0, 9.997525983322096e-07, 0.0, -2.692766689197585e-24, 0.0, 0.0, 0.0, 0.0, 9.990118567393824e-07, 0.0, 0.0, 0.0, 0.0, -2.6927666891975853e-24, 0.0, 9.990118567393824e-07, 0.0, 0.0, 0.0, 0.0, 0.0, 0.0, 9.999995049509852e-10]"
11310000000,,87,,11,312000000,turtlebot2/odom,turtlebot2/base_footprint_self,,,,0.134617583154,0.0,0.0,,0.0,0.0,0.0,1.0,"[0.19488666984886674, 0.0, 0.0, 0.0, 0.0, 0.0, 0.0, 0.19743897422670412, 0.0, 0.0, 0.0, 0.01992957331224691, 0.0, 0.0, 9.998350384324622e-07, 0.0, 4.864220627113965e-15, 0.0, 0.0, 0.0, 0.0, 9.996701857681453e-07, 0.0, 0.0, 0.0, 0.0, 4.864220627113964e-15, 0.0, 9.99670185768002e-07, 0.0, 0.0, 0.01992957331224691, 0.0, 0.0, 0.0, 0.23352678836348717]",,,,0.0538212880148,0.0,0.0,,0.0,0.0,0.0,"[0.0004277948308221027, 0.0, 0.0, 0.0, 0.0, 0.0, 0.0, 9.99999628122152e-10, 0.0, 0.0, 0.0, 0.0, 0.0, 0.0, 9.997525983322099e-07, 0.0, 1.2165206218491456e-23, 0.0, 0.0, 0.0, 0.0, 9.990118567393822e-07, 0.0, 0.0, 0.0, 0.0, 1.216520621849145e-23, 0.0, 9.990118567393822e-07, 0.0, 0.0, 0.0, 0.0, 0.0, 0.0, 9.999995049509852e-10]"
11412000000,,88,,11,412000000,turtlebot2/odom,turtlebot2/base_footprint_self,,,,0.147916200925,0.0,0.0,,0.0,0.0,0.0,1.0,"[0.19989731038877895, 0.0, 0.0, 0.0, 0.0, 0.0, 0.0, 0.20266904028266036, 0.0, 0.0, 0.0, 0.02120076355641302, 0.0, 0.0, 9.998333891447658e-07, 0.0, -3.020100584178823e-16, 0.0, 0.0, 0.0, 0.0, 9.996668898116689e-07, 0.0, 0.0, 0.0, 0.0, -3.0201005841788215e-16, 0.0, 9.996668898116683e-07, 0.0, 0.0, 0.02120076355641302, 0.0, 0.0, 0.0, 0.23952678837348715]",,,,0.185010933304,0.0,0.0,,0.0,0.0,0.0,"[0.000328816977090226, 0.0, 0.0, 0.0, 0.0, 0.0, 0.0, 9.999996242171403e-10, 0.0, 0.0, 0.0, 0.0, 0.0, 0.0, 9.997501255455265e-07, 0.0, -7.552139963730037e-25, 0.0, 0.0, 0.0, 0.0, 9.990019950204692e-07, 0.0, 0.0, 0.0, 0.0, -7.552139963730037e-25, 0.0, 9.990019950204692e-07, 0.0, 0.0, 0.0, 0.0, 0.0, 0.0, 9.999995000005e-10]"
11512000000,,89,,11,512000000,turtlebot2/odom,turtlebot2/base_footprint_self,,,,0.147916200925,0.0,0.0,,0.0,0.0,0.0,1.0,"[0.19989731038877895, 0.0, 0.0, 0.0, 0.0, 0.0, 0.0, 0.20266904028266036, 0.0, 0.0, 0.0, 0.02120076355641302, 0.0, 0.0, 9.998333891447658e-07, 0.0, -3.020100584178823e-16, 0.0, 0.0, 0.0, 0.0, 9.996668898116689e-07, 0.0, 0.0, 0.0, 0.0, -3.0201005841788215e-16, 0.0, 9.996668898116683e-07, 0.0, 0.0, 0.02120076355641302, 0.0, 0.0, 0.0, 0.23952678837348715]",,,,0.185010933304,0.0,0.0,,0.0,0.0,0.0,"[0.000328816977090226, 0.0, 0.0, 0.0, 0.0, 0.0, 0.0, 9.999996242171403e-10, 0.0, 0.0, 0.0, 0.0, 0.0, 0.0, 9.997501255455265e-07, 0.0, -7.552139963730037e-25, 0.0, 0.0, 0.0, 0.0, 9.990019950204692e-07, 0.0, 0.0, 0.0, 0.0, -7.552139963730037e-25, 0.0, 9.990019950204692e-07, 0.0, 0.0, 0.0, 0.0, 0.0, 0.0, 9.999995000005e-10]"
11613000000,,90,,11,613000000,turtlebot2/odom,turtlebot2/base_footprint_self,,,,0.176386686543,0.0,0.0,,0.0,0.0,0.0,1.0,"[0.20727267874772515, 0.0, 0.0, 0.0, 0.0, 0.0, 0.0, 0.21142067961136185, 0.0, 0.0, 0.0, 0.027948414831942756, 0.0, 0.0, 9.998866473058986e-07, 0.0, -7.235159427508752e-16, 0.0, 0.0, 0.0, 0.0, 9.997733465127036e-07, 0.0, 0.0, 0.0, 0.0, -7.235159427508751e-16, 0.0, 9.997733465126987e-07, 0.0, 0.0, 0.027948414831942756, 0.0, 0.0, 0.0, 0.24834678839509616]",,,,0.203282330321,0.0,0.0,,0.0,0.0,0.0,"[0.0004633772745761854, 0.0, 0.0, 0.0, 0.0, 0.0, 0.0, 9.999997514709658e-10, 0.0, 0.0, 0.0, 0.0, 0.0, 0.0, 9.998299904159682e-07, 0.0, -1.821109558710389e-24, 0.0, 0.0, 0.0, 0.0, 9.99320651711064e-07, 0.0, 0.0, 0.0, 0.0, -1.821109558710389e-24, 0.0, 9.99320651711064e-07, 0.0, 0.0, 0.0, 0.0, 0.0, 0.0, 9.99999659864177e-10]"
11713000000,,91,,11,714000000,turtlebot2/odom,turtlebot2/base_footprint_self,,,,0.196503068361,0.0,0.0,,0.0,0.0,0.0,1.0,"[0.21228345780870084, 0.0, 0.0, 0.0, 0.0, 0.0, 0.0, 0.2176965959668874, 0.0, 0.0, 0.0, 0.03311247543055443, 0.0, 0.0, 9.99833389157394e-07, 0.0, -1.1537866611417276e-15, 0.0, 0.0, 0.0, 0.0, 9.996668898234575e-07, 0.0, 0.0, 0.0, 0.0, -1.1537866611417282e-15, 0.0, 9.996668898234494e-07, 0.0, 0.0, 0.03311247543055443, 0.0, 0.0, 0.0, 0.25434678840509617]",,,,0.202025149358,0.0,0.0,,0.0,0.0,0.0,"[0.0003005975731792988, 0.0, 0.0, 0.0, 0.0, 0.0, 0.0, 9.999996243531954e-10, 0.0, 0.0, 0.0, 0.0, 0.0, 0.0, 9.997501255504869e-07, 0.0, -2.8872211373926496e-24, 0.0, 0.0, 0.0, 0.0, 9.990019953280311e-07, 0.0, 0.0, 0.0, 0.0, -2.8872211373926492e-24, 0.0, 9.990019953280311e-07, 0.0, 0.0, 0.0, 0.0, 0.0, 0.0, 9.999995000005e-10]"
11812000000,,92,,11,812000000,turtlebot2/odom,turtlebot2/base_footprint_self,,,,0.227299778674,0.0,0.0,,0.0,0.0,0.0,1.0,"[0.219910865055944, 0.0, 0.0, 0.0, 0.0, 0.0, 0.0, 0.22767146329002177, 0.0, 0.0, 0.0, 0.04117783974821558, 0.0, 0.0, 9.998903752069974e-07, 0.0, -7.617358553237381e-16, 0.0, 0.0, 0.0, 0.0, 9.9978079898795e-07, 0.0, 0.0, 0.0, 0.0, -7.617358553237381e-16, 0.0, 9.997807989879449e-07, 0.0, 0.0, 0.04117783974821558, 0.0, 0.0, 0.0, 0.26346678842820015]",,,,0.200343991931,0.0,0.0,,0.0,0.0,0.0,"[0.00046529436737931674, 0.0, 0.0, 0.0, 0.0, 0.0, 0.0, 9.999997604653878e-10, 0.0, 0.0, 0.0, 0.0, 0.0, 0.0, 9.998355810182565e-07, 0.0, -1.9188339136618607e-24, 0.0, 0.0, 0.0, 0.0, 9.993429693436e-07, 0.0, 0.0, 0.0, 0.0, -1.9188339136618607e-24, 0.0, 9.993429693436e-07, 0.0, 0.0, 0.0, 0.0, 0.0, 0.0, 9.999996710528481e-10]"
11912000000,,93,,11,912000000,turtlebot2/odom,turtlebot2/base_footprint_self,,,,0.247903870058,0.0,0.0,,0.0,0.0,0.0,1.0,"[0.22512287800000502, 0.0, 0.0, 0.0, 0.0, 0.0, 0.0, 0.23474823794285843, 0.0, 0.0, 0.0, 0.04677854981751888, 0.0, 0.0, 9.998397952245342e-07, 0.0, -1.090594012951075e-15, 0.0, 0.0, 0.0, 0.0, 9.996796935902073e-07, 0.0, 0.0, 0.0, 0.0, -1.0905940129510751e-15, 0.0, 9.996796935902e-07, 0.0, 0.0, 0.04677854981751888, 0.0, 0.0, 0.0, 0.26970678843901624]",,,,0.198655463745,0.0,0.0,,0.0,0.0,0.0,"[0.00032899596313585547, 0.0, 0.0, 0.0, 0.0, 0.0, 0.0, 9.99999639786968e-10, 0.0, 0.0, 0.0, 0.0, 0.0, 0.0, 9.997597315127386e-07, 0.0, -2.7305950182856313e-24, 0.0, 0.0, 0.0, 0.0, 9.990403064934083e-07, 0.0, 0.0, 0.0, 0.0, -2.73059501828563e-24, 0.0, 9.990403064934083e-07, 0.0, 0.0, 0.0, 0.0, 0.0, 0.0, 9.999995192312316e-10]"
12012000000,,94,,12,12000000,turtlebot2/odom,turtlebot2/base_footprint_self,,,,0.247903870058,0.0,0.0,,0.0,0.0,0.0,1.0,"[0.22512287800000502, 0.0, 0.0, 0.0, 0.0, 0.0, 0.0, 0.23474823794285843, 0.0, 0.0, 0.0, 0.04677854981751888, 0.0, 0.0, 9.998397952245342e-07, 0.0, -1.090594012951075e-15, 0.0, 0.0, 0.0, 0.0, 9.996796935902073e-07, 0.0, 0.0, 0.0, 0.0, -1.0905940129510751e-15, 0.0, 9.996796935902e-07, 0.0, 0.0, 0.04677854981751888, 0.0, 0.0, 0.0, 0.26970678843901624]",,,,0.198655463745,0.0,0.0,,0.0,0.0,0.0,"[0.00032899596313585547, 0.0, 0.0, 0.0, 0.0, 0.0, 0.0, 9.99999639786968e-10, 0.0, 0.0, 0.0, 0.0, 0.0, 0.0, 9.997597315127386e-07, 0.0, -2.7305950182856313e-24, 0.0, 0.0, 0.0, 0.0, 9.990403064934083e-07, 0.0, 0.0, 0.0, 0.0, -2.73059501828563e-24, 0.0, 9.990403064934083e-07, 0.0, 0.0, 0.0, 0.0, 0.0, 0.0, 9.999995192312316e-10]"
12112000000,,95,,12,112000000,turtlebot2/odom,turtlebot2/base_footprint_self,,,,0.277040093779,0.0,0.0,,0.0,0.0,0.0,1.0,"[0.2323480265056826, 0.0, 0.0, 0.0, 0.0, 0.0, 0.0, 0.2449440159848697, 0.0, 0.0, 0.0, 0.054695593341075176, 0.0, 0.0, 9.998842863332536e-07, 0.0, -7.856513996809915e-16, 0.0, 0.0, 0.0, 0.0, 9.99768626727377e-07, 0.0, 0.0, 0.0, 0.0, -7.856513996809914e-16, 0.0, 9.997686267273718e-07, 0.0, 0.0, 0.054695593341075176, 0.0, 0.0, 0.0, 0.27834678845975225]",,,,0.205659925736,0.0,0.0,,0.0,0.0,0.0,"[0.0004495906990347502, 0.0, 0.0, 0.0, 0.0, 0.0, 0.0, 9.9999974605229e-10, 0.0, 0.0, 0.0, 0.0, 0.0, 0.0, 9.998264497661661e-07, 0.0, -1.976753773720088e-24, 0.0, 0.0, 0.0, 0.0, 9.99306518260159e-07, 0.0, 0.0, 0.0, 0.0, -1.976753773720087e-24, 0.0, 9.99306518260159e-07, 0.0, 0.0, 0.0, 0.0, 0.0, 0.0, 9.99999652778019e-10]"
12213000000,,96,,12,212000000,turtlebot2/odom,turtlebot2/base_footprint_self,,,,0.307717355241,0.0,0.0,,0.0,0.0,0.0,1.0,"[0.23987817510596285, 0.0, 0.0, 0.0, 0.0, 0.0, 0.0, 0.2562028224120035, 0.0, 0.0, 0.0, 0.06350191559809967, 0.0, 0.0, 9.99888913864798e-07, 0.0, -7.804769782816049e-16, 0.0, 0.0, 0.0, 0.0, 9.99777877596529e-07, 0.0, 0.0, 0.0, 0.0, -7.804769782816049e-16, 0.0, 9.997778775965234e-07, 0.0, 0.0, 0.06350191559809967, 0.0, 0.0, 0.0, 0.28734678848225226]",,,,0.202524497428,0.0,0.0,,0.0,0.0,0.0,"[0.0004604963284158206, 0.0, 0.0, 0.0, 0.0, 0.0, 0.0, 9.999997571348048e-10, 0.0, 0.0, 0.0, 0.0, 0.0, 0.0, 9.998333894895033e-07, 0.0, -1.9667652477568404e-24, 0.0, 0.0, 0.0, 0.0, 9.993342207290088e-07, 0.0, 0.0, 0.0, 0.0, -1.96676524775684e-24, 0.0, 9.993342207290088e-07, 0.0, 0.0, 0.0, 0.0, 0.0, 0.0, 9.99999666666889e-10]"
12313000000,,97,,12,313000000,turtlebot2/odom,turtlebot2/base_footprint_self,,,,0.328543320473,0.0,0.0,,0.0,0.0,0.0,1.0,"[0.2450399025592123, 0.0, 0.0, 0.0, 0.0, 0.0, 0.0, 0.26417977974558116, 0.0, 0.0, 0.0, 0.06959060500725242, 0.0, 0.0, 9.998382403388172e-07, 0.0, -1.1082820510114035e-15, 0.0, 0.0, 0.0, 0.0, 9.996765858194246e-07, 0.0, 0.0, 0.0, 0.0, -1.1082820510114035e-15, 0.0, 9.996765858194167e-07, 0.0, 0.0, 0.06959060500725242, 0.0, 0.0, 0.0, 0.29352678849286123]",,,,0.203795580367,0.0,0.0,,0.0,0.0,0.0,"[0.0003125378107491544, 0.0, 0.0, 0.0, 0.0, 0.0, 0.0, 9.99999636196075e-10, 0.0, 0.0, 0.0, 0.0, 0.0, 0.0, 9.997573999345216e-07, 0.0, -2.774476490749613e-24, 0.0, 0.0, 0.0, 0.0, 9.990310071235895e-07, 0.0, 0.0, 0.0, 0.0, -2.7744764907496132e-24, 0.0, 9.990310071235895e-07, 0.0, 0.0, 0.0, 0.0, 0.0, 0.0, 9.999995145635781e-10]"
12412000000,,98,,12,412000000,turtlebot2/odom,turtlebot2/base_footprint_self,,,,0.328543320473,0.0,0.0,,0.0,0.0,0.0,1.0,"[0.2450399025592123, 0.0, 0.0, 0.0, 0.0, 0.0, 0.0, 0.26417977974558116, 0.0, 0.0, 0.0, 0.06959060500725242, 0.0, 0.0, 9.998382403388172e-07, 0.0, -1.1082820510114035e-15, 0.0, 0.0, 0.0, 0.0, 9.996765858194246e-07, 0.0, 0.0, 0.0, 0.0, -1.1082820510114035e-15, 0.0, 9.996765858194167e-07, 0.0, 0.0, 0.06959060500725242, 0.0, 0.0, 0.0, 0.29352678849286123]",,,,0.203795580367,0.0,0.0,,0.0,0.0,0.0,"[0.0003125378107491544, 0.0, 0.0, 0.0, 0.0, 0.0, 0.0, 9.99999636196075e-10, 0.0, 0.0, 0.0, 0.0, 0.0, 0.0, 9.997573999345216e-07, 0.0, -2.774476490749613e-24, 0.0, 0.0, 0.0, 0.0, 9.990310071235895e-07, 0.0, 0.0, 0.0, 0.0, -2.7744764907496132e-24, 0.0, 9.990310071235895e-07, 0.0, 0.0, 0.0, 0.0, 0.0, 0.0, 9.999995145635781e-10]"
12512000000,,99,,12,512000000,turtlebot2/odom,turtlebot2/base_footprint_self,,,,0.35837596815,0.0,0.0,,0.0,0.0,0.0,1.0,"[0.2524165303448394, 0.0, 0.0, 0.0, 0.0, 0.0, 0.0, 0.27608138502818613, 0.0, 0.0, 0.0, 0.07857113256701916, 0.0, 0.0, 9.998866473077928e-07, 0.0, -7.857925174442112e-16, 0.0, 0.0, 0.0, 0.0, 9.997733465132336e-07, 0.0, 0.0, 0.0, 0.0, -7.857925174442111e-16, 0.0, 9.997733465132283e-07, 0.0, 0.0, 0.07857113256701916, 0.0, 0.0, 0.0, 0.3023467885144702]",,,,0.201150831057,0.0,0.0,,0.0,0.0,0.0,"[0.0004384895673817995, 0.0, 0.0, 0.0, 0.0, 0.0, 0.0, 9.999997517846182e-10, 0.0, 0.0, 0.0, 0.0, 0.0, 0.0, 9.998299904161904e-07, 0.0, -1.9779907688191128e-24, 0.0, 0.0, 0.0, 0.0, 9.993206517244533e-07, 0.0, 0.0, 0.0, 0.0, -1.9779907688191128e-24, 0.0, 9.993206517244533e-07, 0.0, 0.0, 0.0, 0.0, 0.0, 0.0, 9.99999659864177e-10]"
12612000000,,100,,12,613000000,turtlebot2/odom,turtlebot2/base_footprint_self,,,,0.37862680995,0.0,0.0,,0.0,0.0,0.0,1.0,"[0.2574772378718739, 0.0, 0.0, 0.0, 0.0, 0.0, 0.0, 0.28450028208251027, 0.0, 0.0, 0.0, 0.08479427804554576, 0.0, 0.0, 9.998350382278957e-07, 0.0, -1.119589600715886e-15, 0.0, 0.0, 0.0, 0.0, 9.996701857797087e-07, 0.0, 0.0, 0.0, 0.0, -1.1195896007158855e-15, 0.0, 9.996701857797011e-07, 0.0, 0.0, 0.08479427804554576, 0.0, 0.0, 0.0, 0.3084067885246712]",,,,0.20174816106,0.0,0.0,,0.0,0.0,0.0,"[0.000296757339582525, 0.0, 0.0, 0.0, 0.0, 0.0, 0.0, 9.999996285748494e-10, 0.0, 0.0, 0.0, 0.0, 0.0, 0.0, 9.997525983370752e-07, 0.0, -2.8019960254769023e-24, 0.0, 0.0, 0.0, 0.0, 9.99011857040896e-07, 0.0, 0.0, 0.0, 0.0, -2.8019960254769026e-24, 0.0, 9.99011857040896e-07, 0.0, 0.0, 0.0, 0.0, 0.0, 0.0, 9.999995049509852e-10]"
12712000000,,101,,12,712000000,turtlebot2/odom,turtlebot2/base_footprint_self,,,,0.3986396259,0.0,0.0,,0.0,0.0,0.0,1.0,"[0.26243653568848563, 0.0, 0.0, 0.0, 0.0, 0.0, 0.0, 0.2930105790142336, 0.0, 0.0, 0.0, 0.09102880211300607, 0.0, 0.0, 9.998317067811539e-07, 0.0, -1.1443333971405833e-15, 0.0, 0.0, 0.0, 0.0, 9.996635273150138e-07, 0.0, 0.0, 0.0, 0.0, -1.1443333971405831e-15, 0.0, 9.99663527315006e-07, 0.0, 0.0, 0.09102880211300607, 0.0, 0.0, 0.0, 0.3143467885344722]",,,,0.203581596366,0.0,0.0,,0.0,0.0,0.0,"[0.00028508766440521325, 0.0, 0.0, 0.0, 0.0, 0.0, 0.0, 9.999996205910187e-10, 0.0, 0.0, 0.0, 0.0, 0.0, 0.0, 9.997476028287707e-07, 0.0, -2.8612176932294784e-24, 0.0, 0.0, 0.0, 0.0, 9.989919344763803e-07, 0.0, 0.0, 0.0, 0.0, -2.8612176932294787e-24, 0.0, 9.989919344763803e-07, 0.0, 0.0, 0.0, 0.0, 0.0, 0.0, 9.999994949500052e-10]"
12812000000,,102,,12,812000000,turtlebot2/odom,turtlebot2/base_footprint_self,,,,0.418886980237,0.0,0.0,,0.0,0.0,0.0,1.0,"[0.2674961902388748, 0.0, 0.0, 0.0, 0.0, 0.0, 0.0, 0.30199060541178746, 0.0, 0.0, 0.0, 0.09756856182769857, 0.0, 0.0, 9.998350382266256e-07, 0.0, -1.1315124741402046e-15, 0.0, 0.0, 0.0, 0.0, 9.99670185767399e-07, 0.0, 0.0, 0.0, 0.0, -1.1315124741402044e-15, 0.0, 9.996701857673914e-07, 0.0, 0.0, 0.09756856182769857, 0.0, 0.0, 0.0, 0.32040678854467314]",,,,0.199820062627,0.0,0.0,,0.0,0.0,0.0,"[0.0002882385985935015, 0.0, 0.0, 0.0, 0.0, 0.0, 0.0, 9.999996285482762e-10, 0.0, 0.0, 0.0, 0.0, 0.0, 0.0, 9.997525983318956e-07, 0.0, -2.829738569108526e-24, 0.0, 0.0, 0.0, 0.0, 9.990118567199298e-07, 0.0, 0.0, 0.0, 0.0, -2.829738569108526e-24, 0.0, 9.990118567199298e-07, 0.0, 0.0, 0.0, 0.0, 0.0, 0.0, 9.999995049509852e-10]"
12912000000,,103,,12,912000000,turtlebot2/odom,turtlebot2/base_footprint_self,,,,0.438884701945,0.0,0.0,,0.0,0.0,0.0,1.0,"[0.2725558883215237, 0.0, 0.0, 0.0, 0.0, 0.0, 0.0, 0.31116066134611775, 0.0, 0.0, 0.0, 0.10410412045659348, 0.0, 0.0, 9.998350382262622e-07, 0.0, -1.1094059251316084e-15, 0.0, 0.0, 0.0, 0.0, 9.996701857681455e-07, 0.0, 0.0, 0.0, 0.0, -1.1094059251316082e-15, 0.0, 9.99670185768138e-07, 0.0, 0.0, 0.10410412045659348, 0.0, 0.0, 0.0, 0.3264667885548742]",,,,0.197923235954,0.0,0.0,,0.0,0.0,0.0,"[0.00029719768575881136, 0.0, 0.0, 0.0, 0.0, 0.0, 0.0, 9.999996285381329e-10, 0.0, 0.0, 0.0, 0.0, 0.0, 0.0, 9.997525983322099e-07, 0.0, -2.7745781756803932e-24, 0.0, 0.0, 0.0, 0.0, 9.990118567393822e-07, 0.0, 0.0, 0.0, 0.0, -2.774578175680393e-24, 0.0, 9.990118567393822e-07, 0.0, 0.0, 0.0, 0.0, 0.0, 0.0, 9.999995049509852e-10]"
13012000000,,104,,13,12000000,turtlebot2/odom,turtlebot2/base_footprint_self,,,,0.467364697479,0.0,0.0,,0.0,0.0,0.0,1.0,"[0.2799822642440961, 0.0, 0.0, 0.0, 0.0, 0.0, 0.0, 0.32505477203588007, 0.0, 0.0, 0.0, 0.11380504699648727, 0.0, 0.0, 9.998874130330266e-07, 0.0, -7.529019582259168e-16, 0.0, 0.0, 0.0, 0.0, 9.997748772734461e-07, 0.0, 0.0, 0.0, 0.0, -7.529019582259168e-16, 0.0, 9.99774877273441e-07, 0.0, 0.0, 0.11380504699648727, 0.0, 0.0, 0.0, 0.3353467885767782]",,,,0.185165899884,0.0,0.0,,0.0,0.0,0.0,"[0.00041579898467571184, 0.0, 0.0, 0.0, 0.0, 0.0, 0.0, 9.999997536090378e-10, 0.0, 0.0, 0.0, 0.0, 0.0, 0.0, 9.998311387457674e-07, 0.0, -1.895415678302813e-24, 0.0, 0.0, 0.0, 0.0, 9.993252357151925e-07, 0.0, 0.0, 0.0, 0.0, -1.8954156783028137e-24, 0.0, 9.993252357151925e-07, 0.0, 0.0, 0.0, 0.0, 0.0, 0.0, 9.999996621623905e-10]"
13113000000,,105,,13,112000000,turtlebot2/odom,turtlebot2/base_footprint_self,,,,0.472337477588,0.0,0.0,,0.0,0.0,0.0,1.0,"[0.2850929925619321, 0.0, 0.0, 0.0, 0.0, 0.0, 0.0, 0.334614305206787, 0.0, 0.0, 0.0, 0.12018683615537563, 0.0, 0.0, 9.998366549728653e-07, 0.0, -1.0149621049697766e-15, 0.0, 0.0, 0.0, 0.0, 9.996734171517425e-07, 0.0, 0.0, 0.0, 0.0, -1.0149621049697774e-15, 0.0, 9.996734171517362e-07, 0.0, 0.0, 0.12018683615537563, 0.0, 0.0, 0.0, 0.3414667885871822]",,,,-0.011160273682,0.0,0.0,,0.0,0.0,0.0,"[0.0002812459679331069, 0.0, 0.0, 0.0, 0.0, 0.0, 0.0, 9.99999632444071e-10, 0.0, 0.0, 0.0, 0.0, 0.0, 0.0, 9.997550226614767e-07, 0.0, -2.540489008741648e-24, 0.0, 0.0, 0.0, 0.0, 9.990215257695111e-07, 0.0, 0.0, 0.0, 0.0, -2.54048900874165e-24, 0.0, 9.990215257695111e-07, 0.0, 0.0, 0.0, 0.0, 0.0, 0.0, 9.999995098044023e-10]"
13212000000,,106,,13,212000000,turtlebot2/odom,turtlebot2/base_footprint_self,,,,0.471263125955,0.0,0.0,,0.0,0.0,0.0,1.0,"[0.2901024430253714, 0.0, 0.0, 0.0, 0.0, 0.0, 0.0, 0.339240909745998, 0.0, 0.0, 0.0, 0.119646421313536, 0.0, 0.0, 9.99833389144059e-07, 0.0, 8.780674442475814e-17, 0.0, 0.0, 0.0, 0.0, 9.996668898120382e-07, 0.0, 0.0, 0.0, 0.0, 8.780674442475811e-17, 0.0, 9.99666889812038e-07, 0.0, 0.0, 0.119646421313536, 0.0, 0.0, 0.0, 0.3474667885971822]",,,,-0.0127983009541,0.0,0.0,,0.0,0.0,0.0,"[0.00029349661733240055, 0.0, 0.0, 0.0, 0.0, 0.0, 0.0, 9.999996246184484e-10, 0.0, 0.0, 0.0, 0.0, 0.0, 0.0, 9.997501255456819e-07, 0.0, 2.1957698820810047e-25, 0.0, 0.0, 0.0, 0.0, 9.990019950300993e-07, 0.0, 0.0, 0.0, 0.0, 2.1957698820810047e-25, 0.0, 9.990019950300993e-07, 0.0, 0.0, 0.0, 0.0, 0.0, 0.0, 9.999995000005e-10]"
13312000000,,107,,13,313000000,turtlebot2/odom,turtlebot2/base_footprint_self,,,,0.470646186532,0.0,0.0,,0.0,0.0,0.0,1.0,"[0.29506163270078606, 0.0, 0.0, 0.0, 0.0, 0.0, 0.0, 0.3437907873577998, 0.0, 0.0, 0.0, 0.11905527357267554, 0.0, 0.0, 9.998317067696217e-07, 0.0, 9.630626201290934e-17, 0.0, 0.0, 0.0, 0.0, 9.996635273146296e-07, 0.0, 0.0, 0.0, 0.0, 9.630626201290935e-17, 0.0, 9.996635273146296e-07, 0.0, 0.0, 0.11905527357267554, 0.0, 0.0, 0.0, 0.3534067886069832]",,,,-0.00507350596085,0.0,0.0,,0.0,0.0,0.0,"[0.00029342374270301396, 0.0, 0.0, 0.0, 0.0, 0.0, 0.0, 9.999996205804269e-10, 0.0, 0.0, 0.0, 0.0, 0.0, 0.0, 9.99747602828609e-07, 0.0, 2.4079269845513004e-25, 0.0, 0.0, 0.0, 0.0, 9.989919344663586e-07, 0.0, 0.0, 0.0, 0.0, 2.4079269845513e-25, 0.0, 9.989919344663586e-07, 0.0, 0.0, 0.0, 0.0, 0.0, 0.0, 9.999994949500052e-10]"
13412000000,,108,,13,412000000,turtlebot2/odom,turtlebot2/base_footprint_self,,,,0.470682438507,0.0,0.0,,0.0,0.0,0.0,1.0,"[0.30007110519323066, 0.0, 0.0, 0.0, 0.0, 0.0, 0.0, 0.3485829599242776, 0.0, 0.0, 0.0, 0.11873720176962939, 0.0, 0.0, 9.998333891438726e-07, 0.0, 4.9933888968034043e-17, 0.0, 0.0, 0.0, 0.0, 9.99666889810908e-07, 0.0, 0.0, 0.0, 0.0, 4.9933888968034055e-17, 0.0, 9.99666889810908e-07, 0.0, 0.0, 0.11873720176962939, 0.0, 0.0, 0.0, 0.3594067886169832]",,,,0.00138323608736,0.0,0.0,,0.0,0.0,0.0,"[0.00029737329022074314, 0.0, 0.0, 0.0, 0.0, 0.0, 0.0, 9.9999962459368e-10, 0.0, 0.0, 0.0, 0.0, 0.0, 0.0, 9.997501255452063e-07, 0.0, 1.2486147361119595e-25, 0.0, 0.0, 0.0, 0.0, 9.990019950006264e-07, 0.0, 0.0, 0.0, 0.0, 1.24861473611196e-25, 0.0, 9.990019950006264e-07, 0.0, 0.0, 0.0, 0.0, 0.0, 0.0, 9.999995000005e-10]"
13512000000,,109,,13,512000000,turtlebot2/odom,turtlebot2/base_footprint_self,,,,0.470682438507,0.0,0.0,,0.0,0.0,0.0,1.0,"[0.30007110519323066, 0.0, 0.0, 0.0, 0.0, 0.0, 0.0, 0.3485829599242776, 0.0, 0.0, 0.0, 0.11873720176962939, 0.0, 0.0, 9.998333891438726e-07, 0.0, 4.9933888968034043e-17, 0.0, 0.0, 0.0, 0.0, 9.99666889810908e-07, 0.0, 0.0, 0.0, 0.0, 4.9933888968034055e-17, 0.0, 9.99666889810908e-07, 0.0, 0.0, 0.11873720176962939, 0.0, 0.0, 0.0, 0.3594067886169832]",,,,0.00138323608736,0.0,0.0,,0.0,0.0,0.0,"[0.00029737329022074314, 0.0, 0.0, 0.0, 0.0, 0.0, 0.0, 9.9999962459368e-10, 0.0, 0.0, 0.0, 0.0, 0.0, 0.0, 9.997501255452063e-07, 0.0, 1.2486147361119595e-25, 0.0, 0.0, 0.0, 0.0, 9.990019950006264e-07, 0.0, 0.0, 0.0, 0.0, 1.24861473611196e-25, 0.0, 9.990019950006264e-07, 0.0, 0.0, 0.0, 0.0, 0.0, 0.0, 9.999995000005e-10]"
13612000000,,110,,13,612000000,turtlebot2/odom,turtlebot2/base_footprint_self,,,,0.470658584279,0.0,0.0,,0.0,0.0,0.0,1.0,"[0.30754811400570053, 0.0, 0.0, 0.0, 0.0, 0.0, 0.0, 0.3559173908631625, 0.0, 0.0, 0.0, 0.11853282836551078, 0.0, 0.0, 9.998881684720303e-07, 0.0, 1.4215226856925147e-17, 0.0, 0.0, 0.0, 0.0, 9.99776387495899e-07, 0.0, 0.0, 0.0, 0.0, 1.421522685692515e-17, 0.0, 9.99776387495899e-07, 0.0, 0.0, 0.11853282836551078, 0.0, 0.0, 0.0, 0.3683467886391843]",,,,-0.000925123284805,0.0,0.0,,0.0,0.0,0.0,"[0.0004439563818460411, 0.0, 0.0, 0.0, 0.0, 0.0, 0.0, 9.999997554086315e-10, 0.0, 0.0, 0.0, 0.0, 0.0, 0.0, 9.998322716667661e-07, 0.0, 3.579142848127693e-26, 0.0, 0.0, 0.0, 0.0, 9.993297582625835e-07, 0.0, 0.0, 0.0, 0.0, 3.5791428481276926e-26, 0.0, 9.993297582625835e-07, 0.0, 0.0, 0.0, 0.0, 0.0, 0.0, 9.999996644297555e-10]"
13712000000,,111,,13,712000000,turtlebot2/odom,turtlebot2/base_footprint_self,,,,0.470714405437,0.0,0.0,,0.0,0.0,0.0,1.0,"[0.3126591239729214, 0.0, 0.0, 0.0, 0.0, 0.0, 0.0, 0.3609215042726483, 0.0, 0.0, 0.0, 0.11837354259018996, 0.0, 0.0, 9.998366549632335e-07, 0.0, 2.3063345859477922e-17, 0.0, 0.0, 0.0, 0.0, 9.996734171519085e-07, 0.0, 0.0, 0.0, 0.0, 2.3063345859477928e-17, 0.0, 9.996734171519085e-07, 0.0, 0.0, 0.11837354259018996, 0.0, 0.0, 0.0, 0.3744667886495883]",,,,-0.000762943071722,0.0,0.0,,0.0,0.0,0.0,"[0.0003056115273897048, 0.0, 0.0, 0.0, 0.0, 0.0, 0.0, 9.999996324455653e-10, 0.0, 0.0, 0.0, 0.0, 0.0, 0.0, 9.997550226615463e-07, 0.0, 5.772902283565975e-26, 0.0, 0.0, 0.0, 0.0, 9.990215257738412e-07, 0.0, 0.0, 0.0, 0.0, 5.772902283565976e-26, 0.0, 9.990215257738412e-07, 0.0, 0.0, 0.0, 0.0, 0.0, 0.0, 9.999995098044023e-10]"
13812000000,,112,,13,812000000,turtlebot2/odom,turtlebot2/base_footprint_self,,,,0.470545780024,0.0,0.0,,0.0,0.0,0.0,1.0,"[0.320086322913481, 0.0, 0.0, 0.0, 0.0, 0.0, 0.0, 0.3681563639022802, 0.0, 0.0, 0.0, 0.11808162580256883, 0.0, 0.0, 9.998874130218693e-07, 0.0, 1.9752015874993775e-17, 0.0, 0.0, 0.0, 0.0, 9.997748772736206e-07, 0.0, 0.0, 0.0, 0.0, 1.9752015874993775e-17, 0.0, 9.997748772736206e-07, 0.0, 0.0, 0.11808162580256883, 0.0, 0.0, 0.0, 0.3833467886714923]",,,,-0.000945613067696,0.0,0.0,,0.0,0.0,0.0,"[0.00044107338389510553, 0.0, 0.0, 0.0, 0.0, 0.0, 0.0, 9.99999753642857e-10, 0.0, 0.0, 0.0, 0.0, 0.0, 0.0, 9.998311387458407e-07, 0.0, 4.972637263521781e-26, 0.0, 0.0, 0.0, 0.0, 9.993252357195948e-07, 0.0, 0.0, 0.0, 0.0, 4.97263726352178e-26, 0.0, 9.993252357195948e-07, 0.0, 0.0, 0.0, 0.0, 0.0, 0.0, 9.999996621623905e-10]"
13913000000,,113,,13,913000000,turtlebot2/odom,turtlebot2/base_footprint_self,,,,0.470604657726,0.0,0.0,,0.0,0.0,0.0,1.0,"[0.32514696953370353, 0.0, 0.0, 0.0, 0.0, 0.0, 0.0, 0.3731231805062854, 0.0, 0.0, 0.0, 0.11793625999854931, 0.0, 0.0, 9.998350382163987e-07, 0.0, 2.0626492750277488e-17, 0.0, 0.0, 0.0, 0.0, 9.996701857798805e-07, 0.0, 0.0, 0.0, 0.0, 2.0626492750277485e-17, 0.0, 9.996701857798803e-07, 0.0, 0.0, 0.11793625999854931, 0.0, 0.0, 0.0, 0.38940678868169326]",,,,-0.000562058052895,0.0,0.0,,0.0,0.0,0.0,"[0.00030260825913376675, 0.0, 0.0, 0.0, 0.0, 0.0, 0.0, 9.999996286062183e-10, 0.0, 0.0, 0.0, 0.0, 0.0, 0.0, 9.997525983371474e-07, 0.0, 5.162244749819209e-26, 0.0, 0.0, 0.0, 0.0, 9.99011857045372e-07, 0.0, 0.0, 0.0, 0.0, 5.1622447498192064e-26, 0.0, 9.99011857045372e-07, 0.0, 0.0, 0.0, 0.0, 0.0, 0.0, 9.999995049509852e-10]"
14012000000,,114,,14,12000000,turtlebot2/odom,turtlebot2/base_footprint_self,,,,0.470637283398,0.0,0.0,,0.0,0.0,0.0,1.0,"[0.33025713896348896, 0.0, 0.0, 0.0, 0.0, 0.0, 0.0, 0.37815246504687305, 0.0, 0.0, 0.0, 0.11780865195137419, 0.0, 0.0, 9.998366549617914e-07, 0.0, 1.7475541722852897e-17, 0.0, 0.0, 0.0, 0.0, 9.996734171402294e-07, 0.0, 0.0, 0.0, 0.0, 1.74755417228529e-17, 0.0, 9.996734171402294e-07, 0.0, 0.0, 0.11780865195137419, 0.0, 0.0, 0.0, 0.3955267886920973]",,,,-0.000594434751753,0.0,0.0,,0.0,0.0,0.0,"[0.0003041164281840746, 0.0, 0.0, 0.0, 0.0, 0.0, 0.0, 9.999996324566808e-10, 0.0, 0.0, 0.0, 0.0, 0.0, 0.0, 9.997550226566327e-07, 0.0, 4.3711061068350537e-26, 0.0, 0.0, 0.0, 0.0, 9.990215254694806e-07, 0.0, 0.0, 0.0, 0.0, 4.3711061068350537e-26, 0.0, 9.990215254694806e-07, 0.0, 0.0, 0.0, 0.0, 0.0, 0.0, 9.999995098044021e-10]"
14112000000,,115,,14,112000000,turtlebot2/odom,turtlebot2/base_footprint_self,,,,0.470637283398,0.0,0.0,,0.0,0.0,0.0,1.0,"[0.33025713896348896, 0.0, 0.0, 0.0, 0.0, 0.0, 0.0, 0.37815246504687305, 0.0, 0.0, 0.0, 0.11780865195137419, 0.0, 0.0, 9.998366549617914e-07, 0.0, 1.7475541722852897e-17, 0.0, 0.0, 0.0, 0.0, 9.996734171402294e-07, 0.0, 0.0, 0.0, 0.0, 1.74755417228529e-17, 0.0, 9.996734171402294e-07, 0.0, 0.0, 0.11780865195137419, 0.0, 0.0, 0.0, 0.3955267886920973]",,,,-0.000594434751753,0.0,0.0,,0.0,0.0,0.0,"[0.0003041164281840746, 0.0, 0.0, 0.0, 0.0, 0.0, 0.0, 9.999996324566808e-10, 0.0, 0.0, 0.0, 0.0, 0.0, 0.0, 9.997550226566327e-07, 0.0, 4.3711061068350537e-26, 0.0, 0.0, 0.0, 0.0, 9.990215254694806e-07, 0.0, 0.0, 0.0, 0.0, 4.3711061068350537e-26, 0.0, 9.990215254694806e-07, 0.0, 0.0, 0.0, 0.0, 0.0, 0.0, 9.999995098044021e-10]"
14212000000,,116,,14,212000000,turtlebot2/odom,turtlebot2/base_footprint_self,,,,0.470500196983,0.0,0.0,,0.0,0.0,0.0,1.0,"[0.33773463961093536, 0.0, 0.0, 0.0, 0.0, 0.0, 0.0, 0.3854738565695764, 0.0, 0.0, 0.0, 0.1175595536566986, 0.0, 0.0, 9.998881684720735e-07, 0.0, 1.574393731626819e-17, 0.0, 0.0, 0.0, 0.0, 9.99776387496247e-07, 0.0, 0.0, 0.0, 0.0, 1.574393731626819e-17, 0.0, 9.997763874962471e-07, 0.0, 0.0, 0.1175595536566986, 0.0, 0.0, 0.0, 0.40446678871429836]",,,,-0.000775345770522,0.0,0.0,,0.0,0.0,0.0,"[0.00044403919327928604, 0.0, 0.0, 0.0, 0.0, 0.0, 0.0, 9.999997554516862e-10, 0.0, 0.0, 0.0, 0.0, 0.0, 0.0, 9.998322716669118e-07, 0.0, 3.9642176337046973e-26, 0.0, 0.0, 0.0, 0.0, 9.993297582713568e-07, 0.0, 0.0, 0.0, 0.0, 3.964217633704698e-26, 0.0, 9.993297582713568e-07, 0.0, 0.0, 0.0, 0.0, 0.0, 0.0, 9.999996644297555e-10]"
14312000000,,117,,14,312000000,turtlebot2/odom,turtlebot2/base_footprint_self,,,,0.470397174019,0.0,0.0,,0.0,0.0,0.0,1.0,"[0.34526544323426317, 0.0, 0.0, 0.0, 0.0, 0.0, 0.0, 0.3928490070278667, 0.0, 0.0, 0.0, 0.11730983225318505, 0.0, 0.0, 9.99888913852506e-07, 0.0, 1.523098733670008e-17, 0.0, 0.0, 0.0, 0.0, 9.997778775969376e-07, 0.0, 0.0, 0.0, 0.0, 1.5230987336700077e-17, 0.0, 9.997778775969376e-07, 0.0, 0.0, 0.11730983225318505, 0.0, 0.0, 0.0, 0.41346678873679826]",,,,-0.000677912560501,0.0,0.0,,0.0,0.0,0.0,"[0.0004486120268265935, 0.0, 0.0, 0.0, 0.0, 0.0, 0.0, 9.999997572657913e-10, 0.0, 0.0, 0.0, 0.0, 0.0, 0.0, 9.998333894896747e-07, 0.0, 3.8383384241204044e-26, 0.0, 0.0, 0.0, 0.0, 9.993342207393102e-07, 0.0, 0.0, 0.0, 0.0, 3.838338424120405e-26, 0.0, 9.993342207393102e-07, 0.0, 0.0, 0.0, 0.0, 0.0, 0.0, 9.99999666666889e-10]"
14413000000,,118,,14,412000000,turtlebot2/odom,turtlebot2/base_footprint_self,,,,0.470453599284,0.0,0.0,,0.0,0.0,0.0,1.0,"[0.3501751880634864, 0.0, 0.0, 0.0, 0.0, 0.0, 0.0, 0.39769339604185105, 0.0, 0.0, 0.0, 0.11720190011447544, 0.0, 0.0, 9.998299900743156e-07, 0.0, 1.5081478780018855e-17, 0.0, 0.0, 0.0, 0.0, 9.996600962554192e-07, 0.0, 0.0, 0.0, 0.0, 1.5081478780018855e-17, 0.0, 9.99660096255419e-07, 0.0, 0.0, 0.11720190011447544, 0.0, 0.0, 0.0, 0.4193467887464023]",,,,-0.000463379427599,0.0,0.0,,0.0,0.0,0.0,"[0.0002937735733663456, 0.0, 0.0, 0.0, 0.0, 0.0, 0.0, 9.999996165735216e-10, 0.0, 0.0, 0.0, 0.0, 0.0, 0.0, 9.997450286596364e-07, 0.0, 3.773150479457348e-26, 0.0, 0.0, 0.0, 0.0, 9.989816693673082e-07, 0.0, 0.0, 0.0, 0.0, 3.773150479457347e-26, 0.0, 9.989816693673082e-07, 0.0, 0.0, 0.0, 0.0, 0.0, 0.0, 9.99999489796439e-10]"
14512000000,,119,,14,512000000,turtlebot2/odom,turtlebot2/base_footprint_self,,,,0.468601996743,0.0,0.0,,0.0,0.0,0.0,1.0,"[0.35523486524357223, 0.0, 0.0, 0.0, 0.0, 0.0, 0.0, 0.4026933029854957, 0.0, 0.0, 0.0, 0.11710104772461344, 0.0, 0.0, 9.998350382148097e-07, 0.0, 1.3080308861660583e-17, 0.0, 0.0, 0.0, 0.0, 9.996701857670145e-07, 0.0, 0.0, 0.0, 0.0, 1.3080308861660575e-17, 0.0, 9.996701857670145e-07, 0.0, 0.0, 0.11710104772461344, 0.0, 0.0, 0.0, 0.42540678875660326]",,,,-0.0273359531423,0.0,0.0,,0.0,0.0,0.0,"[0.000282275010295141, 0.0, 0.0, 0.0, 0.0, 0.0, 0.0, 9.99999628626867e-10, 0.0, 0.0, 0.0, 0.0, 0.0, 0.0, 9.99752598331734e-07, 0.0, 3.271107401480063e-26, 0.0, 0.0, 0.0, 0.0, 9.990118567099067e-07, 0.0, 0.0, 0.0, 0.0, 3.271107401480063e-26, 0.0, 9.990118567099067e-07, 0.0, 0.0, 0.0, 0.0, 0.0, 0.0, 9.999995049509852e-10]"
14612000000,,120,,14,612000000,turtlebot2/odom,turtlebot2/base_footprint_self,,,,0.453447023898,0.0,0.0,,0.0,0.0,0.0,1.0,"[0.360244072561214, 0.0, 0.0, 0.0, 0.0, 0.0, 0.0, 0.40700198869946475, 0.0, 0.0, 0.0, 0.1158273846734451, 0.0, 0.0, 9.998333891441926e-07, 0.0, 1.6611088356618702e-16, 0.0, 0.0, 0.0, 0.0, 9.996668898116689e-07, 0.0, 0.0, 0.0, 0.0, 1.6611088356618707e-16, 0.0, 9.996668898116689e-07, 0.0, 0.0, 0.1158273846734451, 0.0, 0.0, 0.0, 0.4314067887666033]",,,,-0.210208115422,0.0,0.0,,0.0,0.0,0.0,"[0.0002758830565447884, 0.0, 0.0, 0.0, 0.0, 0.0, 0.0, 9.999996246620648e-10, 0.0, 0.0, 0.0, 0.0, 0.0, 0.0, 9.997501255455265e-07, 0.0, 4.153844774463265e-25, 0.0, 0.0, 0.0, 0.0, 9.990019950204692e-07, 0.0, 0.0, 0.0, 0.0, 4.153844774463264e-25, 0.0, 9.990019950204692e-07, 0.0, 0.0, 0.0, 0.0, 0.0, 0.0, 9.999995000005001e-10]"
14712000000,,121,,14,712000000,turtlebot2/odom,turtlebot2/base_footprint_self,,,,0.453447023898,0.0,0.0,,0.0,0.0,0.0,1.0,"[0.360244072561214, 0.0, 0.0, 0.0, 0.0, 0.0, 0.0, 0.40700198869946475, 0.0, 0.0, 0.0, 0.1158273846734451, 0.0, 0.0, 9.998333891441926e-07, 0.0, 1.6611088356618702e-16, 0.0, 0.0, 0.0, 0.0, 9.996668898116689e-07, 0.0, 0.0, 0.0, 0.0, 1.6611088356618707e-16, 0.0, 9.996668898116689e-07, 0.0, 0.0, 0.1158273846734451, 0.0, 0.0, 0.0, 0.4314067887666033]",,,,-0.210208115422,0.0,0.0,,0.0,0.0,0.0,"[0.0002758830565447884, 0.0, 0.0, 0.0, 0.0, 0.0, 0.0, 9.999996246620648e-10, 0.0, 0.0, 0.0, 0.0, 0.0, 0.0, 9.997501255455265e-07, 0.0, 4.153844774463265e-25, 0.0, 0.0, 0.0, 0.0, 9.990019950204692e-07, 0.0, 0.0, 0.0, 0.0, 4.153844774463264e-25, 0.0, 9.990019950204692e-07, 0.0, 0.0, 0.0, 0.0, 0.0, 0.0, 9.999995000005001e-10]"
14812000000,,122,,14,812000000,turtlebot2/odom,turtlebot2/base_footprint_self,,,,0.421605740135,0.0,0.0,,0.0,0.0,0.0,1.0,"[0.36782202462266433, 0.0, 0.0, 0.0, 0.0, 0.0, 0.0, 0.4072808338102701, 0.0, 0.0, 0.0, 0.10134257538729949, 0.0, 0.0, 9.998896493748978e-07, 0.0, 8.172668167698322e-16, 0.0, 0.0, 0.0, 0.0, 9.99779347958792e-07, 0.0, 0.0, 0.0, 0.0, 8.17266816769832e-16, 0.0, 9.99779347958786e-07, 0.0, 0.0, 0.10134257538729949, 0.0, 0.0, 0.0, 0.4404667887894043]",,,,-0.209616672061,0.0,0.0,,0.0,0.0,0.0,"[0.00044481641757091746, 0.0, 0.0, 0.0, 0.0, 0.0, 0.0, 9.99999758992517e-10, 0.0, 0.0, 0.0, 0.0, 0.0, 0.0, 9.998344925070806e-07, 0.0, 2.058387526234488e-24, 0.0, 0.0, 0.0, 0.0, 9.993386238998826e-07, 0.0, 0.0, 0.0, 0.0, 2.0583875262344876e-24, 0.0, 9.993386238998826e-07, 0.0, 0.0, 0.0, 0.0, 0.0, 0.0, 9.999996688743915e-10]"
14912000000,,123,,14,912000000,turtlebot2/odom,turtlebot2/base_footprint_self,,,,0.390789821072,0.0,0.0,,0.0,0.0,0.0,1.0,"[0.375251860551747, 0.0, 0.0, 0.0, 0.0, 0.0, 0.0, 0.4085569309980697, 0.0, 0.0, 0.0, 0.08697309033210458, 0.0, 0.0, 9.998874130360401e-07, 0.0, 8.266842191778064e-16, 0.0, 0.0, 0.0, 0.0, 9.997748772793406e-07, 0.0, 0.0, 0.0, 0.0, 8.266842191778065e-16, 0.0, 9.997748772793345e-07, 0.0, 0.0, 0.08697309033210458, 0.0, 0.0, 0.0, 0.4493467888113083]",,,,-0.207713574685,0.0,0.0,,0.0,0.0,0.0,"[0.00043837192583990746, 0.0, 0.0, 0.0, 0.0, 0.0, 0.0, 9.999997537050826e-10, 0.0, 0.0, 0.0, 0.0, 0.0, 0.0, 9.998311387482389e-07, 0.0, 2.08269589532632e-24, 0.0, 0.0, 0.0, 0.0, 9.993252358639703e-07, 0.0, 0.0, 0.0, 0.0, 2.0826958953263192e-24, 0.0, 9.993252358639703e-07, 0.0, 0.0, 0.0, 0.0, 0.0, 0.0, 9.999996621623903e-10]"
15012000000,,124,,15,12000000,turtlebot2/odom,turtlebot2/base_footprint_self,,,,0.369820059924,0.0,0.0,,0.0,0.0,0.0,1.0,"[0.3805137450574677, 0.0, 0.0, 0.0, 0.0, 0.0, 0.0, 0.41012179120701353, 0.0, 0.0, 0.0, 0.07684557109317167, 0.0, 0.0, 9.998413205040046e-07, 0.0, 1.1343753712034443e-15, 0.0, 0.0, 0.0, 0.0, 9.99682742201988e-07, 0.0, 0.0, 0.0, 0.0, 1.1343753712034443e-15, 0.0, 9.996827422019799e-07, 0.0, 0.0, 0.07684557109317167, 0.0, 0.0, 0.0, 0.45564678882233334]",,,,-0.201122547641,0.0,0.0,,0.0,0.0,0.0,"[0.0003114173113814088, 0.0, 0.0, 0.0, 0.0, 0.0, 0.0, 9.999996436872729e-10, 0.0, 0.0, 0.0, 0.0, 0.0, 0.0, 9.99762018700689e-07, 0.0, 2.840459152060117e-24, 0.0, 0.0, 0.0, 0.0, 9.990494290449319e-07, 0.0, 0.0, 0.0, 0.0, 2.840459152060116e-24, 0.0, 9.990494290449319e-07, 0.0, 0.0, 0.0, 0.0, 0.0, 0.0, 9.999995238099773e-10]"
15113000000,,125,,15,112000000,turtlebot2/odom,turtlebot2/base_footprint_self,,,,0.369820059924,0.0,0.0,,0.0,0.0,0.0,1.0,"[0.3805137450574677, 0.0, 0.0, 0.0, 0.0, 0.0, 0.0, 0.41012179120701353, 0.0, 0.0, 0.0, 0.07684557109317167, 0.0, 0.0, 9.998413205040046e-07, 0.0, 1.1343753712034443e-15, 0.0, 0.0, 0.0, 0.0, 9.99682742201988e-07, 0.0, 0.0, 0.0, 0.0, 1.1343753712034443e-15, 0.0, 9.996827422019799e-07, 0.0, 0.0, 0.07684557109317167, 0.0, 0.0, 0.0, 0.45564678882233334]",,,,-0.201122547641,0.0,0.0,,0.0,0.0,0.0,"[0.0003114173113814088, 0.0, 0.0, 0.0, 0.0, 0.0, 0.0, 9.999996436872729e-10, 0.0, 0.0, 0.0, 0.0, 0.0, 0.0, 9.99762018700689e-07, 0.0, 2.840459152060117e-24, 0.0, 0.0, 0.0, 0.0, 9.990494290449319e-07, 0.0, 0.0, 0.0, 0.0, 2.840459152060116e-24, 0.0, 9.990494290449319e-07, 0.0, 0.0, 0.0, 0.0, 0.0, 0.0, 9.999995238099773e-10]"
15212000000,,126,,15,212000000,turtlebot2/odom,turtlebot2/base_footprint_self,,,,0.340364542714,0.0,0.0,,0.0,0.0,0.0,1.0,"[0.38779036902174646, 0.0, 0.0, 0.0, 0.0, 0.0, 0.0, 0.4131365859545527, 0.0, 0.0, 0.0, 0.06298428644179646, 0.0, 0.0, 9.998850841778723e-07, 0.0, 8.03019811444116e-16, 0.0, 0.0, 0.0, 0.0, 9.997702216797514e-07, 0.0, 0.0, 0.0, 0.0, 8.030198114441164e-16, 0.0, 9.997702216797459e-07, 0.0, 0.0, 0.06298428644179646, 0.0, 0.0, 0.0, 0.46434678884335834]",,,,-0.205277986367,0.0,0.0,,0.0,0.0,0.0,"[0.00046241124397920677, 0.0, 0.0, 0.0, 0.0, 0.0, 0.0, 9.999997481650888e-10, 0.0, 0.0, 0.0, 0.0, 0.0, 0.0, 9.998276462561765e-07, 0.0, 2.0208084450865084e-24, 0.0, 0.0, 0.0, 0.0, 9.993112943126826e-07, 0.0, 0.0, 0.0, 0.0, 2.0208084450865095e-24, 0.0, 9.993112943126826e-07, 0.0, 0.0, 0.0, 0.0, 0.0, 0.0, 9.99999655172652e-10]"
15313000000,,127,,15,312000000,turtlebot2/odom,turtlebot2/base_footprint_self,,,,0.309429737888,0.0,0.0,,0.0,0.0,0.0,1.0,"[0.3954737228792462, 0.0, 0.0, 0.0, 0.0, 0.0, 0.0, 0.4171839843398635, 0.0, 0.0, 0.0, 0.04779258842496839, 0.0, 0.0, 9.998910915560317e-07, 0.0, 7.757496101561015e-16, 0.0, 0.0, 0.0, 0.0, 9.997822310629097e-07, 0.0, 0.0, 0.0, 0.0, 7.757496101561015e-16, 0.0, 9.997822310629042e-07, 0.0, 0.0, 0.04779258842496839, 0.0, 0.0, 0.0, 0.47352678886676736]",,,,-0.199955266981,0.0,0.0,,0.0,0.0,0.0,"[0.0004959766757196435, 0.0, 0.0, 0.0, 0.0, 0.0, 0.0, 9.999997624971363e-10, 0.0, 0.0, 0.0, 0.0, 0.0, 0.0, 9.998366553073732e-07, 0.0, 1.9558153988879687e-24, 0.0, 0.0, 0.0, 0.0, 9.993472581900327e-07, 0.0, 0.0, 0.0, 0.0, 1.955815398887969e-24, 0.0, 9.993472581900327e-07, 0.0, 0.0, 0.0, 0.0, 0.0, 0.0, 9.999996732028279e-10]"
15412000000,,128,,15,412000000,turtlebot2/odom,turtlebot2/base_footprint_self,,,,0.289422972999,0.0,0.0,,0.0,0.0,0.0,1.0,"[0.40048420169711574, 0.0, 0.0, 0.0, 0.0, 0.0, 0.0, 0.42043025154206587, 0.0, 0.0, 0.0, 0.038090905749989606, 0.0, 0.0, 9.998333891571691e-07, 0.0, 1.136839366642597e-15, 0.0, 0.0, 0.0, 0.0, 9.996668898244729e-07, 0.0, 0.0, 0.0, 0.0, 1.1368393666425968e-15, 0.0, 9.996668898244648e-07, 0.0, 0.0, 0.038090905749989606, 0.0, 0.0, 0.0, 0.47952678887676736]",,,,-0.203805282334,0.0,0.0,,0.0,0.0,0.0,"[0.0003090342941588072, 0.0, 0.0, 0.0, 0.0, 0.0, 0.0, 9.999996247507475e-10, 0.0, 0.0, 0.0, 0.0, 0.0, 0.0, 9.99750125550914e-07, 0.0, 2.844982489175506e-24, 0.0, 0.0, 0.0, 0.0, 9.990019953545314e-07, 0.0, 0.0, 0.0, 0.0, 2.8449824891755056e-24, 0.0, 9.990019953545314e-07, 0.0, 0.0, 0.0, 0.0, 0.0, 0.0, 9.999995000005e-10]"
15512000000,,129,,15,512000000,turtlebot2/odom,turtlebot2/base_footprint_self,,,,0.289422972999,0.0,0.0,,0.0,0.0,0.0,1.0,"[0.40048420169711574, 0.0, 0.0, 0.0, 0.0, 0.0, 0.0, 0.42043025154206587, 0.0, 0.0, 0.0, 0.038090905749989606, 0.0, 0.0, 9.998333891571691e-07, 0.0, 1.136839366642597e-15, 0.0, 0.0, 0.0, 0.0, 9.996668898244729e-07, 0.0, 0.0, 0.0, 0.0, 1.1368393666425968e-15, 0.0, 9.996668898244648e-07, 0.0, 0.0, 0.038090905749989606, 0.0, 0.0, 0.0, 0.47952678887676736]",,,,-0.203805282334,0.0,0.0,,0.0,0.0,0.0,"[0.0003090342941588072, 0.0, 0.0, 0.0, 0.0, 0.0, 0.0, 9.999996247507475e-10, 0.0, 0.0, 0.0, 0.0, 0.0, 0.0, 9.99750125550914e-07, 0.0, 2.844982489175506e-24, 0.0, 0.0, 0.0, 0.0, 9.990019953545314e-07, 0.0, 0.0, 0.0, 0.0, 2.8449824891755056e-24, 0.0, 9.990019953545314e-07, 0.0, 0.0, 0.0, 0.0, 0.0, 0.0, 9.999995000005e-10]"
15612000000,,130,,15,612000000,turtlebot2/odom,turtlebot2/base_footprint_self,,,,0.259242853456,0.0,0.0,,0.0,0.0,0.0,1.0,"[0.407912280817537, 0.0, 0.0, 0.0, 0.0, 0.0, 0.0, 0.42593985186066974, 0.0, 0.0, 0.0, 0.023128621651853372, 0.0, 0.0, 9.998874130341527e-07, 0.0, 7.905836057848524e-16, 0.0, 0.0, 0.0, 0.0, 9.997748772732683e-07, 0.0, 0.0, 0.0, 0.0, 7.905836057848524e-16, 0.0, 9.997748772732625e-07, 0.0, 0.0, 0.023128621651853372, 0.0, 0.0, 0.0, 0.48840678889867134]",,,,-0.204174463818,0.0,0.0,,0.0,0.0,0.0,"[0.0004401755640580919, 0.0, 0.0, 0.0, 0.0, 0.0, 0.0, 9.999997537394559e-10, 0.0, 0.0, 0.0, 0.0, 0.0, 0.0, 9.998311387456929e-07, 0.0, 1.9902334920707368e-24, 0.0, 0.0, 0.0, 0.0, 9.993252357107026e-07, 0.0, 0.0, 0.0, 0.0, 1.9902334920707364e-24, 0.0, 9.993252357107026e-07, 0.0, 0.0, 0.0, 0.0, 0.0, 0.0, 9.999996621623905e-10]"
15713000000,,131,,15,713000000,turtlebot2/odom,turtlebot2/base_footprint_self,,,,0.239316317496,0.0,0.0,,0.0,0.0,0.0,1.0,"[0.41297262815448427, 0.0, 0.0, 0.0, 0.0, 0.0, 0.0, 0.43023825523722903, 0.0, 0.0, 0.0, 0.012840883872700827, 0.0, 0.0, 9.998350382284617e-07, 0.0, 1.1457585829292994e-15, 0.0, 0.0, 0.0, 0.0, 9.996701857798803e-07, 0.0, 0.0, 0.0, 0.0, 1.145758582929299e-15, 0.0, 9.996701857798724e-07, 0.0, 0.0, 0.012840883872700827, 0.0, 0.0, 0.0, 0.4944667889088724]",,,,-0.198332921119,0.0,0.0,,0.0,0.0,0.0,"[0.00030583193826968136, 0.0, 0.0, 0.0, 0.0, 0.0, 0.0, 9.999996286911489e-10, 0.0, 0.0, 0.0, 0.0, 0.0, 0.0, 9.997525983371474e-07, 0.0, 2.8675187736771703e-24, 0.0, 0.0, 0.0, 0.0, 9.990118570453718e-07, 0.0, 0.0, 0.0, 0.0, 2.8675187736771696e-24, 0.0, 9.990118570453718e-07, 0.0, 0.0, 0.0, 0.0, 0.0, 0.0, 9.999995049509852e-10]"
15813000000,,132,,15,813000000,turtlebot2/odom,turtlebot2/base_footprint_self,,,,0.209520452261,0.0,0.0,,0.0,0.0,0.0,1.0,"[0.42040071557836206, 0.0, 0.0, 0.0, 0.0, 0.0, 0.0, 0.43733346648777505, 0.0, 0.0, 0.0, -0.0020946723544381395, 0.0, 0.0, 9.99887413033399e-07, 0.0, 7.653295648748456e-16, 0.0, 0.0, 0.0, 0.0, 9.997748772734461e-07, 0.0, 0.0, 0.0, 0.0, 7.653295648748454e-16, 0.0, 9.99774877273441e-07, 0.0, 0.0, -0.002094672354438139, 0.0, 0.0, 0.0, 0.5033467889307763]",,,,-0.204364961452,0.0,0.0,,0.0,0.0,0.0,"[0.0004709831394232915, 0.0, 0.0, 0.0, 0.0, 0.0, 0.0, 9.999997537361446e-10, 0.0, 0.0, 0.0, 0.0, 0.0, 0.0, 9.998311387457674e-07, 0.0, 1.9267013449629175e-24, 0.0, 0.0, 0.0, 0.0, 9.993252357151925e-07, 0.0, 0.0, 0.0, 0.0, 1.926701344962917e-24, 0.0, 9.993252357151925e-07, 0.0, 0.0, 0.0, 0.0, 0.0, 0.0, 9.999996621623905e-10]"
15912000000,,133,,15,912000000,turtlebot2/odom,turtlebot2/base_footprint_self,,,,0.189170860742,0.0,0.0,,0.0,0.0,0.0,1.0,"[0.42541100830014394, 0.0, 0.0, 0.0, 0.0, 0.0, 0.0, 0.44264443183686414, 0.0, 0.0, 0.0, -0.012568889888941705, 0.0, 0.0, 9.998333891574334e-07, 0.0, 1.1546428866634336e-15, 0.0, 0.0, 0.0, 0.0, 9.996668898236324e-07, 0.0, 0.0, 0.0, 0.0, 1.1546428866634338e-15, 0.0, 9.996668898236246e-07, 0.0, 0.0, -0.012568889888941705, 0.0, 0.0, 0.0, 0.5093467889407763]",,,,-0.20600312885,0.0,0.0,,0.0,0.0,0.0,"[0.0003265038703720945, 0.0, 0.0, 0.0, 0.0, 0.0, 0.0, 9.999996247431444e-10, 0.0, 0.0, 0.0, 0.0, 0.0, 0.0, 9.997501255505606e-07, 0.0, 2.889393620946356e-24, 0.0, 0.0, 0.0, 0.0, 9.990019953325968e-07, 0.0, 0.0, 0.0, 0.0, 2.8893936209463578e-24, 0.0, 9.990019953325968e-07, 0.0, 0.0, 0.0, 0.0, 0.0, 0.0, 9.999995000005001e-10]"
16012000000,,134,,16,12000000,turtlebot2/odom,turtlebot2/base_footprint_self,,,,0.189170860742,0.0,0.0,,0.0,0.0,0.0,1.0,"[0.42541100830014394, 0.0, 0.0, 0.0, 0.0, 0.0, 0.0, 0.44264443183686414, 0.0, 0.0, 0.0, -0.012568889888941705, 0.0, 0.0, 9.998333891574334e-07, 0.0, 1.1546428866634336e-15, 0.0, 0.0, 0.0, 0.0, 9.996668898236324e-07, 0.0, 0.0, 0.0, 0.0, 1.1546428866634338e-15, 0.0, 9.996668898236246e-07, 0.0, 0.0, -0.012568889888941705, 0.0, 0.0, 0.0, 0.5093467889407763]",,,,-0.20600312885,0.0,0.0,,0.0,0.0,0.0,"[0.0003265038703720945, 0.0, 0.0, 0.0, 0.0, 0.0, 0.0, 9.999996247431444e-10, 0.0, 0.0, 0.0, 0.0, 0.0, 0.0, 9.997501255505606e-07, 0.0, 2.889393620946356e-24, 0.0, 0.0, 0.0, 0.0, 9.990019953325968e-07, 0.0, 0.0, 0.0, 0.0, 2.8893936209463578e-24, 0.0, 9.990019953325968e-07, 0.0, 0.0, 0.0, 0.0, 0.0, 0.0, 9.999995000005001e-10]"
16112000000,,135,,16,112000000,turtlebot2/odom,turtlebot2/base_footprint_self,,,,0.158824373703,0.0,0.0,,0.0,0.0,0.0,1.0,"[0.4328899393878824, 0.0, 0.0, 0.0, 0.0, 0.0, 0.0, 0.4514108582097037, 0.0, 0.0, 0.0, -0.02860436949391868, 0.0, 0.0, 9.998881684844148e-07, 0.0, 7.870167997401932e-16, 0.0, 0.0, 0.0, 0.0, 9.99776387495899e-07, 0.0, 0.0, 0.0, 0.0, 7.870167997401934e-16, 0.0, 9.997763874958933e-07, 0.0, 0.0, -0.02860436949391868, 0.0, 0.0, 0.0, 0.5182867889629773]",,,,-0.201586051418,0.0,0.0,,0.0,0.0,0.0,"[0.00045412453147869437, 0.0, 0.0, 0.0, 0.0, 0.0, 0.0, 9.999997555326407e-10, 0.0, 0.0, 0.0, 0.0, 0.0, 0.0, 9.998322716667661e-07, 0.0, 1.981567607505378e-24, 0.0, 0.0, 0.0, 0.0, 9.993297582625837e-07, 0.0, 0.0, 0.0, 0.0, 1.9815676075053777e-24, 0.0, 9.993297582625837e-07, 0.0, 0.0, 0.0, 0.0, 0.0, 0.0, 9.999996644297555e-10]"
16212000000,,136,,16,212000000,turtlebot2/odom,turtlebot2/base_footprint_self,,,,0.138931464857,0.0,0.0,,0.0,0.0,0.0,1.0,"[0.43790029731853547, 0.0, 0.0, 0.0, 0.0, 0.0, 0.0, 0.45780481570934994, 0.0, 0.0, 0.0, -0.03921308917575563, 0.0, 0.0, 9.99833389157065e-07, 0.0, 1.1357608388001325e-15, 0.0, 0.0, 0.0, 0.0, 9.99666889823805e-07, 0.0, 0.0, 0.0, 0.0, 1.1357608388001323e-15, 0.0, 9.996668898237971e-07, 0.0, 0.0, -0.03921308917575563, 0.0, 0.0, 0.0, 0.5242867889729774]",,,,-0.200486028935,0.0,0.0,,0.0,0.0,0.0,"[0.00034966311835964864, 0.0, 0.0, 0.0, 0.0, 0.0, 0.0, 9.99999624741915e-10, 0.0, 0.0, 0.0, 0.0, 0.0, 0.0, 9.997501255506332e-07, 0.0, 2.84217195812699e-24, 0.0, 0.0, 0.0, 0.0, 9.990019953371013e-07, 0.0, 0.0, 0.0, 0.0, 2.842171958126992e-24, 0.0, 9.990019953371013e-07, 0.0, 0.0, 0.0, 0.0, 0.0, 0.0, 9.999995000005001e-10]"
16312000000,,137,,16,312000000,turtlebot2/odom,turtlebot2/base_footprint_self,,,,0.148549986461,0.0,0.0,,0.0,0.0,0.0,1.0,"[0.44301156417453486, 0.0, 0.0, 0.0, 0.0, 0.0, 0.0, 0.46476411276868523, 0.0, 0.0, 0.0, -0.05009159649107923, 0.0, 0.0, 9.998366549732236e-07, 0.0, 1.1065092058544896e-15, 0.0, 0.0, 0.0, 0.0, 9.996734171398671e-07, 0.0, 0.0, 0.0, 0.0, 1.106509205854489e-15, 0.0, 9.996734171398597e-07, 0.0, 0.0, -0.05009159649107923, 0.0, 0.0, 0.0, 0.5304067889833814]",,,,0.197927970476,0.0,0.0,,0.0,0.0,0.0,"[0.0004829035864924541, 0.0, 0.0, 0.0, 0.0, 0.0, 0.0, 9.999996325270164e-10, 0.0, 0.0, 0.0, 0.0, 0.0, 0.0, 9.997550226564802e-07, 0.0, 2.767617331101897e-24, 0.0, 0.0, 0.0, 0.0, 9.99021525460039e-07, 0.0, 0.0, 0.0, 0.0, 2.7676173311018984e-24, 0.0, 9.99021525460039e-07, 0.0, 0.0, 0.0, 0.0, 0.0, 0.0, 9.999995098044021e-10]"
16412000000,,138,,16,412000000,turtlebot2/odom,turtlebot2/base_footprint_self,,,,0.190750612333,0.0,0.0,,0.0,0.0,0.0,1.0,"[0.44812310398441013, 0.0, 0.0, 0.0, 0.0, 0.0, 0.0, 0.4679868309101062, 0.0, 0.0, 0.0, -0.03885977042341228, 0.0, 0.0, 9.99836654973789e-07, 0.0, -1.1292724155056297e-15, 0.0, 0.0, 0.0, 0.0, 9.99673417140585e-07, 0.0, 0.0, 0.0, 0.0, -1.1292724155056293e-15, 0.0, 9.996734171405771e-07, 0.0, 0.0, -0.03885977042341228, 0.0, 0.0, 0.0, 0.5365267889937855]",,,,0.485195287849,0.0,0.0,,0.0,0.0,0.0,"[0.0003925153047390615, 0.0, 0.0, 0.0, 0.0, 0.0, 0.0, 9.999996325041634e-10, 0.0, 0.0, 0.0, 0.0, 0.0, 0.0, 9.997550226567822e-07, 0.0, -2.8246755625025497e-24, 0.0, 0.0, 0.0, 0.0, 9.99021525478737e-07, 0.0, 0.0, 0.0, 0.0, -2.8246755625025494e-24, 0.0, 9.99021525478737e-07, 0.0, 0.0, 0.0, 0.0, 0.0, 0.0, 9.999995098044023e-10]"
