rosbagTimestamp,header,seq,stamp,secs,nsecs,frame_id,child_frame_id,pose,pose,position,x,y,z,orientation,x,y,z,w,covariance,twist,twist,linear,x,y,z,angular,x,y,z,covariance
8777000000,,72,,8,776000000,turtlebot2/odom,turtlebot2/base_footprint_distributed,,,,2.50164758591e-05,0.0,0.0,,0.0,0.0,0.0,1.0,"[0.0684401736699336, 0.0, 0.0, 0.0, 0.0, 0.0, 0.0, 0.06838159168123913, 0.0, 0.0, 0.0, 1.1062905043772487e-06, 0.0, 0.0, 9.988123513199526e-07, 0.0, -6.660069262333467e-19, 0.0, 0.0, 0.0, 0.0, 9.976303288672596e-07, 0.0, 0.0, 0.0, 0.0, -6.660069262333468e-19, 0.0, 9.976303288672596e-07, 0.0, 0.0, 1.1062905043772487e-06, 0.0, 0.0, 0.0, 0.0820424708313935]",,,,1.77631901278e-05,0.0,0.0,,0.0,0.0,0.0,"[0.0005339233177953144, 0.0, 0.0, 0.0, 0.0, 0.0, 0.0, 9.999996165464699e-10, 0.0, 0.0, 0.0, 0.0, 0.0, 0.0, 9.982206395031088e-07, 0.0, -1.628127373961706e-27, 0.0, 0.0, 0.0, 0.0, 9.929576413831764e-07, 0.0, 0.0, 0.0, 0.0, -1.6281273739617066e-27, 0.0, 9.929576413831764e-07, 0.0, 0.0, 0.0, 0.0, 0.0, 0.0, 9.999995000005e-10]"
8876000000,,73,,8,876000000,turtlebot2/odom,turtlebot2/base_footprint_distributed,,,,2.8939226505e-05,0.0,0.0,,0.0,0.0,0.0,1.0,"[0.07504950866182648, 0.0, 0.0, 0.0, 0.0, 0.0, 0.0, 0.07498309292560915, 0.0, 0.0, 0.0, 1.2852626242690716e-06, 0.0, 0.0, 9.99479708613317e-07, 0.0, -2.033750968578106e-19, 0.0, 0.0, 0.0, 0.0, 9.989604976657116e-07, 0.0, 0.0, 0.0, 0.0, -2.0337509685781067e-19, 0.0, 9.989604976657116e-07, 0.0, 0.0, 1.2852626242690716e-06, 0.0, 0.0, 0.0, 0.08996252822130818]",,,,4.66420968694e-05,0.0,0.0,,0.0,0.0,0.0,"[0.0002516035209474127, 0.0, 0.0, 0.0, 0.0, 0.0, 0.0, 0.0008119670085949343, 0.0, 0.0, 0.0, 0.0, 0.0, 0.0, 9.99219968406746e-07, 0.0, -4.973058849213933e-28, 0.0, 0.0, 0.0, 0.0, 9.968943464740638e-07, 0.0, 0.0, 0.0, 0.0, -4.973058849213934e-28, 0.0, 9.968943464740638e-07, 0.0, 0.0, 0.0, 0.0, 0.0, 0.0, 0.0006400009999995006]"
8976000000,,74,,8,976000000,turtlebot2/odom,turtlebot2/base_footprint_distributed,,,,3.22679685722e-05,0.0,0.0,,0.0,0.0,0.0,1.0,"[0.07850389708039424, 0.0, 0.0, 0.0, 0.0, 0.0, 0.0, 0.07843551858664399, 0.0, 0.0, 0.0, 1.5788309112534935e-06, 0.0, 0.0, 9.987212274108075e-07, 0.0, -1.998445681104914e-18, 0.0, 0.0, 0.0, 0.0, 9.974489768123632e-07, 0.0, 0.0, 0.0, 0.0, -1.998445681104914e-18, 0.0, 9.974489768123632e-07, 0.0, 0.0, 1.5788309112534937e-06, 0.0, 0.0, 0.0, 0.09410405759761843]",,,,5.00434222314e-05,0.0,0.0,,0.0,0.0,0.0,"[0.0020056268890978556, 0.0, 0.0, 0.0, 0.0, 0.0, 0.0, 9.999996220459568e-10, 0.0, 0.0, 0.0, 0.0, 0.0, 0.0, 9.980842901663886e-07, 0.0, -4.882466161282287e-27, 0.0, 0.0, 0.0, 0.0, 9.924241402764658e-07, 0.0, 0.0, 0.0, 0.0, -4.882466161282289e-27, 0.0, 9.924241402764658e-07, 0.0, 0.0, 0.0, 0.0, 0.0, 0.0, 9.999995049509852e-10]"
9076000000,,75,,9,76000000,turtlebot2/odom,turtlebot2/base_footprint_distributed,,,,3.39122621127e-05,0.0,0.0,,0.0,0.0,0.0,1.0,"[0.08291493744447934, 0.0, 0.0, 0.0, 0.0, 0.0, 0.0, 0.08283747813097524, 0.0, 0.0, 0.0, 1.9666822278028104e-06, 0.0, 0.0, 9.979253105814988e-07, 0.0, -6.738537946338322e-19, 0.0, 0.0, 0.0, 0.0, 9.958677625644206e-07, 0.0, 0.0, 0.0, 0.0, -6.738537946338322e-19, 0.0, 9.958677625644206e-07, 0.0, 0.0, 1.9666822278028104e-06, 0.0, 0.0, 0.0, 0.09938416001047867]",,,,9.83790040235e-06,0.0,0.0,,0.0,0.0,0.0,"[0.00045874183422847355, 0.0, 0.0, 0.0, 0.0, 0.0, 0.0, 0.0022940840530804893, 0.0, 0.0, 0.0, 0.0, 0.0, 0.0, 9.968944075362266e-07, 0.0, -1.6289071025234263e-27, 0.0, 0.0, 0.0, 0.0, 9.878046925673198e-07, 0.0, 0.0, 0.0, 0.0, -1.628907102523426e-27, 0.0, 9.878046925673198e-07, 0.0, 0.0, 0.0, 0.0, 0.0, 0.0, 0.0017600009999995242]"
9177000000,,76,,9,176000000,turtlebot2/odom,turtlebot2/base_footprint_distributed,,,,2.93562021284e-05,0.0,0.0,,0.0,0.0,0.0,1.0,"[0.08752005294272706, 0.0, 0.0, 0.0, 0.0, 0.0, 0.0, 0.08744204236189, 0.0, 0.0, 0.0, 2.048854268248243e-06, 0.0, 0.0, 9.994629432701138e-07, 0.0, -1.3373684635245187e-19, 0.0, 0.0, 0.0, 0.0, 9.989270390992085e-07, 0.0, 0.0, 0.0, 0.0, -1.3373684635245184e-19, 0.0, 9.989270390992085e-07, 0.0, 0.0, 2.0488542682482426e-06, 0.0, 0.0, 0.0, 0.10490742547157274]",,,,-0.000104907687829,0.0,0.0,,0.0,0.0,0.0,"[0.0001728934964125725, 0.0, 0.0, 0.0, 0.0, 0.0, 0.0, 0.0007872620993747946, 0.0, 0.0, 0.0, 0.0, 0.0, 0.0, 9.991948473761112e-07, 0.0, -3.3061210043108415e-28, 0.0, 0.0, 0.0, 0.0, 9.967948549981937e-07, 0.0, 0.0, 0.0, 0.0, -3.3061210043108415e-28, 0.0, 9.967948549981937e-07, 0.0, 0.0, 0.0, 0.0, 0.0, 0.0, 0.0006200009999996406]"
9276000000,,77,,9,276000000,turtlebot2/odom,turtlebot2/base_footprint_distributed,,,,2.14004443129e-05,0.0,0.0,,0.0,0.0,0.0,1.0,"[0.09503415911304808, 0.0, 0.0, 0.0, 0.0, 0.0, 0.0, 0.09494626857745643, 0.0, 0.0, 0.0, 3.0061754533578095e-07, 0.0, 0.0, 9.997917536711296e-07, 0.0, 7.591012041548729e-19, 0.0, 0.0, 0.0, 0.0, 9.995836810293737e-07, 0.0, 0.0, 0.0, 0.0, 7.591012041548725e-19, 0.0, 9.995836810293737e-07, 0.0, 0.0, 3.006175453357801e-07, 0.0, 0.0, 0.0, 0.11390890229810649]",,,,2.44264547068e-05,0.0,0.0,,0.0,0.0,0.0,"[0.000258871709223814, 0.0, 0.0, 0.0, 0.0, 0.0, 0.0, 0.0020839274694789893, 0.0, 0.0, 0.0, 0.0, 0.0, 0.0, 9.996876956686394e-07, 0.0, 1.8731088891893248e-27, 0.0, 0.0, 0.0, 0.0, 9.987531081636733e-07, 0.0, 0.0, 0.0, 0.0, 1.8731088891893234e-27, 0.0, 9.987531081636733e-07, 0.0, 0.0, 0.0, 0.0, 0.0, 0.0, 0.0016000009999995062]"
9377000000,,78,,9,377000000,turtlebot2/odom,turtlebot2/base_footprint_distributed,,,,2.19440522831e-05,0.0,0.0,,0.0,0.0,0.0,1.0,"[0.09608508227405256, 0.0, 0.0, 0.0, 0.0, 0.0, 0.0, 0.09599611948425002, 0.0, 0.0, 0.0, 3.5893356342553443e-07, 0.0, 0.0, 9.988913494295437e-07, 0.0, -8.882591982259019e-19, 0.0, 0.0, 0.0, 0.0, 9.97787584801938e-07, 0.0, 0.0, 0.0, 0.0, -8.882591982259015e-19, 0.0, 9.97787584801938e-07, 0.0, 0.0, 3.589335634255336e-07, 0.0, 0.0, 0.0, 0.11516901452295548]",,,,2.54864925267e-05,0.0,0.0,,0.0,0.0,0.0,"[0.0007902612385148433, 0.0, 0.0, 0.0, 0.0, 0.0, 0.0, 9.999996239384532e-10, 0.0, 0.0, 0.0, 0.0, 0.0, 0.0, 9.983388596403009e-07, 0.0, -2.105713879995814e-27, 0.0, 0.0, 0.0, 0.0, 9.934203544169658e-07, 0.0, 0.0, 0.0, 0.0, -2.105713879995814e-27, 0.0, 9.934203544169658e-07, 0.0, 0.0, 0.0, 0.0, 0.0, 0.0, 9.999995049509852e-10]"
9477000000,,79,,9,476000000,turtlebot2/odom,turtlebot2/base_footprint_distributed,,,,3.02263820785e-05,0.0,0.0,,0.0,0.0,0.0,1.0,"[0.10355482105076397, 0.0, 0.0, 0.0, 0.0, 0.0, 0.0, 0.10345118175955584, 0.0, 0.0, 0.0, 9.849066114875757e-07, 0.0, 0.0, 9.988123484765028e-07, 0.0, -3.711645112058028e-18, 0.0, 0.0, 0.0, 0.0, 9.97630306343713e-07, 0.0, 0.0, 0.0, 0.0, -3.711645112058028e-18, 0.0, 9.97630306343713e-07, 0.0, 0.0, 9.84906611487575e-07, 0.0, 0.0, 0.0, 0.1241091290930386]",,,,9.40176368867e-05,0.0,0.0,,0.0,0.0,0.0,"[0.0007908164709656653, 0.0, 0.0, 0.0, 0.0, 0.0, 0.0, 9.999997514970023e-10, 0.0, 0.0, 0.0, 0.0, 0.0, 0.0, 9.982206299531255e-07, 0.0, -8.833869205780025e-27, 0.0, 0.0, 0.0, 0.0, 9.929570575853104e-07, 0.0, 0.0, 0.0, 0.0, -8.833869205780018e-27, 0.0, 9.929570575853104e-07, 0.0, 0.0, 0.0, 0.0, 0.0, 0.0, 9.999996644297555e-10]"
9576000000,,80,,9,576000000,turtlebot2/odom,turtlebot2/base_footprint_distributed,,,,2.64057743643e-05,0.0,0.0,,0.0,0.0,0.0,1.0,"[0.10856195948674043, 0.0, 0.0, 0.0, 0.0, 0.0, 0.0, 0.10845333448972834, 0.0, 0.0, 0.0, 1.5999679718731375e-06, 0.0, 0.0, 9.99243570502317e-07, 0.0, 2.749467958810756e-18, 0.0, 0.0, 0.0, 0.0, 9.98489426105602e-07, 0.0, 0.0, 0.0, 0.0, 2.7494679588107558e-18, 0.0, 9.98489426105602e-07, 0.0, 0.0, 1.5999679718731367e-06, 0.0, 0.0, 0.0, 0.13010929521209347]",,,,-0.000109710329509,0.0,0.0,,0.0,0.0,0.0,"[0.0007287895079904541, 0.0, 0.0, 0.0, 0.0, 0.0, 0.0, 9.999996211384013e-10, 0.0, 0.0, 0.0, 0.0, 0.0, 0.0, 9.988662133594791e-07, 0.0, 6.778453812791714e-27, 0.0, 0.0, 0.0, 0.0, 9.954954695333064e-07, 0.0, 0.0, 0.0, 0.0, 6.778453812791719e-27, 0.0, 9.954954695333064e-07, 0.0, 0.0, 0.0, 0.0, 0.0, 0.0, 9.999995000005001e-10]"
9676000000,,81,,9,676000000,turtlebot2/odom,turtlebot2/base_footprint_distributed,,,,2.55352510161e-05,0.0,0.0,,0.0,0.0,0.0,1.0,"[0.11356693345544992, 0.0, 0.0, 0.0, 0.0, 0.0, 0.0, 0.11345575957338311, 0.0, 0.0, 0.0, 5.080646884995943e-07, 0.0, 0.0, 9.992076070118456e-07, 0.0, -6.342008712377103e-19, 0.0, 0.0, 0.0, 0.0, 9.984177207216024e-07, 0.0, 0.0, 0.0, 0.0, -6.342008712377104e-19, 0.0, 9.984177207216024e-07, 0.0, 0.0, 5.080646884995936e-07, 0.0, 0.0, 0.0, 0.13611059407987627]",,,,2.41465819864e-05,0.0,0.0,,0.0,0.0,0.0,"[0.0007065568731791466, 0.0, 0.0, 0.0, 0.0, 0.0, 0.0, 9.999996216804863e-10, 0.0, 0.0, 0.0, 0.0, 0.0, 0.0, 9.988123513620758e-07, 0.0, -1.5591669067084485e-27, 0.0, 0.0, 0.0, 0.0, 9.952829685124425e-07, 0.0, 0.0, 0.0, 0.0, -1.5591669067084488e-27, 0.0, 9.952829685124425e-07, 0.0, 0.0, 0.0, 0.0, 0.0, 0.0, 9.999995000005e-10]"
9776000000,,82,,9,776000000,turtlebot2/odom,turtlebot2/base_footprint_distributed,,,,2.6259568436e-05,0.0,0.0,,0.0,0.0,0.0,1.0,"[0.11752118008759502, 0.0, 0.0, 0.0, 0.0, 0.0, 0.0, 0.11740999866733688, 0.0, 0.0, 0.0, 7.715609645987665e-07, 0.0, 0.0, 9.99593826362392e-07, 0.0, -3.2826130253589433e-19, 0.0, 0.0, 0.0, 0.0, 9.991883122133331e-07, 0.0, 0.0, 0.0, 0.0, -3.2826130253589423e-19, 0.0, 9.991883122133331e-07, 0.0, 0.0, 7.715609645987658e-07, 0.0, 0.0, 0.0, 0.1408518716511716]",,,,2.61705511978e-06,0.0,0.0,,0.0,0.0,0.0,"[0.0001726325321620852, 0.0, 0.0, 0.0, 0.0, 0.0, 0.0, 0.0020652993460729937, 0.0, 0.0, 0.0, 0.0, 0.0, 0.0, 9.993909869791434e-07, 0.0, -8.115684010226932e-28, 0.0, 0.0, 0.0, 0.0, 9.975728001036423e-07, 0.0, 0.0, 0.0, 0.0, -8.11568401022693e-28, 0.0, 9.975728001036423e-07, 0.0, 0.0, 0.0, 0.0, 0.0, 0.0, 0.0015800009999994771]"
9877000000,,83,,9,877000000,turtlebot2/odom,turtlebot2/base_footprint_distributed,,,,2.77229313744e-05,0.0,0.0,,0.0,0.0,0.0,1.0,"[0.12297557376728542, 0.0, 0.0, 0.0, 0.0, 0.0, 0.0, 0.12286706372321067, 0.0, 0.0, 0.0, 8.369245142878802e-07, 0.0, 0.0, 9.981549799354986e-07, 0.0, -1.5105152075288714e-18, 0.0, 0.0, 0.0, 0.0, 9.963235155061665e-07, 0.0, 0.0, 0.0, 0.0, -1.5105152075288718e-18, 0.0, 9.963235155061665e-07, 0.0, 0.0, 8.369245142878795e-07, 0.0, 0.0, 0.0, 0.14739728107434935]",,,,2.46700268752e-05,0.0,0.0,,0.0,0.0,0.0,"[0.00039990018745608973, 0.0, 0.0, 0.0, 0.0, 0.0, 0.0, 0.0009973062676646978, 0.0, 0.0, 0.0, 0.0, 0.0, 0.0, 9.9723756332328e-07, 0.0, -3.646701035316295e-27, 0.0, 0.0, 0.0, 0.0, 9.891300435150094e-07, 0.0, 0.0, 0.0, 0.0, -3.646701035316295e-27, 0.0, 9.891300435150094e-07, 0.0, 0.0, 0.0, 0.0, 0.0, 0.0, 0.0007800009999996585]"
9976000000,,84,,9,976000000,turtlebot2/odom,turtlebot2/base_footprint_distributed,,,,3.56573851431e-05,0.0,0.0,,0.0,0.0,0.0,1.0,"[0.12763008762944109, 0.0, 0.0, 0.0, 0.0, 0.0, 0.0, 0.1275209511876311, 0.0, 0.0, 0.0, 1.1819130559159917e-06, 0.0, 0.0, 9.994629432713852e-07, 0.0, -4.476443560105933e-19, 0.0, 0.0, 0.0, 0.0, 9.989270391093623e-07, 0.0, 0.0, 0.0, 0.0, -4.476443560105933e-19, 0.0, 9.989270391093623e-07, 0.0, 0.0, 1.1819130559159908e-06, 0.0, 0.0, 0.0, 0.15297951824385955]",,,,0.000137575533017,0.0,0.0,,0.0,0.0,0.0,"[0.000176080935349514, 0.0, 0.0, 0.0, 0.0, 0.0, 0.0, 0.0007892343516261416, 0.0, 0.0, 0.0, 0.0, 0.0, 0.0, 9.991948473804003e-07, 0.0, -1.1066877359140724e-27, 0.0, 0.0, 0.0, 0.0, 9.967948552681082e-07, 0.0, 0.0, 0.0, 0.0, -1.1066877359140726e-27, 0.0, 9.967948552681082e-07, 0.0, 0.0, 0.0, 0.0, 0.0, 0.0, 0.0006200009999994811]"
10076000000,,85,,10,76000000,turtlebot2/odom,turtlebot2/base_footprint_distributed,,,,4.32579565869e-05,0.0,0.0,,0.0,0.0,0.0,1.0,"[0.13514508246486306, 0.0, 0.0, 0.0, 0.0, 0.0, 0.0, 0.13502645661617813, 0.0, 0.0, 0.0, 4.536971789609541e-06, 0.0, 0.0, 9.997943235509164e-07, 0.0, -1.0048217442128856e-18, 0.0, 0.0, 0.0, 0.0, 9.995888164889585e-07, 0.0, 0.0, 0.0, 0.0, -1.004821744212885e-18, 0.0, 9.995888164889585e-07, 0.0, 0.0, 4.536971789609541e-06, 0.0, 0.0, 0.0, 0.1619809932259709]",,,,-6.25325484589e-05,0.0,0.0,,0.0,0.0,0.0,"[0.00025908138369488883, 0.0, 0.0, 0.0, 0.0, 0.0, 0.0, 0.002123089477247699, 0.0, 0.0, 0.0, 0.0, 0.0, 0.0, 9.996915488782533e-07, 0.0, -2.4728058490109055e-27, 0.0, 0.0, 0.0, 0.0, 9.987684622214439e-07, 0.0, 0.0, 0.0, 0.0, -2.472805849010905e-27, 0.0, 9.987684622214439e-07, 0.0, 0.0, 0.0, 0.0, 0.0, 0.0, 0.0016200009999994905]"
10176000000,,86,,10,176000000,turtlebot2/odom,turtlebot2/base_footprint_distributed,,,,3.88742493228e-05,0.0,0.0,,0.0,0.0,0.0,1.0,"[0.13855136888252534, 0.0, 0.0, 0.0, 0.0, 0.0, 0.0, 0.13843109134901524, 0.0, 0.0, 0.0, 3.830442786078133e-06, 0.0, 0.0, 9.997313273204967e-07, 0.0, 5.706868538113428e-19, 0.0, 0.0, 0.0, 0.0, 9.994629425763167e-07, 0.0, 0.0, 0.0, 0.0, 5.706868538113429e-19, 0.0, 9.994629425763167e-07, 0.0, 0.0, 3.830442786078133e-06, 0.0, 0.0, 0.0, 0.16606430453556545]",,,,-6.65965261649e-05,0.0,0.0,,0.0,0.0,0.0,"[0.0020305825521753323, 0.0, 0.0, 0.0, 0.0, 0.0, 0.0, 9.999997537484446e-10, 0.0, 0.0, 0.0, 0.0, 0.0, 0.0, 9.995970990592297e-07, 0.0, 1.3722707029716648e-27, 0.0, 0.0, 0.0, 0.0, 9.983922412615423e-07, 0.0, 0.0, 0.0, 0.0, 1.372270702971666e-27, 0.0, 9.983922412615423e-07, 0.0, 0.0, 0.0, 0.0, 0.0, 0.0, 9.999996644297555e-10]"
10277000000,,87,,10,277000000,turtlebot2/odom,turtlebot2/base_footprint_distributed,,,,0.00719599640012,0.0,0.0,,0.0,0.0,0.0,1.0,"[0.1436131763979266, 0.0, 0.0, 0.0, 0.0, 0.0, 0.0, 0.14348398220815672, 0.0, 0.0, 0.0, 0.00029518980124723334, 0.0, 0.0, 9.987212245056158e-07, 0.0, -3.4257146710664565e-15, 0.0, 0.0, 0.0, 0.0, 9.974489537785196e-07, 0.0, 0.0, 0.0, 0.0, -3.4257146710664557e-15, 0.0, 9.974489537785103e-07, 0.0, 0.0, 0.0002951898012472333, 0.0, 0.0, 0.0, 0.17212440696048906]",,,,0.0801211845564,0.0,0.0,,0.0,0.0,0.0,"[0.0008326825762284695, 0.0, 0.0, 0.0, 0.0, 0.0, 0.0, 9.999996268577967e-10, 0.0, 0.0, 0.0, 0.0, 0.0, 0.0, 9.9808428040161e-07, 0.0, -8.17401692788872e-24, 0.0, 0.0, 0.0, 0.0, 9.924235424210843e-07, 0.0, 0.0, 0.0, 0.0, -8.174016927888724e-24, 0.0, 9.924235424210843e-07, 0.0, 0.0, 0.0, 0.0, 0.0, 0.0, 9.999995049509852e-10]"
10376000000,,88,,10,376000000,turtlebot2/odom,turtlebot2/base_footprint_distributed,,,,-0.0351828680625,0.0,0.0,,0.0,0.0,0.0,1.0,"[0.14817163878561956, 0.0, 0.0, 0.0, 0.0, 0.0, 0.0, 0.1480383567322575, 0.0, 0.0, 0.0, 1.7446419771394038e-05, 0.0, 0.0, 9.984894259256102e-07, 0.0, 3.613134200786217e-14, 0.0, 0.0, 0.0, 0.0, 9.969879491168257e-07, 0.0, 0.0, 0.0, 0.0, 3.6131342007862164e-14, 0.0, 9.969879491159613e-07, 0.0, 0.0, 1.744641977139403e-05, 0.0, 0.0, 0.0, 0.17758460057198477]",,,,-0.719685048396,0.0,0.0,,0.0,0.0,0.0,"[0.0005614659049896384, 0.0, 0.0, 0.0, 0.0, 0.0, 0.0, 0.0024015358079294306, 0.0, 0.0, 0.0, 0.0, 0.0, 0.0, 9.977375555767148e-07, 0.0, 8.807301949852084e-23, 0.0, 0.0, 0.0, 0.0, 9.910713291396662e-07, 0.0, 0.0, 0.0, 0.0, 8.807301949852084e-23, 0.0, 9.910713291396662e-07, 0.0, 0.0, 0.0, 0.0, 0.0, 0.0, 0.001820000999999491]"
10476000000,,89,,10,476000000,turtlebot2/odom,turtlebot2/base_footprint_distributed,,,,-0.0414187369452,0.0,0.0,,0.0,0.0,0.0,1.0,"[0.1527273592745623, 0.0, 0.0, 0.0, 0.0, 0.0, 0.0, 0.1533843821084921, 0.0, 0.0, 0.0, -0.011932338342042631, 0.0, 0.0, 9.994954594870178e-07, 0.0, 1.2388841139404251e-14, 0.0, 0.0, 0.0, 0.0, 9.989919360019376e-07, 0.0, 0.0, 0.0, 0.0, 1.2388841139404254e-14, 0.0, 9.989919360016334e-07, 0.0, 0.0, -0.011932338342042631, 0.0, 0.0, 0.0, 0.18304767459912874]",,,,0.277612480985,0.0,0.0,,0.0,0.0,0.0,"[0.00030798866083016287, 0.0, 0.0, 0.0, 0.0, 0.0, 0.0, 0.0008417895002227052, 0.0, 0.0, 0.0, 0.0, 0.0, 0.0, 9.992435707223698e-07, 0.0, 3.063742729376397e-23, 0.0, 0.0, 0.0, 0.0, 9.969879362086083e-07, 0.0, 0.0, 0.0, 0.0, 3.063742729376397e-23, 0.0, 9.969879362086083e-07, 0.0, 0.0, 0.0, 0.0, 0.0, 0.0, 0.0006600009999996895]"
10576000000,,90,,10,576000000,turtlebot2/odom,turtlebot2/base_footprint_distributed,,,,0.00780441885492,0.0,0.0,,0.0,0.0,0.0,1.0,"[0.16014614416055742, 0.0, 0.0, 0.0, 0.0, 0.0, 0.0, 0.1601011419187477, 0.0, 0.0, 0.0, -0.003847943064563181, 0.0, 0.0, 9.997917536908617e-07, 0.0, -2.0975971961244657e-15, 0.0, 0.0, 0.0, 0.0, 9.995836809835918e-07, 0.0, 0.0, 0.0, 0.0, -2.097597196124467e-15, 0.0, 9.995836809835707e-07, 0.0, 0.0, -0.0038479430645631816, 0.0, 0.0, 0.0, 0.19192913614228166]",,,,0.384797594146,0.0,0.0,,0.0,0.0,0.0,"[0.0005515009972788845, 0.0, 0.0, 0.0, 0.0, 0.0, 0.0, 0.0020991209541885926, 0.0, 0.0, 0.0, 0.0, 0.0, 0.0, 9.996876956493142e-07, 0.0, -5.1668985761422695e-24, 0.0, 0.0, 0.0, 0.0, 9.987531069742846e-07, 0.0, 0.0, 0.0, 0.0, -5.166898576142273e-24, 0.0, 9.987531069742846e-07, 0.0, 0.0, 0.0, 0.0, 0.0, 0.0, 0.0016000009999995062]"
10675000000,,91,,10,676000000,turtlebot2/odom,turtlebot2/base_footprint_distributed,,,,0.0156700851432,0.0,0.0,,0.0,0.0,0.0,1.0,"[0.1611481880365412, 0.0, 0.0, 0.0, 0.0, 0.0, 0.0, 0.16105201090226792, 0.0, 0.0, 0.0, -0.0023561163798847505, 0.0, 0.0, 9.98721224062923e-07, 0.0, -1.643682712329726e-14, 0.0, 0.0, 0.0, 0.0, 9.974489499712181e-07, 0.0, 0.0, 0.0, 0.0, -1.643682712329726e-14, 0.0, 9.974489499710068e-07, 0.0, 0.0, -0.0023561163798847514, 0.0, 0.0, 0.0, 0.19312922790705747]",,,,0.391092600943,0.0,0.0,,0.0,0.0,0.0,"[0.0010597863083759338, 0.0, 0.0, 0.0, 0.0, 0.0, 0.0, 9.999996233817747e-10, 0.0, 0.0, 0.0, 0.0, 0.0, 0.0, 9.980842787842424e-07, 0.0, -3.9067384749785626e-23, 0.0, 0.0, 0.0, 0.0, 9.924234451899453e-07, 0.0, 0.0, 0.0, 0.0, -3.906738474978563e-23, 0.0, 9.924234451899453e-07, 0.0, 0.0, 0.0, 0.0, 0.0, 0.0, 9.999995000005e-10]"
10776000000,,92,,10,776000000,turtlebot2/odom,turtlebot2/base_footprint_distributed,,,,0.0746969379327,0.0,0.0,,0.0,0.0,0.0,1.0,"[0.16863049281757042, 0.0, 0.0, 0.0, 0.0, 0.0, 0.0, 0.1689326481462873, 0.0, 0.0, 0.0, 0.009386657017442554, 0.0, 0.0, 9.98338864211601e-07, 0.0, -2.1997501946655322e-14, 0.0, 0.0, 0.0, 0.0, 9.966886910728741e-07, 0.0, 0.0, 0.0, 0.0, -2.199750194665532e-14, 0.0, 9.966886910725825e-07, 0.0, 0.0, 0.009386657017442554, 0.0, 0.0, 0.0, 0.20206928615190872]",,,,0.402952833161,0.0,0.0,,0.0,0.0,0.0,"[0.0011324703802944576, 0.0, 0.0, 0.0, 0.0, 0.0, 0.0, 9.999997543560783e-10, 0.0, 0.0, 0.0, 0.0, 0.0, 0.0, 9.975124164756367e-07, 0.0, -5.198776493641559e-23, 0.0, 0.0, 0.0, 0.0, 9.901947432479396e-07, 0.0, 0.0, 0.0, 0.0, -5.1987764936415593e-23, 0.0, 9.901947432479396e-07, 0.0, 0.0, 0.0, 0.0, 0.0, 0.0, 9.999996644297555e-10]"
10876000000,,93,,10,876000000,turtlebot2/odom,turtlebot2/base_footprint_distributed,,,,0.126546612976,0.0,0.0,,0.0,0.0,0.0,1.0,"[0.1751023525203497, 0.0, 0.0, 0.0, 0.0, 0.0, 0.0, 0.17696032028332215, 0.0, 0.0, 0.0, 0.020212253151236072, 0.0, 0.0, 9.99425947455061e-07, 0.0, -7.775465404161478e-15, 0.0, 0.0, 0.0, 0.0, 9.988532116722304e-07, 0.0, 0.0, 0.0, 0.0, -7.77546540416148e-15, 0.0, 9.988532116721252e-07, 0.0, 0.0, 0.02021225315123607, 0.0, 0.0, 0.0, 0.20980928616585573]",,,,0.410763171621,0.0,0.0,,0.0,0.0,0.0,"[0.000555605458016241, 0.0, 0.0, 0.0, 0.0, 0.0, 0.0, 0.0007382705116679838, 0.0, 0.0, 0.0, 0.0, 0.0, 0.0, 9.991394152376616e-07, 0.0, -1.9237348869037508e-23, 0.0, 0.0, 0.0, 0.0, 9.965753307494403e-07, 0.0, 0.0, 0.0, 0.0, -1.9237348869037514e-23, 0.0, 9.965753307494403e-07, 0.0, 0.0, 0.0, 0.0, 0.0, 0.0, 0.0005800009999994983]"
10976000000,,94,,10,976000000,turtlebot2/odom,turtlebot2/base_footprint_distributed,,,,0.156602003032,0.0,0.0,,0.0,0.0,0.0,1.0,"[0.17866545276290044, 0.0, 0.0, 0.0, 0.0, 0.0, 0.0, 0.18189996018330398, 0.0, 0.0, 0.0, 0.02645271351099512, 0.0, 0.0, 9.997437213121296e-07, 0.0, -3.555187860678657e-15, 0.0, 0.0, 0.0, 0.0, 9.994877045653329e-07, 0.0, 0.0, 0.0, 0.0, -3.5551878606786575e-15, 0.0, 9.99487704565284e-07, 0.0, 0.0, 0.026452713510995117, 0.0, 0.0, 0.0, 0.21407151743111622]",,,,0.431757034831,0.0,0.0,,0.0,0.0,0.0,"[0.0023995830377494054, 0.0, 0.0, 0.0, 0.0, 0.0, 0.0, 9.99999623989421e-10, 0.0, 0.0, 0.0, 0.0, 0.0, 0.0, 9.996156802521023e-07, 0.0, -8.552272451298313e-24, 0.0, 0.0, 0.0, 0.0, 9.984662197193684e-07, 0.0, 0.0, 0.0, 0.0, -8.552272451298315e-24, 0.0, 9.984662197193684e-07, 0.0, 0.0, 0.0, 0.0, 0.0, 0.0, 9.999995000005e-10]"
11077000000,,95,,11,76000000,turtlebot2/odom,turtlebot2/base_footprint_distributed,,,,0.188613980689,0.0,0.0,,0.0,0.0,0.0,1.0,"[0.18281413051319825, 0.0, 0.0, 0.0, 0.0, 0.0, 0.0, 0.18817947873268084, 0.0, 0.0, 0.0, 0.03401203269049001, 0.0, 0.0, 9.99660095441595e-07, 0.0, -4.6864096606611455e-15, 0.0, 0.0, 0.0, 0.0, 9.99320652824953e-07, 0.0, 0.0, 0.0, 0.0, -4.686409660661145e-15, 0.0, 9.993206528248882e-07, 0.0, 0.0, 0.034012032690489996, 0.0, 0.0, 0.0, 0.21905315012207058]",,,,0.398830442136,0.0,0.0,,0.0,0.0,0.0,"[0.0003971176909692599, 0.0, 0.0, 0.0, 0.0, 0.0, 0.0, 0.002184752111469056, 0.0, 0.0, 0.0, 0.0, 0.0, 0.0, 9.994903164347987e-07, 0.0, -1.1593855079525991e-23, 0.0, 0.0, 0.0, 0.0, 9.97967467588618e-07, 0.0, 0.0, 0.0, 0.0, -1.1593855079525994e-23, 0.0, 9.97967467588618e-07, 0.0, 0.0, 0.0, 0.0, 0.0, 0.0, 0.0016600009999995038]"
11176000000,,96,,11,176000000,turtlebot2/odom,turtlebot2/base_footprint_distributed,,,,0.247493356421,0.0,0.0,,0.0,0.0,0.0,1.0,"[0.19022414403252869, 0.0, 0.0, 0.0, 0.0, 0.0, 0.0, 0.20042404127410787, 0.0, 0.0, 0.0, 0.047218664630032096, 0.0, 0.0, 9.997917537070027e-07, 0.0, -2.7910009437113626e-15, 0.0, 0.0, 0.0, 0.0, 9.995836809558197e-07, 0.0, 0.0, 0.0, 0.0, -2.791000943711363e-15, 0.0, 9.99583680955782e-07, 0.0, 0.0, 0.047218664630032076, 0.0, 0.0, 0.0, 0.227936951917523]",,,,0.408098864928,0.0,0.0,,0.0,0.0,0.0,"[0.000433298993564537, 0.0, 0.0, 0.0, 0.0, 0.0, 0.0, 0.0021014540187520607, 0.0, 0.0, 0.0, 0.0, 0.0, 0.0, 9.996876956375887e-07, 0.0, -6.867674906904972e-24, 0.0, 0.0, 0.0, 0.0, 9.987531062539507e-07, 0.0, 0.0, 0.0, 0.0, -6.867674906904969e-24, 0.0, 9.987531062539507e-07, 0.0, 0.0, 0.0, 0.0, 0.0, 0.0, 0.0016000009999996702]"
11276000000,,97,,11,276000000,turtlebot2/odom,turtlebot2/base_footprint_distributed,,,,0.276935946828,0.0,0.0,,0.0,0.0,0.0,1.0,"[0.19382874036673564, 0.0, 0.0, 0.0, 0.0, 0.0, 0.0, 0.20701978513051064, 0.0, 0.0, 0.0, 0.05396571930031971, 0.0, 0.0, 9.997476023681913e-07, 0.0, -3.432847071745262e-15, 0.0, 0.0, 0.0, 0.0, 9.99495458822878e-07, 0.0, 0.0, 0.0, 0.0, -3.4328470717452616e-15, 0.0, 9.994954588228313e-07, 0.0, 0.0, 0.05396571930031968, 0.0, 0.0, 0.0, 0.23226078268856082]",,,,0.418507369423,0.0,0.0,,0.0,0.0,0.0,"[0.0019313978386158832, 0.0, 0.0, 0.0, 0.0, 0.0, 0.0, 9.99999760229554e-10, 0.0, 0.0, 0.0, 0.0, 0.0, 0.0, 9.996214988890032e-07, 0.0, -8.258699703758661e-24, 0.0, 0.0, 0.0, 0.0, 9.984893891716093e-07, 0.0, 0.0, 0.0, 0.0, -8.25869970375866e-24, 0.0, 9.984893891716093e-07, 0.0, 0.0, 0.0, 0.0, 0.0, 0.0, 9.999996710528481e-10]"
11377000000,,98,,11,377000000,turtlebot2/odom,turtlebot2/base_footprint_distributed,,,,0.309793580506,0.0,0.0,,0.0,0.0,0.0,1.0,"[0.19783605618441208, 0.0, 0.0, 0.0, 0.0, 0.0, 0.0, 0.21495505932602027, 0.0, 0.0, 0.0, 0.061861542950317365, 0.0, 0.0, 9.976303307941062e-07, 0.0, -3.2722013220974905e-14, 0.0, 0.0, 0.0, 0.0, 9.952830097910925e-07, 0.0, 0.0, 0.0, 0.0, -3.2722013220974905e-14, 0.0, 9.952830097906408e-07, 0.0, 0.0, 0.06186154295031733, 0.0, 0.0, 0.0, 0.23706085424144083]",,,,0.415930246421,0.0,0.0,,0.0,0.0,0.0,"[0.00026952901816179164, 0.0, 0.0, 0.0, 0.0, 0.0, 0.0, 0.0021018476746980787, 0.0, 0.0, 0.0, 0.0, 0.0, 0.0, 9.964538970141273e-07, 0.0, -7.872993513678226e-23, 0.0, 0.0, 0.0, 0.0, 9.86110847534826e-07, 0.0, 0.0, 0.0, 0.0, -7.872993513678229e-23, 0.0, 9.86110847534826e-07, 0.0, 0.0, 0.0, 0.0, 0.0, 0.0, 0.0016000009999996723]"
11475000000,,99,,11,476000000,turtlebot2/odom,turtlebot2/base_footprint_distributed,,,,0.350971808552,0.0,0.0,,0.0,0.0,0.0,1.0,"[0.20299084399327888, 0.0, 0.0, 0.0, 0.0, 0.0, 0.0, 0.22592104359564014, 0.0, 0.0, 0.0, 0.07220516619138878, 0.0, 0.0, 9.976303288467052e-07, 0.0, -3.087946797026468e-14, 0.0, 0.0, 0.0, 0.0, 9.952829944233631e-07, 0.0, 0.0, 0.0, 0.0, -3.0879467970264675e-14, 0.0, 9.952829944229608e-07, 0.0, 0.0, 0.07220516619138875, 0.0, 0.0, 0.0, 0.24324474494344114]",,,,0.393037525454,0.0,0.0,,0.0,0.0,0.0,"[0.00019957784272914994, 0.0, 0.0, 0.0, 0.0, 0.0, 0.0, 0.0009206858846601955, 0.0, 0.0, 0.0, 0.0, 0.0, 0.0, 9.964538904950672e-07, 0.0, -7.395495411173485e-23, 0.0, 0.0, 0.0, 0.0, 9.86110450411368e-07, 0.0, 0.0, 0.0, 0.0, -7.395495411173484e-23, 0.0, 9.86110450411368e-07, 0.0, 0.0, 0.0, 0.0, 0.0, 0.0, 0.0007200009999996872]"
11576000000,,100,,11,576000000,turtlebot2/odom,turtlebot2/base_footprint_distributed,,,,0.391002916733,0.0,0.0,,0.0,0.0,0.0,1.0,"[0.20804470715563825, 0.0, 0.0, 0.0, 0.0, 0.0, 0.0, 0.23723302826031112, 0.0, 0.0, 0.0, 0.08213319158417426, 0.0, 0.0, 9.976303289551837e-07, 0.0, -3.1289613621931424e-14, 0.0, 0.0, 0.0, 0.0, 9.952829952721359e-07, 0.0, 0.0, 0.0, 0.0, -3.128961362193142e-14, 0.0, 9.952829952717227e-07, 0.0, 0.0, 0.08213319158417423, 0.0, 0.0, 0.0, 0.24930698614492192]",,,,0.399357961631,0.0,0.0,,0.0,0.0,0.0,"[0.00019902930691703075, 0.0, 0.0, 0.0, 0.0, 0.0, 0.0, 0.0009468696047322939, 0.0, 0.0, 0.0, 0.0, 0.0, 0.0, 9.964538908552374e-07, 0.0, -7.495622909343351e-23, 0.0, 0.0, 0.0, 0.0, 9.861104722883303e-07, 0.0, 0.0, 0.0, 0.0, -7.495622909343353e-23, 0.0, 9.861104722883303e-07, 0.0, 0.0, 0.0, 0.0, 0.0, 0.0, 0.0007400009999994807]"
11676000000,,101,,11,676000000,turtlebot2/odom,turtlebot2/base_footprint_distributed,,,,0.431387419827,0.0,0.0,,0.0,0.0,0.0,1.0,"[0.21309843412818086, 0.0, 0.0, 0.0, 0.0, 0.0, 0.0, 0.24939779843845342, 0.0, 0.0, 0.0, 0.09235857719080139, 0.0, 0.0, 9.979253091339913e-07, 0.0, -2.773591299940192e-14, 0.0, 0.0, 0.0, 0.0, 9.958677507404372e-07, 0.0, 0.0, 0.0, 0.0, -2.7735912999401924e-14, 0.0, 9.958677507400666e-07, 0.0, 0.0, 0.09235857719080134, 0.0, 0.0, 0.0, 0.2553691994788222]",,,,0.403220424209,0.0,0.0,,0.0,0.0,0.0,"[0.0002003266416466539, 0.0, 0.0, 0.0, 0.0, 0.0, 0.0, 0.0009730883508650675, 0.0, 0.0, 0.0, 0.0, 0.0, 0.0, 9.968944025235932e-07, 0.0, -6.673375696717146e-23, 0.0, 0.0, 0.0, 0.0, 9.878043855335973e-07, 0.0, 0.0, 0.0, 0.0, -6.673375696717146e-23, 0.0, 9.878043855335973e-07, 0.0, 0.0, 0.0, 0.0, 0.0, 0.0, 0.0007600009999995051]"
11776000000,,102,,11,776000000,turtlebot2/odom,turtlebot2/base_footprint_distributed,,,,0.488553520511,0.0,0.0,,0.0,0.0,0.0,1.0,"[0.2201627222205611, 0.0, 0.0, 0.0, 0.0, 0.0, 0.0, 0.26818269289290675, 0.0, 0.0, 0.0, 0.10747333973482194, 0.0, 0.0, 9.997917537517055e-07, 0.0, -2.934517671859209e-15, 0.0, 0.0, 0.0, 0.0, 9.995836812779057e-07, 0.0, 0.0, 0.0, 0.0, -2.9345176718592085e-15, 0.0, 9.995836812778644e-07, 0.0, 0.0, 0.10747333973482188, 0.0, 0.0, 0.0, 0.26383129116400234]",,,,0.402173325259,0.0,0.0,,0.0,0.0,0.0,"[0.00044296538803138526, 0.0, 0.0, 0.0, 0.0, 0.0, 0.0, 0.002102300659637138, 0.0, 0.0, 0.0, 0.0, 0.0, 0.0, 9.996876957734547e-07, 0.0, -7.309980843929225e-24, 0.0, 0.0, 0.0, 0.0, 9.987531146624107e-07, 0.0, 0.0, 0.0, 0.0, -7.30998084392922e-24, 0.0, 9.987531146624107e-07, 0.0, 0.0, 0.0, 0.0, 0.0, 0.0, 0.0016000009999994963]"
11876000000,,103,,11,876000000,turtlebot2/odom,turtlebot2/base_footprint_distributed,,,,0.496949624502,0.0,0.0,,0.0,0.0,0.0,1.0,"[0.2212625944140955, 0.0, 0.0, 0.0, 0.0, 0.0, 0.0, 0.2711997029440956, 0.0, 0.0, 0.0, 0.10980586796228015, 0.0, 0.0, 9.987212249235217e-07, 0.0, -1.692079829719564e-14, 0.0, 0.0, 0.0, 0.0, 9.974489567459719e-07, 0.0, 0.0, 0.0, 0.0, -1.692079829719564e-14, 0.0, 9.974489567457478e-07, 0.0, 0.0, 0.1098058679622801, 0.0, 0.0, 0.0, 0.26515140517550784]",,,,0.396438128483,0.0,0.0,,0.0,0.0,0.0,"[0.0006163315529623011, 0.0, 0.0, 0.0, 0.0, 0.0, 0.0, 9.999996319070697e-10, 0.0, 0.0, 0.0, 0.0, 0.0, 0.0, 9.980842816615474e-07, 0.0, -4.0496936943203654e-23, 0.0, 0.0, 0.0, 0.0, 9.924236185129923e-07, 0.0, 0.0, 0.0, 0.0, -4.049693694320364e-23, 0.0, 9.924236185129923e-07, 0.0, 0.0, 0.0, 0.0, 0.0, 0.0, 9.999995098044021e-10]"
11976000000,,104,,11,976000000,turtlebot2/odom,turtlebot2/base_footprint_distributed,,,,0.556916907248,0.0,0.0,,0.0,0.0,0.0,1.0,"[0.2287734025473349, 0.0, 0.0, 0.0, 0.0, 0.0, 0.0, 0.29291092386936396, 0.0, 0.0, 0.0, 0.1259426743803606, 0.0, 0.0, 9.992076070451819e-07, 0.0, -1.0577218487330856e-14, 0.0, 0.0, 0.0, 0.0, 9.984177206314478e-07, 0.0, 0.0, 0.0, 0.0, -1.0577218487330854e-14, 0.0, 9.98417720631307e-07, 0.0, 0.0, 0.12594267438036055, 0.0, 0.0, 0.0, 0.27415328332364003]",,,,0.406637359482,0.0,0.0,,0.0,0.0,0.0,"[0.0009056471249027141, 0.0, 0.0, 0.0, 0.0, 0.0, 0.0, 9.999997569105483e-10, 0.0, 0.0, 0.0, 0.0, 0.0, 0.0, 9.98812351323957e-07, 0.0, -2.599824312141072e-23, 0.0, 0.0, 0.0, 0.0, 9.95282966126831e-07, 0.0, 0.0, 0.0, 0.0, -2.5998243121410723e-23, 0.0, 9.95282966126831e-07, 0.0, 0.0, 0.0, 0.0, 0.0, 0.0, 9.99999666666889e-10]"
12076000000,,105,,12,76000000,turtlebot2/odom,turtlebot2/base_footprint_distributed,,,,0.59631305286,0.0,0.0,,0.0,0.0,0.0,1.0,"[0.23377608653330056, 0.0, 0.0, 0.0, 0.0, 0.0, 0.0, 0.3085129965090528, 0.0, 0.0, 0.0, 0.13706911724805604, 0.0, 0.0, 9.991243432802057e-07, 0.0, -1.1526132926053343e-14, 0.0, 0.0, 0.0, 0.0, 9.98251746981216e-07, 0.0, 0.0, 0.0, 0.0, -1.152613292605334e-14, 0.0, 9.982517469810644e-07, 0.0, 0.0, 0.13706911724805595, 0.0, 0.0, 0.0, 0.2801545016492998]",,,,0.397533746209,0.0,0.0,,0.0,0.0,0.0,"[0.0007477873912738216, 0.0, 0.0, 0.0, 0.0, 0.0, 0.0, 9.99999624327064e-10, 0.0, 0.0, 0.0, 0.0, 0.0, 0.0, 9.98687663659926e-07, 0.0, -2.82979519107731e-23, 0.0, 0.0, 0.0, 0.0, 9.947916038551167e-07, 0.0, 0.0, 0.0, 0.0, -2.8297951910773095e-23, 0.0, 9.947916038551167e-07, 0.0, 0.0, 0.0, 0.0, 0.0, 0.0, 9.999995000005e-10]"
12176000000,,106,,12,176000000,turtlebot2/odom,turtlebot2/base_footprint_distributed,,,,0.647897364223,0.0,0.0,,0.0,0.0,0.0,1.0,"[0.24023162899713382, 0.0, 0.0, 0.0, 0.0, 0.0, 0.0, 0.3298786506380998, 0.0, 0.0, 0.0, 0.15166622534840604, 0.0, 0.0, 9.994450612784642e-07, 0.0, -7.22056552171322e-15, 0.0, 0.0, 0.0, 0.0, 9.988913529797192e-07, 0.0, 0.0, 0.0, 0.0, -7.220565521713219e-15, 0.0, 9.988913529796252e-07, 0.0, 0.0, 0.151666225348406, 0.0, 0.0, 0.0, 0.2878962441430668]",,,,0.403020374934,0.0,0.0,,0.0,0.0,0.0,"[0.00040598260171012464, 0.0, 0.0, 0.0, 0.0, 0.0, 0.0, 0.0007644279465253721, 0.0, 0.0, 0.0, 0.0, 0.0, 0.0, 9.991680535816858e-07, 0.0, -1.784442778727656e-23, 0.0, 0.0, 0.0, 0.0, 9.966887237950387e-07, 0.0, 0.0, 0.0, 0.0, -1.784442778727655e-23, 0.0, 9.966887237950387e-07, 0.0, 0.0, 0.0, 0.0, 0.0, 0.0, 0.0006000009999995177]"
12276000000,,107,,12,276000000,turtlebot2/odom,turtlebot2/base_footprint_distributed,,,,0.671321890127,0.0,0.0,,0.0,0.0,0.0,1.0,"[0.2431348032227196, 0.0, 0.0, 0.0, 0.0, 0.0, 0.0, 0.34008277420622446, 0.0, 0.0, 0.0, 0.1584404356696513, 0.0, 0.0, 9.997128090077731e-07, 0.0, -3.874923850238133e-15, 0.0, 0.0, 0.0, 0.0, 9.99425947924803e-07, 0.0, 0.0, 0.0, 0.0, -3.874923850238132e-15, 0.0, 9.994259479247505e-07, 0.0, 0.0, 0.15844043566965124, 0.0, 0.0, 0.0, 0.29137826255262683]",,,,0.406004645101,0.0,0.0,,0.0,0.0,0.0,"[0.00039335816314770586, 0.0, 0.0, 0.0, 0.0, 0.0, 0.0, 0.0023251458519193873, 0.0, 0.0, 0.0, 0.0, 0.0, 0.0, 9.995693372459896e-07, 0.0, -9.590058679904484e-24, 0.0, 0.0, 0.0, 0.0, 9.982817771601262e-07, 0.0, 0.0, 0.0, 0.0, -9.590058679904489e-24, 0.0, 9.982817771601262e-07, 0.0, 0.0, 0.0, 0.0, 0.0, 0.0, 0.0017600009999995142]"
12376000000,,108,,12,376000000,turtlebot2/odom,turtlebot2/base_footprint_distributed,,,,0.712264643717,0.0,0.0,,0.0,0.0,0.0,1.0,"[0.24828988209311723, 0.0, 0.0, 0.0, 0.0, 0.0, 0.0, 0.3591670843053621, 0.0, 0.0, 0.0, 0.17083685506656113, 0.0, 0.0, 9.979253092095289e-07, 0.0, -2.7288223307922998e-14, 0.0, 0.0, 0.0, 0.0, 9.958677513499064e-07, 0.0, 0.0, 0.0, 0.0, -2.7288223307923e-14, 0.0, 9.958677513495475e-07, 0.0, 0.0, 0.1708368550665611, 0.0, 0.0, 0.0, 0.2975628147639771]",,,,0.393221101994,0.0,0.0,,0.0,0.0,0.0,"[0.0002174348514207182, 0.0, 0.0, 0.0, 0.0, 0.0, 0.0, 0.000999419808939625, 0.0, 0.0, 0.0, 0.0, 0.0, 0.0, 9.968944027820543e-07, 0.0, -6.567231796593522e-23, 0.0, 0.0, 0.0, 0.0, 9.878044013188118e-07, 0.0, 0.0, 0.0, 0.0, -6.567231796593523e-23, 0.0, 9.878044013188118e-07, 0.0, 0.0, 0.0, 0.0, 0.0, 0.0, 0.0007800009999996652]"
12476000000,,109,,12,476000000,turtlebot2/odom,turtlebot2/base_footprint_distributed,,,,0.769196008981,0.0,0.0,,0.0,0.0,0.0,1.0,"[0.2553545811054282, 0.0, 0.0, 0.0, 0.0, 0.0, 0.0, 0.3866677227293346, 0.0, 0.0, 0.0, 0.187915979121075, 0.0, 0.0, 9.997917537488019e-07, 0.0, -2.8474932747716656e-15, 0.0, 0.0, 0.0, 0.0, 9.995836812779057e-07, 0.0, 0.0, 0.0, 0.0, -2.847493274771666e-15, 0.0, 9.99583681277867e-07, 0.0, 0.0, 0.1879159791210749, 0.0, 0.0, 0.0, 0.30602494205675435]",,,,0.408051583424,0.0,0.0,,0.0,0.0,0.0,"[0.00043263880625285257, 0.0, 0.0, 0.0, 0.0, 0.0, 0.0, 0.0021026753807721526, 0.0, 0.0, 0.0, 0.0, 0.0, 0.0, 9.996876957734547e-07, 0.0, -7.09320019317239e-24, 0.0, 0.0, 0.0, 0.0, 9.987531146624111e-07, 0.0, 0.0, 0.0, 0.0, -7.093200193172386e-24, 0.0, 9.987531146624111e-07, 0.0, 0.0, 0.0, 0.0, 0.0, 0.0, 0.0016000009999995015]"
12576000000,,110,,12,576000000,turtlebot2/odom,turtlebot2/base_footprint_distributed,,,,0.809763784466,0.0,0.0,,0.0,0.0,0.0,1.0,"[0.26035863011450483, 0.0, 0.0, 0.0, 0.0, 0.0, 0.0, 0.4077648427256689, 0.0, 0.0, 0.0, 0.20064988838749961, 0.0, 0.0, 9.99425947428046e-07, 0.0, -7.883242480080221e-15, 0.0, 0.0, 0.0, 0.0, 9.988532114462158e-07, 0.0, 0.0, 0.0, 0.0, -7.88324248008022e-15, 0.0, 9.988532114461076e-07, 0.0, 0.0, 0.2006498883874996, 0.0, 0.0, 0.0, 0.3120286591498871]",,,,0.399105790302,0.0,0.0,,0.0,0.0,0.0,"[0.0002790304674042868, 0.0, 0.0, 0.0, 0.0, 0.0, 0.0, 0.0007385125256624482, 0.0, 0.0, 0.0, 0.0, 0.0, 0.0, 9.99139415142188e-07, 0.0, -1.9481883707579217e-23, 0.0, 0.0, 0.0, 0.0, 9.96575324737436e-07, 0.0, 0.0, 0.0, 0.0, -1.948188370757921e-23, 0.0, 9.96575324737436e-07, 0.0, 0.0, 0.0, 0.0, 0.0, 0.0, 0.0005800009999996672]"
12676000000,,111,,12,676000000,turtlebot2/odom,turtlebot2/base_footprint_distributed,,,,0.812862794098,0.0,0.0,,0.0,0.0,0.0,1.0,"[0.2608082786637928, 0.0, 0.0, 0.0, 0.0, 0.0, 0.0, 0.40966191890456494, 0.0, 0.0, 0.0, 0.2017715525048025, 0.0, 0.0, 9.981549799142027e-07, 0.0, -2.4355938237691868e-14, 0.0, 0.0, 0.0, 0.0, 9.96323514990504e-07, 0.0, 0.0, 0.0, 0.0, -2.4355938237691865e-14, 0.0, 9.963235149901826e-07, 0.0, 0.0, 0.20177155250480247, 0.0, 0.0, 0.0, 0.3125687061312066]",,,,0.389403837985,0.0,0.0,,0.0,0.0,0.0,"[0.00019877705111272063, 0.0, 0.0, 0.0, 0.0, 0.0, 0.0, 0.0009732238136343065, 0.0, 0.0, 0.0, 0.0, 0.0, 0.0, 9.972375631046932e-07, 0.0, -5.878642133814921e-23, 0.0, 0.0, 0.0, 0.0, 9.891300301159578e-07, 0.0, 0.0, 0.0, 0.0, -5.87864213381492e-23, 0.0, 9.891300301159578e-07, 0.0, 0.0, 0.0, 0.0, 0.0, 0.0, 0.000760000999999674]"
12776000000,,112,,12,776000000,turtlebot2/odom,turtlebot2/base_footprint_distributed,,,,0.850006506707,0.0,0.0,,0.0,0.0,0.0,1.0,"[0.2680687583621561, 0.0, 0.0, 0.0, 0.0, 0.0, 0.0, 0.43997198062770926, 0.0, 0.0, 0.0, 0.21897126602883507, 0.0, 0.0, 9.976303286918412e-07, 0.0, -7.95717236113577e-15, 0.0, 0.0, 0.0, 0.0, 9.952829935141103e-07, 0.0, 0.0, 0.0, 0.0, -7.957172361135767e-15, 0.0, 9.952829935140834e-07, 0.0, 0.0, 0.21897126602883502, 0.0, 0.0, 0.0, 0.3212764127941434]",,,,0.0848786638626,0.0,0.0,,0.0,0.0,0.0,"[0.0002561480661377399, 0.0, 0.0, 0.0, 0.0, 0.0, 0.0, 0.000894737131318756, 0.0, 0.0, 0.0, 0.0, 0.0, 0.0, 9.964538901092161e-07, 0.0, -1.9053177617099553e-23, 0.0, 0.0, 0.0, 0.0, 9.861104269840076e-07, 0.0, 0.0, 0.0, 0.0, -1.9053177617099562e-23, 0.0, 9.861104269840076e-07, 0.0, 0.0, 0.0, 0.0, 0.0, 0.0, 0.000700000999999665]"
12876000000,,113,,12,876000000,turtlebot2/odom,turtlebot2/base_footprint_distributed,,,,0.853393318737,0.0,0.0,,0.0,0.0,0.0,1.0,"[0.27382629120480095, 0.0, 0.0, 0.0, 0.0, 0.0, 0.0, 0.44884316650640743, 0.0, 0.0, 0.0, 0.22123946700182925, 0.0, 0.0, 9.988123484766174e-07, 0.0, 8.024715205435405e-16, 0.0, 0.0, 0.0, 0.0, 9.976303063437012e-07, 0.0, 0.0, 0.0, 0.0, 8.024715205435409e-16, 0.0, 9.976303063437006e-07, 0.0, 0.0, 0.2212394670018292, 0.0, 0.0, 0.0, 0.328182148184203]",,,,-0.0217209203116,0.0,0.0,,0.0,0.0,0.0,"[0.0005411290709261531, 0.0, 0.0, 0.0, 0.0, 0.0, 0.0, 9.999997571501854e-10, 0.0, 0.0, 0.0, 0.0, 0.0, 0.0, 9.982206299531228e-07, 0.0, 1.9098788655102994e-24, 0.0, 0.0, 0.0, 0.0, 9.929570575826162e-07, 0.0, 0.0, 0.0, 0.0, 1.909878865510299e-24, 0.0, 9.929570575826162e-07, 0.0, 0.0, 0.0, 0.0, 0.0, 0.0, 9.99999666666889e-10]"
12976000000,,114,,12,976000000,turtlebot2/odom,turtlebot2/base_footprint_distributed,,,,0.851702715722,0.0,0.0,,0.0,0.0,0.0,1.0,"[0.280234396882658, 0.0, 0.0, 0.0, 0.0, 0.0, 0.0, 0.45380204328997625, 0.0, 0.0, 0.0, 0.22016069306198752, 0.0, 0.0, 9.99445060893267e-07, 0.0, 3.4350683859429233e-16, 0.0, 0.0, 0.0, 0.0, 9.98891350248119e-07, 0.0, 0.0, 0.0, 0.0, 3.4350683859429223e-16, 0.0, 9.98891350248119e-07, 0.0, 0.0, 0.22016069306198743, 0.0, 0.0, 0.0, 0.33586217852899913]",,,,-0.0110595602081,0.0,0.0,,0.0,0.0,0.0,"[0.0003473730107131431, 0.0, 0.0, 0.0, 0.0, 0.0, 0.0, 0.0007645085711773406, 0.0, 0.0, 0.0, 0.0, 0.0, 0.0, 9.991680524264227e-07, 0.0, 8.36388394414322e-25, 0.0, 0.0, 0.0, 0.0, 9.966886518354093e-07, 0.0, 0.0, 0.0, 0.0, 8.363883944143219e-25, 0.0, 9.966886518354093e-07, 0.0, 0.0, 0.0, 0.0, 0.0, 0.0, 0.000600000999999477]"
13076000000,,115,,13,76000000,turtlebot2/odom,turtlebot2/base_footprint_distributed,,,,0.851264036652,0.0,0.0,,0.0,0.0,0.0,1.0,"[0.2852375374953804, 0.0, 0.0, 0.0, 0.0, 0.0, 0.0, 0.4582433233763357, 0.0, 0.0, 0.0, 0.2197303067974228, 0.0, 0.0, 9.99405469535619e-07, 0.0, 1.9338395511659833e-16, 0.0, 0.0, 0.0, 0.0, 9.98812349295701e-07, 0.0, 0.0, 0.0, 0.0, 1.9338395511659838e-16, 0.0, 9.988123492957006e-07, 0.0, 0.0, 0.21973030679742273, 0.0, 0.0, 0.0, 0.3418637843791441]",,,,-0.00763273216537,0.0,0.0,,0.0,0.0,0.0,"[0.000251008465224291, 0.0, 0.0, 0.0, 0.0, 0.0, 0.0, 0.000712630578403472, 0.0, 0.0, 0.0, 0.0, 0.0, 0.0, 9.991087336074187e-07, 0.0, 4.717962146769771e-25, 0.0, 0.0, 0.0, 0.0, 9.964538121393196e-07, 0.0, 0.0, 0.0, 0.0, 4.717962146769774e-25, 0.0, 9.964538121393196e-07, 0.0, 0.0, 0.0, 0.0, 0.0, 0.0, 0.0005600009999994837]"
13176000000,,116,,13,176000000,turtlebot2/odom,turtlebot2/base_footprint_distributed,,,,0.850955754747,0.0,0.0,,0.0,0.0,0.0,1.0,"[0.29034292566695424, 0.0, 0.0, 0.0, 0.0, 0.0, 0.0, 0.46268037487941105, 0.0, 0.0, 0.0, 0.21920758947398197, 0.0, 0.0, 9.99445061249036e-07, 0.0, 3.6310823648698636e-16, 0.0, 0.0, 0.0, 0.0, 9.988913530823966e-07, 0.0, 0.0, 0.0, 0.0, 3.6310823648698636e-16, 0.0, 9.988913530823966e-07, 0.0, 0.0, 0.2192075894739819, 0.0, 0.0, 0.0, 0.34798587457907154]",,,,-0.00147185897754,0.0,0.0,,0.0,0.0,0.0,"[0.0002850408105836296, 0.0, 0.0, 0.0, 0.0, 0.0, 0.0, 0.0007644999642600341, 0.0, 0.0, 0.0, 0.0, 0.0, 0.0, 9.9916805362506e-07, 0.0, 8.978647131263797e-25, 0.0, 0.0, 0.0, 0.0, 9.966887265246068e-07, 0.0, 0.0, 0.0, 0.0, 8.978647131263802e-25, 0.0, 9.966887265246068e-07, 0.0, 0.0, 0.0, 0.0, 0.0, 0.0, 0.0006000009999994872]"
13276000000,,117,,13,276000000,turtlebot2/odom,turtlebot2/base_footprint_distributed,,,,0.851025501903,0.0,0.0,,0.0,0.0,0.0,1.0,"[0.2952968095952952, 0.0, 0.0, 0.0, 0.0, 0.0, 0.0, 0.46734160180041484, 0.0, 0.0, 0.0, 0.2189734107023127, 0.0, 0.0, 9.99425947378255e-07, 0.0, 2.119160483527408e-16, 0.0, 0.0, 0.0, 0.0, 9.988532114254505e-07, 0.0, 0.0, 0.0, 0.0, 2.1191604835274084e-16, 0.0, 9.988532114254505e-07, 0.0, 0.0, 0.21897341070231258, 0.0, 0.0, 0.0, 0.3539280720573403]",,,,-0.00132262914097,0.0,0.0,,0.0,0.0,0.0,"[0.0002746540226977809, 0.0, 0.0, 0.0, 0.0, 0.0, 0.0, 0.0007385453306863772, 0.0, 0.0, 0.0, 0.0, 0.0, 0.0, 9.991394151334156e-07, 0.0, 5.236505655830592e-25, 0.0, 0.0, 0.0, 0.0, 9.965753241855728e-07, 0.0, 0.0, 0.0, 0.0, 5.236505655830591e-25, 0.0, 9.965753241855728e-07, 0.0, 0.0, 0.0, 0.0, 0.0, 0.0, 0.0005800009999994983]"
13376000000,,118,,13,376000000,turtlebot2/odom,turtlebot2/base_footprint_distributed,,,,0.85070582806,0.0,0.0,,0.0,0.0,0.0,1.0,"[0.2993523969158532, 0.0, 0.0, 0.0, 0.0, 0.0, 0.0, 0.4712185780077898, 0.0, 0.0, 0.0, 0.21882900872158317, 0.0, 0.0, 9.997653685572927e-07, 0.0, 4.2538011504556845e-17, 0.0, 0.0, 0.0, 0.0, 9.995309572161824e-07, 0.0, 0.0, 0.0, 0.0, 4.253801150455685e-17, 0.0, 9.995309572161824e-07, 0.0, 0.0, 0.21882900872158303, 0.0, 0.0, 0.0, 0.35879118428648865]",,,,-0.009553914907,0.0,0.0,,0.0,0.0,0.0,"[0.00199983085537327, 0.0, 0.0, 0.0, 0.0, 0.0, 0.0, 9.999996607040242e-10, 0.0, 0.0, 0.0, 0.0, 0.0, 0.0, 9.996481354274259e-07, 0.0, 1.0390334476241492e-25, 0.0, 0.0, 0.0, 0.0, 9.985954862732289e-07, 0.0, 0.0, 0.0, 0.0, 1.0390334476241494e-25, 0.0, 9.985954862732289e-07, 0.0, 0.0, 0.0, 0.0, 0.0, 0.0, 9.999995454549588e-10]"
13475000000,,119,,13,476000000,turtlebot2/odom,turtlebot2/base_footprint_distributed,,,,0.850952556672,0.0,0.0,,0.0,0.0,0.0,1.0,"[0.30315855588223944, 0.0, 0.0, 0.0, 0.0, 0.0, 0.0, 0.4745907861269431, 0.0, 0.0, 0.0, 0.21847441237934703, 0.0, 0.0, 9.972375675182175e-07, 0.0, 2.0308648892002448e-16, 0.0, 0.0, 0.0, 0.0, 9.945054812109896e-07, 0.0, 0.0, 0.0, 0.0, 2.0308648892002453e-16, 0.0, 9.945054812109894e-07, 0.0, 0.0, 0.2184744123793469, 0.0, 0.0, 0.0, 0.3633512346964917]",,,,-0.00111973248806,0.0,0.0,,0.0,0.0,0.0,"[0.00025331194105905706, 0.0, 0.0, 0.0, 0.0, 0.0, 0.0, 0.0019930375361006587, 0.0, 0.0, 0.0, 0.0, 0.0, 0.0, 9.95867763106829e-07, 0.0, 4.857708481967047e-25, 0.0, 0.0, 0.0, 0.0, 9.838705971034706e-07, 0.0, 0.0, 0.0, 0.0, 4.857708481967048e-25, 0.0, 9.838705971034706e-07, 0.0, 0.0, 0.0, 0.0, 0.0, 0.0, 0.0015200009999995557]"
13576000000,,120,,13,576000000,turtlebot2/odom,turtlebot2/base_footprint_distributed,,,,0.850767823375,0.0,0.0,,0.0,0.0,0.0,1.0,"[0.31042525816693406, 0.0, 0.0, 0.0, 0.0, 0.0, 0.0, 0.4812624638367431, 0.0, 0.0, 0.0, 0.21798210407168345, 0.0, 0.0, 9.997968308236376e-07, 0.0, 8.635131546333216e-17, 0.0, 0.0, 0.0, 0.0, 9.99593827176603e-07, 0.0, 0.0, 0.0, 0.0, 8.635131546333218e-17, 0.0, 9.99593827176603e-07, 0.0, 0.0, 0.21798210407168334, 0.0, 0.0, 0.0, 0.37205442336880346]",,,,-0.00175249308642,0.0,0.0,,0.0,0.0,0.0,"[0.0004207444260737923, 0.0, 0.0, 0.0, 0.0, 0.0, 0.0, 0.002158316588229839, 0.0, 0.0, 0.0, 0.0, 0.0, 0.0, 9.996953083253179e-07, 0.0, 2.151812167241866e-25, 0.0, 0.0, 0.0, 0.0, 9.987834526419978e-07, 0.0, 0.0, 0.0, 0.0, 2.1518121672418654e-25, 0.0, 9.987834526419978e-07, 0.0, 0.0, 0.0, 0.0, 0.0, 0.0, 0.0016400009999996198]"
13676000000,,121,,13,676000000,turtlebot2/odom,turtlebot2/base_footprint_distributed,,,,0.850787932957,0.0,0.0,,0.0,0.0,0.0,1.0,"[0.31543209192168115, 0.0, 0.0, 0.0, 0.0, 0.0, 0.0, 0.48601533072259606, 0.0, 0.0, 0.0, 0.21776789049698114, 0.0, 0.0, 9.997968307813105e-07, 0.0, 4.460865853475173e-17, 0.0, 0.0, 0.0, 0.0, 9.995938268363063e-07, 0.0, 0.0, 0.0, 0.0, 4.4608658534751746e-17, 0.0, 9.995938268363065e-07, 0.0, 0.0, 0.21776789049698103, 0.0, 0.0, 0.0, 0.3780544967027177]",,,,-0.00102967603039,0.0,0.0,,0.0,0.0,0.0,"[0.0002786896870283224, 0.0, 0.0, 0.0, 0.0, 0.0, 0.0, 0.0021583583956420317, 0.0, 0.0, 0.0, 0.0, 0.0, 0.0, 9.996953081817742e-07, 0.0, 1.0967284984732889e-25, 0.0, 0.0, 0.0, 0.0, 9.987834437701334e-07, 0.0, 0.0, 0.0, 0.0, 1.0967284984732889e-25, 0.0, 9.987834437701334e-07, 0.0, 0.0, 0.0, 0.0, 0.0, 0.0, 0.0016400009999994795]"
13776000000,,122,,13,777000000,turtlebot2/odom,turtlebot2/base_footprint_distributed,,,,0.85060575605,0.0,0.0,,0.0,0.0,0.0,1.0,"[0.3188363440982162, 0.0, 0.0, 0.0, 0.0, 0.0, 0.0, 0.48931685881380604, 0.0, 0.0, 0.0, 0.21767916044465452, 0.0, 0.0, 9.997313273205005e-07, 0.0, 3.2509399592245287e-17, 0.0, 0.0, 0.0, 0.0, 9.994629425763167e-07, 0.0, 0.0, 0.0, 0.0, 3.250939959224527e-17, 0.0, 9.994629425763167e-07, 0.0, 0.0, 0.21767916044465438, 0.0, 0.0, 0.0, 0.3821378241900829]",,,,-0.00651596467569,0.0,0.0,,0.0,0.0,0.0,"[0.001765954715453831, 0.0, 0.0, 0.0, 0.0, 0.0, 0.0, 9.999997570818017e-10, 0.0, 0.0, 0.0, 0.0, 0.0, 0.0, 9.995970990592297e-07, 0.0, 7.817127951164054e-26, 0.0, 0.0, 0.0, 0.0, 9.983922412615523e-07, 0.0, 0.0, 0.0, 0.0, 7.817127951164043e-26, 0.0, 9.983922412615523e-07, 0.0, 0.0, 0.0, 0.0, 0.0, 0.0, 9.99999666666889e-10]"
13876000000,,123,,13,876000000,turtlebot2/odom,turtlebot2/base_footprint_distributed,,,,0.850713547379,0.0,0.0,,0.0,0.0,0.0,1.0,"[0.3238958113477061, 0.0, 0.0, 0.0, 0.0, 0.0, 0.0, 0.4939929110723929, 0.0, 0.0, 0.0, 0.21734800823187764, 0.0, 0.0, 9.988123484765028e-07, 0.0, 6.061382404313654e-17, 0.0, 0.0, 0.0, 0.0, 9.976303063436934e-07, 0.0, 0.0, 0.0, 0.0, 6.061382404313654e-17, 0.0, 9.976303063436932e-07, 0.0, 0.0, 0.2173480082318775, 0.0, 0.0, 0.0, 0.3881979312471298]",,,,-0.00214140637628,0.0,0.0,,0.0,0.0,0.0,"[0.0006092563542451126, 0.0, 0.0, 0.0, 0.0, 0.0, 0.0, 9.99999628233262e-10, 0.0, 0.0, 0.0, 0.0, 0.0, 0.0, 9.982206299531209e-07, 0.0, 1.442653810479575e-25, 0.0, 0.0, 0.0, 0.0, 9.929570575808434e-07, 0.0, 0.0, 0.0, 0.0, 1.4426538104795753e-25, 0.0, 9.929570575808434e-07, 0.0, 0.0, 0.0, 0.0, 0.0, 0.0, 9.999995049509852e-10]"
13976000000,,124,,13,976000000,turtlebot2/odom,turtlebot2/base_footprint_distributed,,,,0.850733651451,0.0,0.0,,0.0,0.0,0.0,1.0,"[0.3282523411465471, 0.0, 0.0, 0.0, 0.0, 0.0, 0.0, 0.49814742190318617, 0.0, 0.0, 0.0, 0.21716798497998804, 0.0, 0.0, 9.976303308582766e-07, 0.0, 9.440034938802175e-17, 0.0, 0.0, 0.0, 0.0, 9.952830106786424e-07, 0.0, 0.0, 0.0, 0.0, 9.440034938802175e-17, 0.0, 9.952830106786424e-07, 0.0, 0.0, 0.2171679849799879, 0.0, 0.0, 0.0, 0.3934180096577619]",,,,-0.000587443747447,0.0,0.0,,0.0,0.0,0.0,"[0.00018588572809965479, 0.0, 0.0, 0.0, 0.0, 0.0, 0.0, 0.0022971069285957564, 0.0, 0.0, 0.0, 0.0, 0.0, 0.0, 9.964538973904943e-07, 0.0, 2.2719906375225658e-25, 0.0, 0.0, 0.0, 0.0, 9.86110870535125e-07, 0.0, 0.0, 0.0, 0.0, 2.2719906375225658e-25, 0.0, 9.86110870535125e-07, 0.0, 0.0, 0.0, 0.0, 0.0, 0.0, 0.0017400009999994997]"
14076000000,,125,,14,76000000,turtlebot2/odom,turtlebot2/base_footprint_distributed,,,,0.850779840845,0.0,0.0,,0.0,0.0,0.0,1.0,"[0.3333558347281259, 0.0, 0.0, 0.0, 0.0, 0.0, 0.0, 0.5030687630524397, 0.0, 0.0, 0.0, 0.21700167848754612, 0.0, 0.0, 9.98154979996379e-07, 0.0, 7.309526098235246e-17, 0.0, 0.0, 0.0, 0.0, 9.96323515988632e-07, 0.0, 0.0, 0.0, 0.0, 7.309526098235247e-17, 0.0, 9.963235159886318e-07, 0.0, 0.0, 0.21700167848754598, 0.0, 0.0, 0.0, 0.39954137884442]",,,,-0.000597061606041,0.0,0.0,,0.0,0.0,0.0,"[0.00019434355559922047, 0.0, 0.0, 0.0, 0.0, 0.0, 0.0, 0.0010258398039908886, 0.0, 0.0, 0.0, 0.0, 0.0, 0.0, 9.972375635277885e-07, 0.0, 1.765276356888735e-25, 0.0, 0.0, 0.0, 0.0, 9.891300560547837e-07, 0.0, 0.0, 0.0, 0.0, 1.7652763568887363e-25, 0.0, 9.891300560547837e-07, 0.0, 0.0, 0.0, 0.0, 0.0, 0.0, 0.0008000009999996475]"
14176000000,,126,,14,177000000,turtlebot2/odom,turtlebot2/base_footprint_distributed,,,,0.83968380095,0.0,0.0,,0.0,0.0,0.0,1.0,"[0.3403674293261604, 0.0, 0.0, 0.0, 0.0, 0.0, 0.0, 0.5096692402056395, 0.0, 0.0, 0.0, 0.21661599340068247, 0.0, 0.0, 9.994450612736238e-07, 0.0, 2.5919871343453964e-16, 0.0, 0.0, 0.0, 0.0, 9.988913532791924e-07, 0.0, 0.0, 0.0, 0.0, 2.5919871343453964e-16, 0.0, 9.988913532791922e-07, 0.0, 0.0, 0.2166159934006823, 0.0, 0.0, 0.0, 0.4079493673948445]",,,,-0.178825750283,0.0,0.0,,0.0,0.0,0.0,"[0.0004124536843066284, 0.0, 0.0, 0.0, 0.0, 0.0, 0.0, 0.0007645414315180765, 0.0, 0.0, 0.0, 0.0, 0.0, 0.0, 9.991680537081837e-07, 0.0, 6.41618024268483e-25, 0.0, 0.0, 0.0, 0.0, 9.96688731761231e-07, 0.0, 0.0, 0.0, 0.0, 6.416180242684828e-25, 0.0, 9.96688731761231e-07, 0.0, 0.0, 0.0, 0.0, 0.0, 0.0, 0.0006000009999996893]"
14276000000,,127,,14,276000000,turtlebot2/odom,turtlebot2/base_footprint_distributed,,,,0.80812072787,0.0,0.0,,0.0,0.0,0.0,1.0,"[0.3453711703680892, 0.0, 0.0, 0.0, 0.0, 0.0, 0.0, 0.506169058236501, 0.0, 0.0, 0.0, 0.2084216480726851, 0.0, 0.0, 9.99462943283846e-07, 0.0, 3.788573903608346e-15, 0.0, 0.0, 0.0, 0.0, 9.989270391093621e-07, 0.0, 0.0, 0.0, 0.0, 3.788573903608345e-15, 0.0, 9.989270391093355e-07, 0.0, 0.0, 0.20842164807268493, 0.0, 0.0, 0.0, 0.4139514954953739]",,,,-0.391726227618,0.0,0.0,,0.0,0.0,0.0,"[0.0002733838358646826, 0.0, 0.0, 0.0, 0.0, 0.0, 0.0, 0.0007905159156328063, 0.0, 0.0, 0.0, 0.0, 0.0, 0.0, 9.991948473804001e-07, 0.0, 9.366336867090029e-24, 0.0, 0.0, 0.0, 0.0, 9.967948552680281e-07, 0.0, 0.0, 0.0, 0.0, 9.366336867090026e-24, 0.0, 9.967948552680281e-07, 0.0, 0.0, 0.0, 0.0, 0.0, 0.0, 0.0006200009999995067]"
14376000000,,128,,14,376000000,turtlebot2/odom,turtlebot2/base_footprint_distributed,,,,0.778959106866,0.0,0.0,,0.0,0.0,0.0,1.0,"[0.3489757163029738, 0.0, 0.0, 0.0, 0.0, 0.0, 0.0, 0.4979267097326926, 0.0, 0.0, 0.0, 0.19629010444139353, 0.0, 0.0, 9.997313274466159e-07, 0.0, 3.643951395467684e-15, 0.0, 0.0, 0.0, 0.0, 9.994629432130149e-07, 0.0, 0.0, 0.0, 0.0, 3.6439513954676834e-15, 0.0, 9.994629432129653e-07, 0.0, 0.0, 0.19629010444139333, 0.0, 0.0, 0.0, 0.41827389898425776]",,,,-0.409216388583,0.0,0.0,,0.0,0.0,0.0,"[0.001775577954370595, 0.0, 0.0, 0.0, 0.0, 0.0, 0.0, 9.99999636134826e-10, 0.0, 0.0, 0.0, 0.0, 0.0, 0.0, 9.995970993288763e-07, 0.0, 8.890934887333633e-24, 0.0, 0.0, 0.0, 0.0, 9.98392257611045e-07, 0.0, 0.0, 0.0, 0.0, 8.890934887333632e-24, 0.0, 9.98392257611045e-07, 0.0, 0.0, 0.0, 0.0, 0.0, 0.0, 9.999995145635781e-10]"
14477000000,,129,,14,476000000,turtlebot2/odom,turtlebot2/base_footprint_distributed,,,,0.74444918116,0.0,0.0,,0.0,0.0,0.0,1.0,"[0.3531339176524285, 0.0, 0.0, 0.0, 0.0, 0.0, 0.0, 0.4888817470774406, 0.0, 0.0, 0.0, 0.18167225929052228, 0.0, 0.0, 9.96688739701127e-07, 0.0, 4.5924837831426005e-14, 0.0, 0.0, 0.0, 0.0, 9.934210352104969e-07, 0.0, 0.0, 0.0, 0.0, 4.5924837831426024e-14, 0.0, 9.9342103520986e-07, 0.0, 0.0, 0.18167225929052214, 0.0, 0.0, 0.0, 0.4232539379957433]",,,,-0.428262508995,0.0,0.0,,0.0,0.0,0.0,"[0.0002524176908912928, 0.0, 0.0, 0.0, 0.0, 0.0, 0.0, 0.00218616461996972, 0.0, 0.0, 0.0, 0.0, 0.0, 0.0, 9.950494977027899e-07, 0.0, 1.089938114040044e-22, 0.0, 0.0, 0.0, 0.0, 9.80768757777169e-07, 0.0, 0.0, 0.0, 0.0, 1.0899381140400442e-22, 0.0, 9.80768757777169e-07, 0.0, 0.0, 0.0, 0.0, 0.0, 0.0, 0.0016600009999995183]"
14576000000,,130,,14,576000000,turtlebot2/odom,turtlebot2/base_footprint_distributed,,,,0.702846077918,0.0,0.0,,0.0,0.0,0.0,1.0,"[0.35823845543122956, 0.0, 0.0, 0.0, 0.0, 0.0, 0.0, 0.47849455928242696, 0.0, 0.0, 0.0, 0.16255828075338716, 0.0, 0.0, 9.972375651448735e-07, 0.0, 3.714327246317031e-14, 0.0, 0.0, 0.0, 0.0, 9.945054621015568e-07, 0.0, 0.0, 0.0, 0.0, 3.7143272463170307e-14, 0.0, 9.945054621010573e-07, 0.0, 0.0, 0.162558280753387, 0.0, 0.0, 0.0, 0.42937759823191957]",,,,-0.402305959504,0.0,0.0,,0.0,0.0,0.0,"[0.00019133127834929038, 0.0, 0.0, 0.0, 0.0, 0.0, 0.0, 0.0009209291123523386, 0.0, 0.0, 0.0, 0.0, 0.0, 0.0, 9.958677549942477e-07, 0.0, 8.846492570558103e-23, 0.0, 0.0, 0.0, 0.0, 9.838701062309495e-07, 0.0, 0.0, 0.0, 0.0, 8.846492570558099e-23, 0.0, 9.838701062309495e-07, 0.0, 0.0, 0.0, 0.0, 0.0, 0.0, 0.0007200009999996563]"
14676000000,,131,,14,676000000,turtlebot2/odom,turtlebot2/base_footprint_distributed,,,,0.656540671898,0.0,0.0,,0.0,0.0,0.0,1.0,"[0.36399534013796364, 0.0, 0.0, 0.0, 0.0, 0.0, 0.0, 0.46980088931189495, 0.0, 0.0, 0.0, 0.1421404795442454, 0.0, 0.0, 9.987212249238444e-07, 0.0, 1.6982646054506607e-14, 0.0, 0.0, 0.0, 0.0, 9.97448956745977e-07, 0.0, 0.0, 0.0, 0.0, 1.69826460545066e-14, 0.0, 9.974489567457512e-07, 0.0, 0.0, 0.14214047954424525, 0.0, 0.0, 0.0, 0.4362833121165765]",,,,-0.403482583435,0.0,0.0,,0.0,0.0,0.0,"[0.0005306723665601046, 0.0, 0.0, 0.0, 0.0, 0.0, 0.0, 9.99999758958224e-10, 0.0, 0.0, 0.0, 0.0, 0.0, 0.0, 9.980842816615487e-07, 0.0, 4.0644901754102376e-23, 0.0, 0.0, 0.0, 0.0, 9.924236185141718e-07, 0.0, 0.0, 0.0, 0.0, 4.0644901754102376e-23, 0.0, 9.924236185141718e-07, 0.0, 0.0, 0.0, 0.0, 0.0, 0.0, 9.999996688743915e-10]"
14776000000,,132,,14,776000000,turtlebot2/odom,turtlebot2/base_footprint_distributed,,,,0.625228353306,0.0,0.0,,0.0,0.0,0.0,1.0,"[0.3679011540314366, 0.0, 0.0, 0.0, 0.0, 0.0, 0.0, 0.4650035796947085, 0.0, 0.0, 0.0, 0.12809103548461154, 0.0, 0.0, 9.997864163276815e-07, 0.0, 2.9292873081052046e-15, 0.0, 0.0, 0.0, 0.0, 9.99573015151828e-07, 0.0, 0.0, 0.0, 0.0, 2.929287308105204e-15, 0.0, 9.995730151517879e-07, 0.0, 0.0, 0.1280910354846114, 0.0, 0.0, 0.0, 0.44096331212935813]",,,,-0.404131611856,0.0,0.0,,0.0,0.0,0.0,"[0.00028548026792504387, 0.0, 0.0, 0.0, 0.0, 0.0, 0.0, 0.002048202968771087, 0.0, 0.0, 0.0, 0.0, 0.0, 0.0, 9.996796929286293e-07, 0.0, 7.197977971706248e-24, 0.0, 0.0, 0.0, 0.0, 9.987212152278348e-07, 0.0, 0.0, 0.0, 0.0, 7.197977971706251e-24, 0.0, 9.987212152278348e-07, 0.0, 0.0, 0.0, 0.0, 0.0, 0.0, 0.0015600009999996568]"
14876000000,,133,,14,876000000,turtlebot2/odom,turtlebot2/base_footprint_distributed,,,,0.58518635144,0.0,0.0,,0.0,0.0,0.0,1.0,"[0.3729044822752311, 0.0, 0.0, 0.0, 0.0, 0.0, 0.0, 0.4602417116149548, 0.0, 0.0, 0.0, 0.10993648166392006, 0.0, 0.0, 9.99425947012206e-07, 0.0, 7.814483200460046e-15, 0.0, 0.0, 0.0, 0.0, 9.988532081403887e-07, 0.0, 0.0, 0.0, 0.0, 7.814483200460047e-15, 0.0, 9.988532081402824e-07, 0.0, 0.0, 0.10993648166391994, 0.0, 0.0, 0.0, 0.4469661648990968]",,,,-0.405504931213,0.0,0.0,,0.0,0.0,0.0,"[0.00026787091669839885, 0.0, 0.0, 0.0, 0.0, 0.0, 0.0, 0.0007385764669123031, 0.0, 0.0, 0.0, 0.0, 0.0, 0.0, 9.991394137438445e-07, 0.0, 1.8989546901469898e-23, 0.0, 0.0, 0.0, 0.0, 9.965752377331076e-07, 0.0, 0.0, 0.0, 0.0, 1.89895469014699e-23, 0.0, 9.965752377331076e-07, 0.0, 0.0, 0.0, 0.0, 0.0, 0.0, 0.0005800009999996627]"
14976000000,,134,,14,976000000,turtlebot2/odom,turtlebot2/base_footprint_distributed,,,,0.541647366657,0.0,0.0,,0.0,0.0,0.0,1.0,"[0.3783595079605564, 0.0, 0.0, 0.0, 0.0, 0.0, 0.0, 0.4566724873418351, 0.0, 0.0, 0.0, 0.08965845845869228, 0.0, 0.0, 9.981549799141778e-07, 0.0, 2.434898795544755e-14, 0.0, 0.0, 0.0, 0.0, 9.963235149905047e-07, 0.0, 0.0, 0.0, 0.0, 2.434898795544756e-14, 0.0, 9.963235149901835e-07, 0.0, 0.0, 0.08965845845869215, 0.0, 0.0, 0.0, 0.45350828777598845]",,,,-0.40115427012,0.0,0.0,,0.0,0.0,0.0,"[0.00025106948323261595, 0.0, 0.0, 0.0, 0.0, 0.0, 0.0, 0.0009733283633234309, 0.0, 0.0, 0.0, 0.0, 0.0, 0.0, 9.972375631046932e-07, 0.0, 5.876965365110424e-23, 0.0, 0.0, 0.0, 0.0, 9.891300301161046e-07, 0.0, 0.0, 0.0, 0.0, 5.876965365110424e-23, 0.0, 9.891300301161046e-07, 0.0, 0.0, 0.0, 0.0, 0.0, 0.0, 0.0007600009999995051]"
15076000000,,135,,15,76000000,turtlebot2/odom,turtlebot2/base_footprint_distributed,,,,0.497151837324,0.0,0.0,,0.0,0.0,0.0,1.0,"[0.38391733695931496, 0.0, 0.0, 0.0, 0.0, 0.0, 0.0, 0.4550289505271183, 0.0, 0.0, 0.0, 0.06903234843690045, 0.0, 0.0, 9.991680534391471e-07, 0.0, 1.1127117000394228e-14, 0.0, 0.0, 0.0, 0.0, 9.983388705189659e-07, 0.0, 0.0, 0.0, 0.0, 1.1127117000394226e-14, 0.0, 9.98338870518817e-07, 0.0, 0.0, 0.06903234843690033, 0.0, 0.0, 0.0, 0.46017421276491427]",,,,-0.401896307244,0.0,0.0,,0.0,0.0,0.0,"[0.0008045780888584386, 0.0, 0.0, 0.0, 0.0, 0.0, 0.0, 9.999997554378001e-10, 0.0, 0.0, 0.0, 0.0, 0.0, 0.0, 9.98753117398957e-07, 0.0, 2.7411883063511815e-23, 0.0, 0.0, 0.0, 0.0, 9.950494780616296e-07, 0.0, 0.0, 0.0, 0.0, 2.7411883063511815e-23, 0.0, 9.950494780616296e-07, 0.0, 0.0, 0.0, 0.0, 0.0, 0.0, 9.999996644297555e-10]"
15176000000,,136,,15,176000000,turtlebot2/odom,turtlebot2/base_footprint_distributed,,,,0.444988369433,0.0,0.0,,0.0,0.0,0.0,1.0,"[0.39047399139924405, 0.0, 0.0, 0.0, 0.0, 0.0, 0.0, 0.4555011926148537, 0.0, 0.0, 0.0, 0.044188815209680356, 0.0, 0.0, 9.994629433153763e-07, 0.0, 7.430523982433678e-15, 0.0, 0.0, 0.0, 0.0, 9.989270390778711e-07, 0.0, 0.0, 0.0, 0.0, 7.430523982433682e-15, 0.0, 9.989270390777682e-07, 0.0, 0.0, 0.044188815209680224, 0.0, 0.0, 0.0, 0.46803589688791714]",,,,-0.400809163807,0.0,0.0,,0.0,0.0,0.0,"[0.0004494243266029733, 0.0, 0.0, 0.0, 0.0, 0.0, 0.0, 0.0007905033979304151, 0.0, 0.0, 0.0, 0.0, 0.0, 0.0, 9.991948473670972e-07, 0.0, 1.83664790840036e-23, 0.0, 0.0, 0.0, 0.0, 9.96794854431368e-07, 0.0, 0.0, 0.0, 0.0, 1.8366479084003607e-23, 0.0, 9.96794854431368e-07, 0.0, 0.0, 0.0, 0.0, 0.0, 0.0, 0.0006200009999995117]"
15280000000,,137,,15,279000000,turtlebot2/odom,turtlebot2/base_footprint_distributed,,,,0.404848893844,0.0,0.0,,0.0,0.0,0.0,1.0,"[0.3954777343129158, 0.0, 0.0, 0.0, 0.0, 0.0, 0.0, 0.45767692599812154, 0.0, 0.0, 0.0, 0.025006969898689294, 0.0, 0.0, 9.994797086142666e-07, 0.0, 7.126633927904827e-15, 0.0, 0.0, 0.0, 0.0, 9.989604972987024e-07, 0.0, 0.0, 0.0, 0.0, 7.126633927904827e-15, 0.0, 9.989604972986048e-07, 0.0, 0.0, 0.025006969898689155, 0.0, 0.0, 0.0, 0.47403733971204204]",,,,-0.404722801513,0.0,0.0,,0.0,0.0,0.0,"[0.0002882255267014115, 0.0, 0.0, 0.0, 0.0, 0.0, 0.0, 0.0008165068010089248, 0.0, 0.0, 0.0, 0.0, 0.0, 0.0, 9.992199682514315e-07, 0.0, 1.7387029656802038e-23, 0.0, 0.0, 0.0, 0.0, 9.968943368592236e-07, 0.0, 0.0, 0.0, 0.0, 1.738702965680204e-23, 0.0, 9.968943368592236e-07, 0.0, 0.0, 0.0, 0.0, 0.0, 0.0, 0.0006400009999994956]"
15377000000,,138,,15,377000000,turtlebot2/odom,turtlebot2/base_footprint_distributed,,,,0.366246983106,0.0,0.0,,0.0,0.0,0.0,1.0,"[0.4003811714808015, 0.0, 0.0, 0.0, 0.0, 0.0, 0.0, 0.4613491948126483, 0.0, 0.0, 0.0, 0.006374618855380587, 0.0, 0.0, 9.9938347671644e-07, 0.0, 7.811116474229897e-15, 0.0, 0.0, 0.0, 0.0, 9.987684677274115e-07, 0.0, 0.0, 0.0, 0.0, 7.811116474229902e-15, 0.0, 9.987684677273122e-07, 0.0, 0.0, 0.006374618855380451, 0.0, 0.0, 0.0, 0.4799191502573699]",,,,-0.404801619663,0.0,0.0,,0.0,0.0,0.0,"[0.0002587263939580325, 0.0, 0.0, 0.0, 0.0, 0.0, 0.0, 0.0006867466014821084, 0.0, 0.0, 0.0, 0.0, 0.0, 0.0, 9.99075783545249e-07, 0.0, 1.882704554604463e-23, 0.0, 0.0, 0.0, 0.0, 9.963233645547652e-07, 0.0, 0.0, 0.0, 0.0, 1.8827045546044624e-23, 0.0, 9.963233645547652e-07, 0.0, 0.0, 0.0, 0.0, 0.0, 0.0, 0.000540000999999535]"
15478000000,,139,,15,476000000,turtlebot2/odom,turtlebot2/base_footprint_distributed,,,,0.325125749263,0.0,0.0,,0.0,0.0,0.0,1.0,"[0.40548991114304295, 0.0, 0.0, 0.0, 0.0, 0.0, 0.0, 0.466782653954058, 0.0, 0.0, 0.0, -0.01382446810005394, 0.0, 0.0, 9.998366549967426e-07, 0.0, 2.24247670888916e-15, 0.0, 0.0, 0.0, 0.0, 9.9967341704108e-07, 0.0, 0.0, 0.0, 0.0, 2.24247670888916e-15, 0.0, 9.996734170410493e-07, 0.0, 0.0, -0.013824468100054079, 0.0, 0.0, 0.0, 0.48604476843878003]",,,,-0.396969749058,0.0,0.0,,0.0,0.0,0.0,"[0.00030755145677567933, 0.0, 0.0, 0.0, 0.0, 0.0, 0.0, 0.0034959282113557256, 0.0, 0.0, 0.0, 0.0, 0.0, 0.0, 9.99755022614894e-07, 0.0, 5.575301129774075e-24, 0.0, 0.0, 0.0, 0.0, 9.990215228954951e-07, 0.0, 0.0, 0.0, 0.0, 5.575301129774074e-24, 0.0, 9.990215228954951e-07, 0.0, 0.0, 0.0, 0.0, 0.0, 0.0, 0.0025800009999995413]"
15577000000,,140,,15,576000000,turtlebot2/odom,turtlebot2/base_footprint_distributed,,,,0.316861445145,0.0,0.0,,0.0,0.0,0.0,1.0,"[0.40644012614583247, 0.0, 0.0, 0.0, 0.0, 0.0, 0.0, 0.46796619231237885, 0.0, 0.0, 0.0, -0.017582405423115895, 0.0, 0.0, 9.987212234252005e-07, 0.0, 1.733573119670355e-14, 0.0, 0.0, 0.0, 0.0, 9.974489449087726e-07, 0.0, 0.0, 0.0, 0.0, 1.7335731196703556e-14, 0.0, 9.974489449085376e-07, 0.0, 0.0, -0.017582405423116034, 0.0, 0.0, 0.0, 0.48718404150147687]",,,,-0.412663814377,0.0,0.0,,0.0,0.0,0.0,"[0.0005623346778771237, 0.0, 0.0, 0.0, 0.0, 0.0, 0.0, 9.999997535275425e-10, 0.0, 0.0, 0.0, 0.0, 0.0, 0.0, 9.980842766322099e-07, 0.0, 4.099167696374451e-23, 0.0, 0.0, 0.0, 0.0, 9.92423316593467e-07, 0.0, 0.0, 0.0, 0.0, 4.099167696374452e-23, 0.0, 9.92423316593467e-07, 0.0, 0.0, 0.0, 0.0, 0.0, 0.0, 9.999996621623905e-10]"
15676000000,,141,,15,676000000,turtlebot2/odom,turtlebot2/base_footprint_distributed,,,,0.25966031146,0.0,0.0,,0.0,0.0,0.0,1.0,"[0.4135029838378951, 0.0, 0.0, 0.0, 0.0, 0.0, 0.0, 0.47885747492001995, 0.0, 0.0, 0.0, -0.04676523308515899, 0.0, 0.0, 9.984894250370133e-07, 0.0, 2.048404602364e-14, 0.0, 0.0, 0.0, 0.0, 9.969879428334919e-07, 0.0, 0.0, 0.0, 0.0, 2.048404602364e-14, 0.0, 9.969879428332145e-07, 0.0, 0.0, -0.04676523308515912, 0.0, 0.0, 0.0, 0.4956441141202971]",,,,-0.399814115038,0.0,0.0,,0.0,0.0,0.0,"[0.00030760791498574293, 0.0, 0.0, 0.0, 0.0, 0.0, 0.0, 0.0010521859656062245, 0.0, 0.0, 0.0, 0.0, 0.0, 0.0, 9.97737552916004e-07, 0.0, 4.97003642242358e-23, 0.0, 0.0, 0.0, 0.0, 9.910711645624044e-07, 0.0, 0.0, 0.0, 0.0, 4.97003642242358e-23, 0.0, 9.910711645624044e-07, 0.0, 0.0, 0.0, 0.0, 0.0, 0.0, 0.0008200009999995074]"
