rosbagTimestamp,header,seq,stamp,secs,nsecs,frame_id,child_frame_id,pose,pose,position,x,y,z,orientation,x,y,z,w,covariance,twist,twist,linear,x,y,z,angular,x,y,z,covariance
8507000000,,69,,8,508000000,turtlebot2/odom,turtlebot2/base_footprint_distributed,,,,1.41434640587e-05,-3.22763946363e-14,-2.72939896983e-19,,2.03020116004e-19,-1.49135222432e-18,9.5725881014e-14,1.0,"[0.054587420398826636, 3.658343343846415e-18, -9.954915176861745e-29, 1.2654158452623984e-31, -3.982116191218185e-31, -1.9653121707265836e-27, 3.658343343846415e-18, 0.05454254247727951, -9.262135461627604e-30, 1.6139765528954853e-32, -6.661706269083042e-32, -4.091484678978473e-27, -9.954915176852562e-29, -9.262135461627604e-30, 0.00048199930609068697, -2.900484432489364e-36, 2.264432223023978e-35, -9.007497088168399e-32, 1.26541584526195e-31, 1.6139765528954853e-32, -2.900484432489364e-36, 0.00024199861324837027, -1.529910489370015e-35, -8.801282552504676e-31, -3.982116191218185e-31, -6.661706269083042e-32, 2.264432221902939e-35, -1.529873755171552e-35, 0.00024199861324837113, 2.3012807359393465e-29, -1.9653121707265836e-27, -4.091484678978473e-27, -9.007497088166157e-32, -8.801282553423031e-31, 2.3012807359026123e-29, 0.06543350009399951]",,,,6.44588429754e-05,8.86578306591e-22,8.83417307656e-19,,9.32547667421e-19,2.91935920845e-18,-1.04442556313e-21,"[0.003137510584297562, 1.197409149933029e-27, 1.6215173475903496e-29, -9.841440882073003e-32, -2.0318132836157645e-31, 1.277975071966556e-34, 1.1974091495568708e-27, 0.00020000199999924096, -7.50933571542865e-35, 5.65440886066482e-39, 2.722400967860941e-39, -1.1277650040886128e-41, 1.6215173475903137e-29, -7.5093351414568e-35, 0.0003219989594920531, 1.5923734583806552e-35, 3.801142778878318e-35, -1.1141079492553031e-38, -9.841440882072442e-32, 5.65440886066482e-39, 1.592373458520785e-35, 8.199585236986031e-05, 7.26316237761518e-35, -1.4193805865324e-35, -2.0318132836155403e-31, 2.722401318185557e-39, 3.8011427783177986e-35, 7.263222327685821e-35, 8.199585236986031e-05, 1.033359118488937e-34, 1.277975071966556e-34, -1.1277650040886128e-41, -1.1141073887359174e-38, -1.4193805865324e-35, 1.033359118488937e-34, 0.0001600019999990175]"
8606000000,,70,,8,607000000,turtlebot2/odom,turtlebot2/base_footprint_distributed,,,,2.49386955053e-06,-2.5731155923e-14,-1.19859111908e-19,,5.69398709741e-19,-4.4244544534e-19,6.90949557048e-14,1.0,"[0.05959188082863833, 3.990635545149341e-18, 9.65748990392084e-28, 1.4074496251830667e-31, -1.2231040546365778e-31, -3.376381211060786e-27, 3.990635545149341e-18, 0.05954587051900586, 1.9762786179536233e-30, -9.893905756355078e-32, 5.715574673845354e-32, -4.048892096095388e-27, 9.657489903924513e-28, 1.9762786175862813e-30, 0.00048199928628031227, 2.3336772579993897e-36, 6.29789621656921e-36, 8.598214512828657e-32, 1.407449625183291e-31, -9.893905756355078e-32, 2.333677262203285e-36, 0.0002419985736895518, -1.2003955456055268e-35, 1.0435921001087547e-29, -1.2231040546363536e-31, 5.715574673845354e-32, 6.297896210964017e-36, -1.2005424823993796e-35, 0.0002419985736895518, 2.021681776482815e-30, -3.376381211060786e-27, -4.048892096095388e-27, 8.598214512826415e-32, 1.0435921001087547e-29, 2.021681776482815e-30, 0.07143597432514]",,,,-6.06732866351e-05,1.44179361227e-21,1.55766548393e-18,,-3.64962912494e-18,-2.08540122818e-18,-4.62406379482e-22,"[0.002921770043582218, -4.4463487104858864e-28, -1.8817980313035257e-28, -1.2103930203073056e-33, 1.8702749549598577e-32, -1.898217815958419e-34, -4.4463487104858864e-28, 0.00020000199999882246, 1.007742320713155e-34, -4.847573995290656e-38, -3.7418194664408857e-38, -2.534668662270729e-41, -1.8817980313030952e-28, 1.0077423243004791e-34, 0.00032199892979849947, -7.243569034327316e-35, -3.5295846623854655e-35, -4.070809033143052e-38, -1.210393020307218e-33, -4.847574555810041e-38, -7.243569033766797e-35, 8.199573442554692e-05, 1.3547539622741237e-34, 1.8555252944070437e-34, 1.8702749549597176e-32, -3.741819186181193e-38, -3.529584662665725e-35, 1.3547456542277624e-34, 8.199573442554692e-05, -2.0518102113921683e-34, -1.898217815958419e-34, -2.534108142884999e-41, -4.0708079121042803e-38, 1.8555253231056362e-34, -2.0518102149794924e-34, 0.00016000199999848192]"
8708000000,,71,,8,708000000,turtlebot2/odom,turtlebot2/base_footprint_distributed,,,,5.43164623427e-06,-3.38604827248e-14,-1.0177700692e-18,,-1.00953181141e-18,2.32259541754e-20,6.37174276056e-14,1.0,"[0.06464771610570641, 4.084664108355445e-18, -1.9538210801416492e-28, -6.865768825466801e-32, -5.725730258726433e-33, -3.199240264665178e-27, 4.084664108355445e-18, 0.06459947925167908, 7.381053836374829e-30, 3.7820907698796234e-31, -1.3323968983400404e-32, -7.397521619965319e-27, -1.9538210801416492e-28, 7.381053836374829e-30, 0.00042199931558908367, 2.3927356148850053e-35, -1.4665331068299857e-36, -1.8499723824995008e-31, -6.865768825466801e-32, 3.7820907698805203e-31, 2.392735616006044e-35, 0.00021199863221600624, -8.71408081972096e-36, -5.209939626388923e-29, -5.725730258726433e-33, -1.3323968983403206e-32, -1.4665331054286872e-36, -8.71408081972096e-36, 0.00021199863221600624, -2.781190950982365e-29, -3.199240264665178e-27, -7.397521619965319e-27, -1.8499723825003976e-31, -5.209939626388923e-29, -2.781190950982365e-29, 0.07749860251632312]",,,,1.02298454465e-05,1.88235170288e-21,-1.61194595643e-20,,2.45501083055e-18,-8.98255456963e-19,2.42395296578e-21,"[0.0029436930458787707, -3.861481438605647e-30, 4.296921079309305e-30, -6.216094319377948e-32, -1.0739896987212689e-32, -2.2063723546328843e-35, -3.861481438605647e-30, 0.00017500199999890588, -7.702845159242409e-35, 5.069875423151759e-38, -7.838468443266087e-39, 4.0267712670837943e-41, 4.296921079309305e-30, -7.702845159242409e-35, 0.0002819989737395654, 4.3197702592259056e-36, -4.613187548068058e-36, 9.516266916676084e-40, -6.216094319377948e-32, 5.069875423151759e-38, 4.3197702602768795e-36, 7.19959089463812e-05, -1.845314417364132e-35, 1.0442865667795913e-34, -1.0739896987211988e-32, -7.838468443266087e-39, -4.6131875466667594e-36, -1.8453266956814062e-35, 7.199590894638131e-05, 2.137425599712277e-34, -2.206372354913144e-35, 4.0267712670837943e-41, 9.516263413429923e-40, 1.0442865667795913e-34, 2.1374257145066472e-34, 0.0001400019999985582]"
8807000000,,72,,8,807000000,turtlebot2/odom,turtlebot2/base_footprint_distributed,,,,1.72116201011e-05,-1.82988539198e-14,-3.20912087888e-21,,-9.11960159445e-20,1.31833504771e-19,9.33806149325e-14,1.0,"[0.06975501783347446, 4.992236034584511e-18, -8.568036785586372e-27, -6.203188865335224e-33, -6.432232878098675e-34, -2.0662318077505536e-27, 4.992236034584511e-18, 0.06970041202307584, 1.194943651587592e-28, -1.5211922689128435e-31, 1.620409371231953e-31, -6.3421679810493965e-27, -8.568036785583433e-27, 1.1949436516142242e-28, 0.001981999275944283, -2.2294749240176597e-37, 3.778747769264114e-37, -6.877165399372176e-32, -6.203188865336625e-33, -1.521192268913292e-31, -2.2294749240176597e-37, 0.0009919985530458825, -7.559352936871591e-37, -6.685319657714006e-30, -6.432232878098675e-34, 1.6204093712317287e-31, 3.778747767512491e-37, -7.441803501789362e-37, 0.0009919985530458825, 3.612333751297776e-30, -2.0662318077505536e-27, -6.3421679810493965e-27, -6.877165399369934e-32, -6.685319659183374e-30, 3.612333752767144e-30, 0.08361920768279482]",,,,9.21065614415e-05,3.40033447937e-22,-1.47381748173e-18,,-2.99809749275e-18,1.82758056206e-19,7.50380207155e-22,"[0.0030629298889733986, 1.927766503376921e-28, 5.180873405458318e-27, 1.2397844353515913e-30, 1.5661128409324393e-32, -6.028140018785453e-34, 1.92776650361202e-28, 0.0008250019999984956, 3.667641462196032e-33, -1.199384930694484e-39, 1.213465790732098e-39, 1.0337378771324176e-41, 5.1808734054598204e-27, 3.667641463630962e-33, 0.0013219989135632932, -5.2348938139353985e-37, -1.4279601695035829e-35, -2.440948699937914e-38, 1.2397844353515913e-30, -1.19938484311333e-39, -5.234893813059587e-37, 0.0003319956712523811, 7.507017051249397e-36, -7.009530119347745e-33, 1.5661128409323693e-32, 1.213465703150944e-39, -1.4279601695035829e-35, 7.523293431389102e-36, 0.00033199567125238123, -7.41388110720595e-33, -6.028140018785453e-34, 1.0337378771324176e-41, -2.440948699937914e-38, -7.009530120020368e-33, -7.413881105771021e-33, 0.0006600019999980157]"
8907000000,,73,,8,907000000,turtlebot2/odom,turtlebot2/base_footprint_distributed,,,,7.44367841708e-06,1.22005374238e-14,-1.46793541926e-19,,-1.63219431063e-18,3.50279101783e-19,1.07097168064e-13,1.0,"[0.07310770134260464, 4.575397622193072e-18, 1.4654341664899124e-27, 5.604779783231102e-32, 1.0131655221489024e-34, -3.551711438022679e-28, 4.575397622193072e-18, 0.07305537332779109, 4.7828836972491206e-27, -1.072586219022494e-30, 7.693614574959016e-32, -9.446960474751518e-27, 1.4654341664957899e-27, 4.7828836972491206e-27, 0.0016819987197720957, 7.117101065156679e-36, -1.5820292416932147e-37, 2.621170895684418e-32, 5.604779783231102e-32, -1.0725862190225838e-30, 7.117101063755381e-36, 0.0008419974431776755, -3.6713994654041727e-36, -8.313983557607663e-27, 1.0131655221497782e-34, 7.693614574959016e-32, -1.582029241255309e-37, -3.65964452189595e-36, 0.0008419974431776757, -7.082527712785381e-27, -3.551711438022679e-28, -9.446960474751518e-27, 2.6211708956838576e-32, -8.313983557608397e-27, -7.082527712784646e-27, 0.08764278196232003]",,,,-9.07324708986e-05,5.44749846536e-16,-2.29179322039e-18,,1.95963836665e-18,-2.85725270722e-18,4.91167291336e-15,"[0.0010448547402596995, 9.582918822882904e-24, -4.574341632931807e-28, 5.767376889681783e-33, -3.938587479200853e-33, 2.6796529386809424e-30, 9.582918822882904e-24, 0.002550289254824326, -2.7645564605489657e-27, -3.647824159488399e-33, 1.2396407632489718e-32, -2.3999811488378817e-29, -4.574341632932162e-28, -2.7645564605490073e-27, 0.0011219980800199953, -5.313996207638311e-35, 7.223461450376286e-35, -1.1279369733666956e-31, 5.767376889681783e-33, -3.647824159488399e-33, -5.31399620791857e-35, 0.00028199237072119854, -7.408911767411431e-35, 5.0560880019018924e-27, -3.938587479202254e-33, 1.2396407632489718e-32, 7.223461450096026e-35, -7.40753848349581e-35, 0.00028199237072119854, 4.307375550144032e-27, 2.6796529386809424e-30, -2.3999811488378817e-29, -1.1279369733666956e-31, 5.0560880019018164e-27, 4.307375550143923e-27, 0.002000001999998019]"
9007000000,,74,,9,7000000,turtlebot2/odom,turtlebot2/base_footprint_distributed,,,,1.11737314428e-05,-3.49412434485e-15,-4.34023418663e-19,,1.32427321723e-18,-2.66413425196e-18,8.96363317135e-14,1.0,"[0.07811519450315728, 4.252633715099467e-18, 2.043317800917812e-27, 8.529771584575891e-32, -5.206904521525682e-31, 4.560040815925897e-27, 4.252633715099467e-18, 0.07806391522063072, 4.962496082586037e-28, -4.149112563282655e-31, 1.140355960599788e-30, -8.420493491041587e-27, 2.043317800917812e-27, 4.96249608258575e-28, 0.0012619929133884638, -2.0037764199694458e-35, 5.908995561562615e-35, 1.3597050214369258e-31, 8.529771584575961e-32, -4.149112563282655e-31, -2.003776419978204e-35, 0.00063198593748118, -1.6750675113072592e-34, -7.343234903829473e-28, -5.206904521525682e-31, 1.140355960599788e-30, 5.908995561597647e-35, -1.6750968986660297e-34, 0.00063198593748118, -6.101906243037722e-28, 4.560040815925897e-27, -8.420493491041587e-27, 1.3597050214368136e-31, -7.3432349038294155e-28, -6.101906243037665e-28, 0.09364989726900672]",,,,0.000122265468741,-2.65450337777e-16,5.73842495364e-18,,1.4049790614e-17,-1.22269727818e-17,-7.59721075005e-16,"[0.0008630127369312164, 6.54353360815193e-25, -6.788541958589486e-28, -2.72817165676256e-31, 2.249695263972867e-31, 1.0459921482917309e-29, 6.54353360815193e-25, 0.000705277380997977, -3.9161362295170473e-28, -1.3911021905063187e-31, 9.186503156475938e-32, 1.6909539590705986e-30, -6.788541958589756e-28, -3.9161362295171656e-28, 0.0008419894086664451, 3.6851910937918707e-34, -9.126403383426964e-34, -3.9023124306061404e-32, -2.728171656762336e-31, -1.3911021905063117e-31, 3.685191093798877e-34, 0.00021195908347062717, -2.032694036130205e-33, 7.276895441871466e-28, 2.249695263972867e-31, 9.186503156475938e-32, -9.126403383440977e-34, -2.0326920242341516e-33, 0.00021195908347062712, 6.02854549174951e-28, 1.0459921482917309e-29, 1.6909539590705986e-30, -3.9023124306060703e-32, 7.2768954418714735e-28, 6.0285454917495055e-28, 0.0005600019999991365]"
9108000000,,75,,9,108000000,turtlebot2/odom,turtlebot2/base_footprint_distributed,,,,8.67510549583e-06,-5.60738737897e-14,-8.12828735601e-19,,2.41333240168e-19,-1.20494882124e-18,8.10784911197e-14,1.0,"[0.08457314450291555, 4.698772335177364e-18, 1.4577754471322017e-28, -6.488061348677549e-33, 2.221384639905735e-31, 8.724110205576594e-28, 4.698772335177364e-18, 0.08451858363496208, -9.622746137653348e-29, -1.2660465690548e-31, 4.6734764445659465e-31, -9.096258943146154e-27, 1.4577754471319721e-28, -9.622746137653348e-29, 0.0016219983364144214, -3.562693054601823e-36, 1.227029286962593e-35, -2.5093469826670714e-31, -6.488061348677199e-33, -1.266046569054912e-31, -3.5626930539011736e-36, 0.0008119966789657345, -3.764154464467446e-35, 2.220066125592167e-30, 2.221384639905735e-31, 4.673476444566395e-31, 1.227029287032658e-35, -3.764154464467446e-35, 0.0008119966789657343, 2.9227037224972443e-30, 8.724110205576594e-28, -9.096258943146154e-27, -2.5093469826670714e-31, 2.220066125592167e-30, 2.9227037210278764e-30, 0.10139351829724116]",,,,-9.06470415554e-05,-5.77558767667e-22,4.59057857206e-18,,-4.84897553302e-18,-2.01727996924e-18,-2.73592384004e-21,"[0.0017840419444925982, -2.132162127838296e-28, -8.960010915747243e-29, 7.14073101186356e-31, 6.552347850976651e-31, -5.45575047344232e-35, -2.1321621273680984e-28, 0.0006750019999991735, -2.7438762154025144e-33, -2.21302288043055e-38, -9.334629208431837e-39, 4.2890943396054e-41, -8.960010915747418e-29, -2.743876215940613e-33, 0.0010819975057152237, -2.6272215605763873e-34, -1.7760904798479446e-34, 1.2513343052697038e-38, 7.140731011863784e-31, -2.2130230205603966e-38, -2.6272215606324392e-34, 0.00027199010736700754, 4.540021563418949e-35, 2.3245974795234964e-34, 6.552347850976651e-31, -9.334629909081069e-39, -1.7760904797638666e-34, 4.5411255994128786e-35, 0.00027199010736700754, 5.507107262052033e-33, -5.45575047344232e-35, 4.2890943396054e-41, 1.251333744750318e-38, 2.3245974831108204e-34, 5.50710726312823e-33, 0.0005400019999988663]"
9207000000,,76,,9,208000000,turtlebot2/odom,turtlebot2/base_footprint_distributed,,,,9.46716296248e-06,-2.21878397954e-14,2.52872887236e-18,,-1.09363418174e-18,-1.38261882345e-18,6.93157717234e-14,1.0,"[0.08972951258390821, 5.510866102456131e-18, 5.10945174585394e-27, 3.863625044647258e-31, 3.6918223793669316e-31, 5.670538862290653e-27, 5.510866102456131e-18, 0.08967015920708402, -1.0744672901165902e-28, -1.7625922615006342e-31, -2.1858205679976243e-31, -9.622326314284664e-27, 5.1094517458524705e-27, -1.0744672901459776e-28, 0.001861998279158915, -6.570727118444225e-35, -7.348887695950102e-35, 2.0131538142038447e-31, 3.8636250446470336e-31, -1.7625922615006342e-31, -6.570727119004744e-35, 0.0009319965648819102, 1.3262969597737402e-34, 1.2455254714931296e-29, 3.691822379367156e-31, -2.1858205679976243e-31, -7.348887694829063e-35, 1.3262969597737402e-34, 0.0009319965648819102, 1.7157438593803168e-30, 5.670538862290653e-27, -9.622326314284664e-27, 2.013153814204069e-31, 1.2455254713461928e-29, 1.7157438608496847e-30, 0.10757498387214452]",,,,9.19178956368e-06,2.62778478423e-21,4.19311423103e-18,,-4.30899216848e-18,5.20868234903e-18,8.51936507036e-22,"[0.0018557900591063545, 1.682202871337725e-29, -3.057657275338129e-27, 5.052185395641726e-32, -1.2376683357438604e-32, 3.117168501821199e-35, 1.682202871337725e-29, 0.0007750019999988645, -3.8762239822235014e-33, -1.6102858752166774e-38, 2.2614463603585282e-38, -4.4168927595518234e-42, -3.0576572753377896e-27, -3.876223982940966e-33, 0.0012419974195527052, -1.8178861164041352e-34, 2.3564573650306773e-34, -7.48851433049885e-38, 5.052185395641586e-32, -1.6102858752166774e-38, -1.8178861164041352e-34, 0.00031198976922782075, -2.8652896231954253e-34, 8.513510343345367e-33, -1.2376683357438253e-32, 2.2614463603585282e-38, 2.356457365142781e-34, -2.86539011227012e-34, 0.00031198976922782075, 7.799138478092646e-33, 3.1171685012606796e-35, -4.4168927595518234e-42, -7.488513209460079e-38, 8.513510342627903e-33, 7.799138478092646e-33, 0.0006200019999984961]"
9307000000,,77,,9,307000000,turtlebot2/odom,turtlebot2/base_footprint_distributed,,,,1.08513817273e-05,-4.35717721048e-14,2.58208021751e-18,,9.98137939549e-19,-9.00922264568e-19,7.83198696949e-14,1.0,"[0.09418348011793905, 5.036670861821033e-18, -1.1356228528726088e-27, 1.5204083364433514e-31, -3.302195562642663e-32, 4.334196882665501e-27, 5.036670861821033e-18, 0.09412783246861504, 3.530695751415889e-27, 2.6712158173999057e-31, -1.3056026608670648e-31, -5.814282926989532e-27, -1.1356228528733435e-27, 3.530695751418093e-27, 0.0012019992759451951, 6.720878365978349e-35, -6.127928281473044e-35, 7.048858617002513e-31, 1.5204083364433514e-31, 2.6712158173999057e-31, 6.720878363736271e-35, 0.000601998553052869, -4.496431195788334e-35, 2.6799661883152536e-27, -3.302195562642663e-32, -1.3056026608670648e-31, -6.127928279230967e-35, -4.4961373222006285e-35, 0.000601998553052869, -5.1179073321418374e-27, 4.334196882665501e-27, -5.814282926989532e-27, 7.048858617002513e-31, 2.6799661883152536e-27, -5.1179073321418374e-27, 0.11292044693049721]",,,,1.57579750658e-05,6.54195310828e-15,-3.2120620889e-19,,-3.37038660974e-18,1.40878348933e-18,2.62220281517e-15,"[0.0025621586748159164, 3.0096779374671035e-23, 6.664337632450127e-28, 1.9671843417641672e-32, -1.5553235701072719e-32, -1.714798101143009e-29, 3.0096779374671035e-23, 0.0031019260240247215, -1.5999469344124704e-27, -6.178152999554384e-32, 2.619233205211956e-32, 1.9866218870960014e-29, 6.664337632450386e-28, -1.5999469344123498e-27, 0.0008019989140646295, 1.554983764165193e-35, -9.691956620909966e-38, -5.526102349694179e-33, 1.9671843417641672e-32, -6.178152999554664e-32, 1.554983764165193e-35, 0.00020199567244151562, -7.207658293632527e-35, -1.247905439434855e-27, -1.5553235701072719e-32, 2.619233205212096e-32, -9.691956655942427e-38, -7.208533099460822e-35, 0.00020199567244151562, 2.433100640195244e-27, -1.714798101143009e-29, 1.9866218870960014e-29, -5.526102349694179e-33, -1.2479054394347832e-27, 2.433100640195043e-27, 0.0024000019999985047]"
9407000000,,78,,9,407000000,turtlebot2/odom,turtlebot2/base_footprint_distributed,,,,1.29345232153e-05,-4.78399356242e-14,-1.82237557291e-18,,-5.3133114896e-19,-1.04874772533e-18,6.44136487471e-14,1.0,"[0.09927597057946558, 1.1381404977108681e-17, 6.047366873353488e-27, 1.6936184313041953e-31, 9.854826755598977e-32, 4.361157586900388e-27, 1.1381404977108681e-17, 0.09917564437466078, 2.951048532425321e-27, 5.189430078541175e-32, 1.6374824686336526e-31, -5.377687634544823e-27, 6.0473668733520186e-27, 2.9510485324256882e-27, 0.0024619991674375294, 1.298588506446328e-35, 4.7170751106528566e-35, 5.045576004159218e-32, 1.693618431303747e-31, 5.189430078541175e-32, 1.298588506446328e-35, 0.0012319983364115926, 4.124892328981949e-35, -1.5216984676143653e-27, 9.854826755596735e-32, 1.6374824686334284e-31, 4.7170751106528566e-35, 4.1260678233327713e-35, 0.0012319983364115915, -4.643655652235896e-27, 4.361157586900388e-27, -5.377687634544823e-27, 5.045576004159218e-32, -1.5216984676146408e-27, -4.643655652236631e-27, 0.11897960892842285]",,,,2.18382149443e-05,5.75359598636e-17,2.10436354843e-18,,-9.79176021355e-19,-1.33572097799e-18,-7.75144713958e-18,"[0.005320452617930781, -6.90550167887969e-24, -2.6933541338565615e-27, -2.0703406601342905e-32, -5.626935535776371e-32, 7.506115629705518e-30, -6.90550167887969e-24, 0.002547076958008827, -2.9282588071607582e-27, 1.1058870983910395e-32, 3.4521749835892556e-33, -3.855361064537564e-30, -2.69335413385684e-27, -2.9282588071608974e-27, 0.0016419987503349717, -2.450076652897011e-35, -1.8332788131814885e-35, -3.449528752414876e-33, -2.0703406601345708e-32, 1.1058870983911096e-32, -2.450076652897011e-35, 0.0004119950247198768, -8.853861648073016e-36, 1.5200416806769242e-27, -5.626935535776371e-32, 3.452174983589431e-33, -1.8332788131814885e-35, -8.871030961518211e-36, 0.0004119950247198768, 4.6381781770467774e-27, 7.506115629705518e-30, -3.855361064537564e-30, -3.4495287524134746e-33, 1.5200416806768707e-27, 4.6381781770464474e-27, 0.0020200019999987314]"
9507000000,,79,,9,507000000,turtlebot2/odom,turtlebot2/base_footprint_distributed,,,,1.65640847224e-05,1.41247873381e-14,-1.50395044885e-18,,8.12816252348e-19,-2.35918511862e-19,8.54674763121e-14,1.0,"[0.10451730026882854, 8.161653485507159e-18, 1.4715662188869583e-27, 5.673262408454681e-32, -2.806729213676081e-32, 4.578976526357434e-27, 8.161653485507159e-18, 0.10443976656308065, -1.8582111223990135e-30, 2.661809140538102e-31, -3.5142357544037917e-32, -2.6707657844728285e-27, 1.4715662188858563e-27, -1.858211122490849e-30, 0.00036199928628046375, -2.673875626987072e-35, 5.945262229790233e-36, -4.8322838977246575e-31, 5.673262408452439e-32, 2.6618091405376535e-31, -2.6738756292291493e-35, 0.00018199857369029758, 2.0193248072699898e-36, 3.76602359503908e-29, -2.8067292136755207e-32, -3.514235754403231e-32, 5.945262229790233e-36, 2.0196921492546217e-36, 0.00018199857369029758, 4.241215938626838e-30, 4.578976526357434e-27, -2.6707657844728285e-27, -4.832283897726451e-31, 3.76602359503908e-29, 4.241215938718673e-30, 0.12529099746443237]",,,,3.13279923205e-05,2.74048884714e-21,-1.11883853103e-18,,-5.16258124365e-19,-4.00389542603e-18,4.08628747272e-22,"[0.0032481656607688636, -6.561185451371735e-29, -1.6874068350094524e-28, -5.6446431245790436e-33, -1.894172655504501e-31, -9.991479132934143e-35, -6.561185449020746e-29, 0.00015000199999943772, -6.122199719541023e-36, -1.3529333484778782e-39, -4.847061260182559e-39, 6.423552160464961e-42, -1.687406835009682e-28, -6.122199719541023e-36, 0.0002419989298188081, 1.0825520124147356e-37, 7.416774858420338e-35, -1.300162550259102e-39, -5.644643124578693e-33, -1.3529333484778782e-39, 1.082552012524212e-37, 6.199573448483202e-05, 8.241857203424771e-35, 1.0029294842341718e-34, -1.894172655504501e-31, -4.847061260182559e-39, 7.416774858420338e-35, 8.241833217959477e-35, 6.199573448483202e-05, 5.410162527122617e-36, -9.99147913517622e-35, 6.423552160464961e-42, -1.3001618496098699e-39, 1.002929599028542e-34, 5.410163962052244e-36, 0.00012000199999925593]"
9608000000,,80,,9,608000000,turtlebot2/odom,turtlebot2/base_footprint_distributed,,,,1.13977006357e-05,1.37145334253e-15,1.45418097856e-18,,8.0340601711e-19,6.39150218128e-19,9.68075585071e-14,1.0,"[0.10972147987173006, 8.673329627262591e-18, -1.2847687310093584e-27, 2.58337293371954e-31, 3.5497679159943923e-31, 5.524294097334728e-29, 8.673329627262591e-18, 0.1096430087847721, -4.821646194625497e-30, -5.435696490628353e-32, 2.3771055880309378e-32, -3.938896552166222e-27, -1.2847687310097258e-27, -4.821646194258155e-30, 0.0005419992963248479, 4.833320689081815e-35, 3.0138375153682516e-35, -3.6687760886560336e-31, 2.5833729337190915e-31, -5.435696490629474e-32, 4.833320689081815e-35, 0.0002719985937473285, 5.034137209342988e-35, 2.4860737232501172e-29, 3.5497679159948407e-31, 2.377105588031218e-32, 3.0138375164892904e-35, 5.034357614533768e-35, 0.0002719985937473285, 2.2182094765848536e-29, 5.524294097334728e-29, -3.938896552166222e-27, -3.66877608865424e-31, 2.4860737232501172e-29, 2.2182094765481194e-29, 0.13153347620422567]",,,,-2.39645670181e-05,1.96735740377e-22,-9.70066481806e-19,,3.15929491851e-19,-2.93086230936e-18,-2.01067013382e-21,"[0.003054123780330264, 1.1858383320042975e-28, 3.1487349818935288e-28, 3.426926282567026e-32, -2.543048087650192e-31, -9.708979490257848e-35, 1.1858383320042975e-28, 0.0002250019999988427, 1.5514594015575622e-34, 3.4485585176658012e-40, 3.417280703921108e-38, 5.196014705716422e-41, 3.148734981893299e-28, 1.5514594015575622e-34, 0.00036199894484224447, -1.936728463550213e-36, 3.379971910589627e-35, 3.2983639939012684e-38, 3.426926282567026e-32, 3.4485585176658012e-40, -1.936728463550213e-36, 9.199579420711293e-05, -3.9275924107973806e-35, -3.923974802679051e-34, -2.543048087650304e-31, 3.417280703921108e-38, 3.3799719108698866e-35, -3.927619819774953e-35, 9.199579420711293e-05, -3.601157192060625e-34, -9.70897948913681e-35, 5.196014705716422e-41, 3.298362872862497e-38, -3.923974802679051e-34, -3.6011571346634397e-34, 0.00018000199999848587]"
9708000000,,81,,9,708000000,turtlebot2/odom,turtlebot2/base_footprint_distributed,,,,2.06210440942e-05,-2.74431913136e-14,-4.4862755945e-18,,-1.61565248422e-18,1.2780863869e-18,1.25744423711e-13,1.0,"[0.11477687857733132, 9.839043549520415e-18, 8.997237394545734e-26, -3.231953530231535e-31, 3.98213799581869e-31, 2.909254902690294e-27, 9.839043549520415e-18, 0.11469291787686062, 4.606120015657958e-31, 1.4162029379330309e-31, -6.940100869357557e-32, -6.3043179556951126e-27, 8.997237394545734e-26, 4.60612002621904e-31, 0.004801997625335649, 2.7164229483457552e-34, -1.0534303991688083e-34, -1.7049314144980764e-30, -3.2319535302313107e-31, 1.4162029379330309e-31, 2.7164229481215475e-34, 0.002401995263140588, -9.260043988120025e-35, 2.488729326068085e-28, 3.982137995818465e-31, -6.940100869357557e-32, -1.0534303991127564e-34, -9.250640033313446e-35, 0.002401995263140588, -2.6905933312736785e-29, 2.909254902690294e-27, -6.3043179556951126e-27, -1.7049314144980764e-30, 2.488729326156247e-28, -2.690593331347147e-29, 0.13759353178740638]",,,,6.41681580952e-05,8.92007479661e-21,-9.67604618036e-19,,-4.93213377608e-18,-1.72249825668e-18,2.76346504224e-21,"[0.002984770054011838, -1.6832192960297526e-29, -7.772891207382066e-26, 7.508696941041262e-31, 4.155660365372173e-31, -1.044822781988704e-34, -1.6832192958828158e-29, 0.0020000019999966497, 1.1905596503631359e-32, -4.901952643367398e-38, -4.058680978854744e-39, 4.870633202300199e-41, -7.772891207382377e-26, 1.1905596503182943e-32, 0.0032019964275396065, 1.2376433361969476e-34, 2.3685764762847345e-35, -1.096868299735639e-38, 7.508696941041262e-31, -4.901952643367398e-38, 1.2376433361969476e-34, 0.0008019859054763556, 1.3486326044242218e-34, 2.4911659776598166e-31, 4.155660365372173e-31, -4.0586810007500324e-39, 2.3685764763022507e-35, 1.3483319166794153e-34, 0.0008019859054763554, -2.5232074110827266e-32, -1.044822782044756e-34, 4.870773332146632e-41, -1.0968682647031774e-38, 2.4911659777243884e-31, -2.5232074111186e-32, 0.0016000019999950015]"
9807000000,,82,,9,807000000,turtlebot2/odom,turtlebot2/base_footprint_distributed,,,,2.50930523824e-05,-2.08985015378e-14,2.47877908732e-18,,-1.40123833669e-18,1.23114886323e-18,1.23152891871e-13,1.0,"[0.11978507681070219, 1.0997445117484667e-17, -8.872219135458322e-27, 3.0361618027769714e-32, -2.9338009749163106e-32, 4.290119010647547e-27, 1.0997445117484667e-17, 0.11969577745024988, -8.959154954121747e-29, -6.222992006811679e-31, 5.877007054870325e-31, -2.7692432111956778e-27, -8.872219135458322e-27, -8.959154953534e-29, 0.0019219981519509653, -8.447574751892716e-35, 5.635431120964539e-35, 4.9343549038070004e-31, 3.0361618027769714e-32, -6.222992006811231e-31, -8.447574752453235e-35, 0.0009619963114711646, -6.651415402747323e-35, -1.6348148710545762e-29, -2.9338009749160304e-32, 5.877007054870325e-31, 5.635431120964539e-35, -6.651415402747323e-35, 0.0009619963114711646, -1.3146526599303292e-29, 4.290119010647547e-27, -2.7692432111956778e-27, 4.934354903807449e-31, -1.6348148710545762e-29, -1.3146526599303292e-29, 0.14359573566282238]",,,,4.93083876598e-05,3.50624709735e-22,-1.4877099931e-18,,-9.19448603534e-18,8.41912523083e-18,9.28573830035e-22,"[0.0020036561826832547, 2.5534421273197475e-28, 4.577977289545363e-27, -7.335469532911778e-31, 6.087034457700169e-31, 2.720929921166853e-35, 2.5534421273197475e-28, 0.0008000019999992174, 7.83583484768544e-33, 1.5915580257084233e-37, -1.69454079509818e-37, -9.248569864543793e-42, 4.577977289545193e-27, 7.835834847506073e-33, 0.0012819972288805582, 2.0717627910779053e-34, -1.1268345316367834e-34, -6.543367383060126e-39, -7.33546953291189e-31, 1.5915580257084233e-37, 2.0717627910498794e-34, 0.00032198902037475365, -8.790402986641739e-34, -1.1479914918756541e-32, 6.087034457700281e-31, -1.694540907202057e-37, -1.1268345316227704e-34, -8.790131700836213e-34, 0.00032198902037475365, -1.5676656484422544e-32, 2.720929921166853e-35, -9.248569864543793e-42, -6.543367383060126e-39, -1.1479914918756541e-32, -1.5676656485857473e-32, 0.0006400019999989867]"
9907000000,,83,,9,907000000,turtlebot2/odom,turtlebot2/base_footprint_distributed,,,,2.96531478352e-05,-2.66903751047e-14,-3.40832191769e-18,,-1.98654055169e-19,2.43408302052e-18,1.27412504005e-13,1.0,"[0.12426397884977712, 1.6554673015275853e-17, -5.802622420491051e-26, 1.8741248538721358e-32, -1.491633987439544e-31, 4.2046014008500975e-27, 1.6554673015275853e-17, 0.12415203026660966, -1.8612319766304607e-26, 5.142811735192619e-32, -2.082658068601681e-31, -4.812541577189223e-27, -5.802622420491051e-26, -1.8612319766306077e-26, 0.005341998440215119, 2.9922889296832466e-35, -1.8964532094553775e-34, -4.776782256376746e-31, 1.874124853872276e-32, 5.142811735192339e-32, 2.992288929402987e-35, 0.002671996885835626, -9.333868251797925e-35, 2.5849960696079023e-26, -1.4916339874393199e-31, -2.082658068601457e-31, -1.8964532092311697e-34, -9.352676161411082e-35, 0.002671996885835626, 2.942189283701891e-26, 4.2046014008500975e-27, -4.812541577189223e-27, -4.776782256376746e-31, 2.584996069608049e-26, 2.942189283701891e-26, 0.14894080514580457]",,,,5.28489358732e-05,1.76315014338e-15,1.78099607818e-18,,3.21090805007e-18,6.10205917233e-19,-3.51231826843e-16,"[0.00447820761479972, -3.796142166584151e-23, 4.35816058342676e-26, -2.660313988830416e-31, -1.2414816552091813e-31, 3.1198505947908413e-29, -3.796142166584151e-23, 0.003130590007106349, 1.9659976781377276e-26, -3.338693856116613e-32, -1.1386559782097756e-32, 3.575758709150497e-30, 4.3581605834267534e-26, 1.9659976781377818e-26, 0.0035619976500226745, 6.682474667583797e-36, 2.367142715567896e-35, -8.326348217562178e-33, -2.660313988830472e-31, -3.338693856116613e-32, 6.682474667583797e-36, 0.0008919906968799182, 7.383376934644664e-35, -2.57904318003532e-26, -1.2414816552091813e-31, -1.1386559782098107e-32, 2.3671427154978312e-35, 7.377542522602833e-35, 0.0008919906968799182, -2.9353492955717826e-26, 3.1198505947908413e-29, 3.575758709150497e-30, -8.326348217563579e-33, -2.5790431800352983e-26, -2.935349295571769e-26, 0.002420001999998995]"
10007000000,,84,,10,7000000,turtlebot2/odom,turtlebot2/base_footprint_distributed,,,,2.49544169831e-05,-4.35902279986e-14,2.32585029173e-18,,9.81981501178e-19,4.49716185868e-19,1.2510020937e-13,1.0,"[0.1295181717495019, 1.7468839172050396e-17, -1.0505071825555531e-26, 3.7956206356923533e-31, 1.9099780169781715e-31, 4.9867386462338174e-27, 1.7468839172050396e-17, 0.1294035662667608, -2.0428207268981735e-27, -2.331861108388718e-31, -1.1822482180999457e-31, -5.1340181450524686e-27, -1.0505071825554061e-26, -2.042820726898541e-27, 0.0027619983364151873, 5.319510430320345e-35, 3.371507476517153e-35, 3.141516852272097e-31, 3.7956206356925775e-31, -2.331861108388606e-31, 5.319510430880864e-35, 0.0013819966789649792, 2.4869224551139316e-35, 3.3984911489719395e-27, 1.9099780169782836e-31, -1.182248218100114e-31, 3.3715074759566337e-35, 2.484571466412287e-35, 0.0013819966789649796, 3.302914128253345e-27, 4.9867386462338174e-27, -5.1340181450524686e-27, 3.141516852272097e-31, 3.398491148971848e-27, 3.302914128253161e-27, 0.1552420254721468]",,,,-1.05303936984e-05,2.91005817778e-15,-2.89392250934e-18,,-6.24899269615e-18,-7.75862554946e-18,6.99371889757e-16,"[0.0032590090247559818, -2.1727466787278513e-23, 5.859214004315349e-27, -2.22975425945974e-31, -2.8261398293830968e-31, 2.1329053345609583e-29, -2.1727466787278513e-23, 0.001929176138932942, 2.1111300723641693e-27, -7.154762802676457e-32, -8.26842183062898e-32, -2.0096191763023636e-32, 5.859214004315602e-27, 2.111130072364164e-27, 0.0018419975034135825, 1.137492856899975e-34, 3.3794166330130366e-34, -1.89726741691617e-32, -2.229754259459796e-31, -7.154762802676457e-32, 1.137492856928001e-34, 0.00046199010260278257, 6.958118251479959e-34, -3.389742414530439e-27, -2.8261398293830407e-31, -8.26842183062912e-32, 3.3794166330130366e-34, 6.958181816592353e-34, 0.00046199010260278257, -3.294767484010764e-27, 2.1329053345609583e-29, -2.0096191763023636e-32, -1.89726741691631e-32, -3.389742414530535e-27, -3.294767484010845e-27, 0.0015200019999990098]"
10107000000,,85,,10,107000000,turtlebot2/odom,turtlebot2/base_footprint_distributed,,,,2.63021806049e-05,-3.36112209557e-14,-3.50057144182e-18,,-1.15103054031e-18,2.95473464396e-19,1.48748917806e-13,1.0,"[0.13472129900108934, 1.832330430443091e-17, 3.778211972034129e-26, -1.9524541624223174e-32, -1.1085307055658015e-32, 4.6542173550714716e-27, 1.832330430443091e-17, 0.13460458284368335, 4.0144081062313325e-29, 6.262634254952259e-31, -1.309851135426336e-31, 1.679052778543598e-28, 3.7782119720335413e-26, 4.014408106176231e-29, 0.0047419980044443345, 6.441155004686323e-35, -5.341435466990519e-35, -2.016192492316694e-31, -1.9524541624224576e-32, 6.262634254952708e-31, 6.441155004125803e-35, 0.002371996017732231, -1.26747190506945e-34, 8.870160314540449e-29, -1.1085307055658716e-32, -1.3098511354263922e-31, -5.34143546643e-35, -1.26747190506945e-34, 0.002371996017732231, -2.2238415682462334e-31, 4.6542173550714716e-27, 1.679052778543598e-28, -2.016192492316918e-31, 8.870160314540449e-29, -2.2238415682462334e-31, 0.16148222511733462]",,,,5.91396994216e-06,2.9021677356e-21,2.77885412331e-18,,-1.08942822371e-18,-7.05465262573e-18,-1.51308521382e-21,"[0.003065426076968099, 4.176564481491942e-28, -3.040641927053947e-26, 1.4489150552454522e-32, 1.15641754861996e-31, -1.3678810546882502e-35, 4.176564481491942e-28, 0.00197500199999896, -1.1306592560710197e-33, 1.6618654996758542e-38, 2.1671760380538494e-38, -3.5895661462144514e-41, -3.0406419270539985e-26, -1.1306592557122873e-33, 0.0031619969975659173, -4.4059131269483966e-35, -2.6493214211129972e-34, 5.314141924181461e-38, 1.4489150552454522e-32, 1.6618654996758542e-38, -4.4059131269483966e-35, 0.0007919881330201802, 9.92821675923304e-35, 8.76849719501231e-32, 1.15641754861996e-31, 2.1671760380538494e-38, -2.6493214211129972e-34, 9.924566444451223e-35, 0.0007919881330201802, 2.336443540704331e-33, -1.3678810546882502e-35, -3.5895661462144514e-41, 5.314141924181461e-38, 8.768497195084056e-32, 2.3364435403455987e-33, 0.0015800019999985273]"
10207000000,,86,,10,207000000,turtlebot2/odom,turtlebot2/base_footprint_distributed,,,,3.11209597128e-05,6.71675496789e-15,-1.89344370904e-18,,-2.20066497861e-18,6.23561543951e-19,1.71442604871e-13,1.0,"[0.13677014484305117, 1.7101189557551043e-17, -2.0788823689525312e-27, 4.378260256855153e-31, -7.826581631900195e-32, 9.739949139276736e-27, 1.7101189557551043e-17, 0.13665795268059694, 3.3606372822106064e-27, -1.137262654656225e-30, 3.7942601448089815e-31, -9.005758479905702e-28, -2.078882368952164e-27, 3.3606372822106064e-27, 0.0012019976253297667, 6.671534957430615e-35, -3.246880818853573e-35, 1.0835926246841162e-31, 4.3782602568549285e-31, -1.137262654656225e-30, 6.671534957710875e-35, 0.000601995263153708, -1.0363849258957876e-34, 8.862299926238294e-27, -7.826581631899915e-32, 3.7942601448089815e-31, -3.246880818853573e-35, -1.0362673764607053e-34, 0.000601995263153708, -5.5261735277471276e-27, 9.739949139276736e-27, -9.005758479905702e-28, 1.083592624684004e-31, 8.862299926238661e-27, -5.52617352774676e-27, 0.16394504911897853]",,,,6.97443193429e-05,-3.85213629825e-15,-3.25182194475e-18,,5.22954177745e-18,-2.0713012789e-18,4.59631409022e-15,"[0.0013761670254426666, 9.867327772042511e-23, 1.0548522922228665e-27, -5.145457515141943e-31, 2.8597412115501094e-31, -2.1904457823077693e-28, 9.867327772042511e-23, 0.0030230860619677394, -1.9032183121763756e-27, -1.0422916677070681e-31, 5.831304814232996e-32, -5.701174880000816e-29, 1.0548522922229474e-27, -1.9032183121762432e-27, 0.0008019964417396587, -2.0727030648838175e-34, 5.5812897598715e-35, -9.431467183141861e-32, -5.145457515142167e-31, -1.0422916677070821e-31, -2.0727030648838175e-34, 0.00020198593541398866, -2.1444208477207507e-34, -4.814991364535306e-27, 2.8597412115500534e-31, 5.831304814233066e-32, 5.581289759941565e-35, -2.1444051351502455e-34, 0.0002019859354139887, 2.9883655938037412e-27, -2.1904457823077693e-28, -5.701174880000816e-29, -9.43146718314074e-32, -4.814991364535378e-27, 2.988365593803694e-27, 0.002400001999998534]"
10307000000,,87,,10,307000000,turtlebot2/odom,turtlebot2/base_footprint_distributed,,,,0.00922321151701,6.58193806193e-14,-4.90274361875e-18,,-1.75895657366e-18,1.6339190725e-18,1.87050451121e-13,1.0,"[0.1419260548041521, 1.5437878530887293e-17, -1.6198574299909736e-28, -7.615388370316929e-29, 8.788285554321068e-29, -1.880257230878174e-25, 1.5437878530887293e-17, 0.14182336018657363, -7.789406940871087e-30, -9.18645950467917e-31, 1.0832259280933207e-30, -6.506917142519762e-27, -1.6198574299908588e-28, -7.789406940871087e-30, 0.0003019970684025948, 1.757695907515356e-34, -1.233885797735048e-34, 1.0042619162960366e-30, -7.615388370316929e-29, -9.186459504678721e-31, 1.757695907515356e-34, 0.00015199415583298792, -1.3343465707128324e-34, 2.225701499463363e-31, 8.788285554321068e-29, 1.0832259280933207e-30, -1.233885797735048e-34, -1.3343465707128324e-34, 0.00015199415583298792, 5.752673045000346e-30, -1.880257230878174e-25, -6.506917142519762e-27, 1.0042619162959469e-30, 2.2257014996929517e-31, 5.752673044633004e-30, 0.17013702895692534]",,,,0.0714071748093,3.24566839179e-22,-8.05612918202e-19,,1.64004444086e-18,7.22653011763e-18,-2.01921826353e-22,"[0.0029343538348327166, -2.458962153042768e-26, 5.798884974266597e-29, -8.807976365797921e-29, -5.038420667174382e-28, -8.759735181301087e-32, -2.458962153042768e-26, 0.00012500199999949686, 1.1779738661706644e-34, -3.1793011284515995e-38, -9.19999749665398e-38, -2.6770405862461305e-41, 5.798884974266597e-29, 1.1779738625833404e-34, 0.00020199560967843952, -2.2249933144605456e-35, -6.716319138779555e-35, 1.3234342641807604e-39, -8.807976365797921e-29, -3.1793011284515995e-38, -2.2249933144430294e-35, 5.1982691859732134e-05, 2.772409200303538e-34, -1.142474362322149e-35, -5.038420667174382e-28, -9.19999749665398e-38, -6.716319138779555e-35, 2.772408181027061e-34, 5.198269185973211e-05, -2.4898875219496514e-34, -8.759735183596975e-32, -2.68152474133197e-41, 1.3234344393430684e-39, -1.142474362322149e-35, -2.4898875291242995e-34, 0.00010000199999932874]"
10407000000,,88,,10,407000000,turtlebot2/odom,turtlebot2/base_footprint_distributed,,,,-0.0236231079361,1.10139304785e-13,-7.33580878474e-19,,3.2587040899e-19,2.6071201129e-18,2.11523749327e-13,1.0,"[0.14845427124621036, 3.1067143440142864e-17, 7.217869996474592e-27, 3.3032027863965214e-29, -4.3178814840070454e-29, 5.956116405510831e-25, 3.1067143440142864e-17, 0.1483238390381053, -8.367518409466345e-28, 5.265539970345063e-32, 7.762250218995739e-31, -5.871564639242519e-27, 7.217869996477531e-27, -8.367518409465657e-28, 0.0014419937931097401, -2.4123430250702816e-36, -8.457373231491926e-35, 6.532756639344515e-32, 3.3032027863965035e-29, 5.265539970345063e-32, -2.4123430250702816e-36, 0.0007219876712428143, 8.367554641729869e-35, -9.228816894264285e-28, -4.3178814840070454e-29, 7.762250218995739e-31, -8.457373231491926e-35, 8.368730136080691e-35, 0.0007219876712428143, 1.5095495572120595e-27, 5.956116405510831e-25, -5.871564639242519e-27, 6.532756639344515e-32, -9.2288168942644e-28, 1.5095495572120595e-27, 0.17793803494625737]",,,,-0.377244858639,1.11267581947e-15,4.15245765975e-18,,-9.43232856936e-18,-4.52628221296e-18,-1.49341868563e-15,"[0.0014028820329814147, 2.215301293117621e-22, -1.8221083824940632e-27, 8.861190798693831e-29, 3.5420567206947603e-29, 1.2343875457570222e-26, 2.215301293117621e-22, 0.0008084118708714647, 9.750464793321136e-28, -6.132798477593319e-33, -1.1050065293537855e-33, 1.7822615712652652e-30, -1.8221083824940517e-27, 9.750464793320897e-28, 0.0009619907181135625, -4.846287519159439e-34, -2.108886470741766e-34, -4.774421495331905e-32, 8.861190798694979e-29, -6.1327984775933625e-33, -4.846287519152433e-34, 0.0002419639923870138, -1.4797650209887117e-37, 9.146533582945145e-28, 3.542056720695047e-29, -1.105006529353791e-33, -2.1088864707382625e-34, -1.7431912515491578e-37, 0.0002419639923870138, -1.4964754999326572e-27, 1.2343875457570233e-26, 1.7822615712652652e-30, -4.774421495332045e-32, 9.14653358294506e-28, -1.4964754999326564e-27, 0.0006400019999985439]"
10508000000,,89,,10,508000000,turtlebot2/odom,turtlebot2/base_footprint_distributed,,,,-0.0620054931773,8.83596021135e-14,-5.01856195918e-19,,5.89734921459e-19,-9.54878866787e-19,2.07545081323e-13,1.0,"[0.1543947800830745, 4.2549752651712913e-17, 3.87033962270221e-27, -2.209484086397809e-28, 3.198780235829008e-28, 9.272059156535185e-25, 4.2549752651712913e-17, 0.1542273362604936, -4.050557298034321e-27, -7.18368548678165e-32, 9.246107589890584e-32, -4.9821658403505386e-27, 3.8703396227036795e-27, -4.050557298038729e-27, 0.0024619993511174635, -1.0307957417052874e-35, 1.1780482088657287e-35, 1.0973619679723724e-31, -2.209484086397809e-28, -7.183685486780529e-32, -1.030795741144768e-35, 0.0012319987031689421, -5.766819164790674e-35, -1.4593193963054028e-27, 3.1987802358285486e-28, 9.246107589890584e-32, 1.1780482105472869e-35, -5.766819164790674e-35, 0.0012319987031689421, 6.602101644630538e-27, 9.272059156535185e-25, -4.9821658403505386e-27, 1.0973619679723724e-31, -1.4593193963055865e-27, 6.602101644632007e-27, 0.185020600676199]",,,,-0.342598870158,-2.96477116878e-15,-2.25911094965e-19,,-3.79165850236e-18,-5.50623396475e-19,6.80580347353e-16,"[0.0046478720079465505, 1.4654479920561016e-21, -1.6814634855871324e-27, 2.879528404530795e-27, 9.710663617680212e-29, -6.014737286338857e-25, 1.4654479920561016e-21, 0.002972299945523854, 4.1553720586028395e-27, 1.4939785429125578e-31, 2.1647497260183858e-32, -1.9484179704865002e-29, -1.681463485587402e-27, 4.155372058603516e-27, 0.0016419990259368728, 2.6837905997506083e-35, 1.3643269028925078e-36, -5.540725737984567e-34, 2.8795284045306113e-27, 1.4939785429125578e-31, 2.6837905997506083e-35, 0.0004119961184558807, 8.946036848090736e-35, 1.4577409988807995e-27, 9.710663617679064e-29, 2.1647497260183858e-32, 1.3643269027173455e-36, 8.942225263859209e-35, 0.0004119961184558808, -6.595613380519362e-27, -6.014737286338857e-25, -1.9484179704865002e-29, -5.540725737986319e-34, 1.4577409988807215e-27, -6.595613380519222e-27, 0.0023600019999952837]"
10607000000,,90,,10,607000000,turtlebot2/odom,turtlebot2/base_footprint_distributed,,,,0.159283061218,2.11312625834e-13,3.22612485546e-19,,-6.52176510737e-19,-1.0282037153e-18,1.83990079664e-13,1.0,"[0.15995239695410343, 4.954262645555821e-17, -1.7137267015270876e-27, 1.5421626032077358e-28, 4.545229049391326e-28, 4.705723219883602e-24, 4.954262645555821e-17, 0.15979438217604852, 1.612090479338456e-30, -2.383045672628536e-31, -4.317649535387914e-31, -1.0542221263180117e-26, -1.713726701528557e-27, 1.6120904808078238e-30, 0.0005419993155891265, 2.091106805954297e-36, 4.385798053127139e-36, -1.8869267522065857e-33, 1.5421626032079654e-28, -2.3830456726280874e-31, 2.0911068073555956e-36, 0.0002719986322168122, 1.6950077525880438e-35, 5.740750989321385e-29, 4.545229049390408e-28, -4.317649535387914e-31, 4.385798050324542e-36, 1.6950077525880438e-35, 0.0002719986322168122, 1.3875516488625517e-29, 4.705723219883602e-24, -1.0542221263180117e-26, -1.8869267522065857e-33, 5.740750989321385e-29, 1.3875516485686782e-29, 0.1916938858787739]",,,,1.13859593953,7.96204450042e-22,-8.47427801685e-19,,1.26241688212e-18,2.88290591739e-18,-1.47548537323e-21,"[0.0037361899632744736, -4.8935891532730953e-26, -2.0155824481054584e-27, 6.029215354957855e-27, 1.432493553891613e-26, -1.0722575718558298e-29, -4.893589150865683e-26, 0.00022500199999949191, -1.5637430592363222e-34, -9.306322979452476e-39, -2.566223661609781e-38, 9.461567231121165e-42, -2.0155824481054584e-27, -1.5637430879349147e-34, 0.00036199897371799955, -1.562829318134014e-35, -2.332670511933277e-35, 2.444725479558962e-38, 6.029215354957855e-27, -9.306322979452476e-39, -1.5628293179938841e-35, 9.199590892420607e-05, 2.745357910630895e-35, -3.2642543696161517e-34, 1.4324935538916865e-26, -2.5662231010903953e-38, -2.332670511933277e-35, 2.7451995467385203e-35, 9.199590892420629e-05, 2.942022554668843e-34, -1.0722575721497033e-29, 9.461567231121165e-42, 2.444723237481419e-38, -3.264254599204892e-34, 2.942022554668843e-34, 0.00018000199999932548]"
10707000000,,91,,10,707000000,turtlebot2/odom,turtlebot2/base_footprint_distributed,,,,0.127634811707,1.88408422366e-13,-2.44358620768e-18,,1.33499762076e-18,3.46698732567e-18,1.93944855062e-13,1.0,"[0.16084272184834325, 4.9795027890181055e-17, 2.2815247651750373e-27, 5.139858157554752e-28, 3.55454099748714e-27, 9.843629873490954e-24, 4.9795027890181055e-17, 0.1606944211772253, -2.666790192256246e-28, -7.228845406697862e-31, -1.6594422036370043e-30, -1.316105277992559e-26, 2.281524765173568e-27, -2.666790192256476e-28, 0.0010819944785271504, -8.994918256872507e-35, -2.233940564048169e-34, -5.191394036697846e-31, 5.139858157554982e-28, -7.228845406697974e-31, -8.994918257012637e-35, 0.0005419890243688293, 5.519158346695505e-35, -8.696300683668127e-28, 3.55454099748714e-27, -1.659442203637049e-30, -2.233940564076195e-34, 5.519158346695505e-35, 0.0005419890243688293, 5.534903028056575e-28, 9.843629873490954e-24, -1.316105277992559e-26, -5.19139403669807e-31, -8.696300683667897e-28, 5.534903028056518e-28, 0.19277394420573507]",,,,0.454376939341,6.57431362336e-16,1.9035529246e-18,,1.56395991239e-17,4.95560876348e-18,7.40629690177e-16,"[0.0009230867362496594, 1.2764786999162786e-22, 1.4268627379252653e-28, 4.1224531568614235e-27, 1.8822728314609243e-27, 1.3042606407615682e-25, 1.2764786999162767e-22, 0.0006795482897585667, 3.5198073781344035e-28, -4.2565688085483225e-32, -2.0771525601784533e-32, -1.9950214167053468e-30, 1.426862737921592e-28, 3.51980737813436e-28, 0.0007219917413368202, 8.182233301971016e-34, 5.735909414900759e-35, 1.1340519638921615e-32, 4.1224531568614235e-27, -4.2565688085482525e-32, 8.182233301957003e-34, 0.00018196785269175976, 1.1653218226674348e-33, 8.63019976961898e-28, 1.8822728314609243e-27, -2.0771525601784533e-32, 5.735909414892e-35, 1.165331299890673e-33, 0.0001819678526917597, -5.4728280966410345e-28, 1.3042606407615663e-25, -1.9950214167053468e-30, 1.1340519638921965e-32, 8.63019976961904e-28, -5.4728280966410525e-28, 0.0005400019999993391]"
10808000000,,92,,10,807000000,turtlebot2/odom,turtlebot2/base_footprint_distributed,,,,0.149683621056,1.8542747748e-13,3.96039146805e-18,,1.48815697189e-18,2.0798977792e-18,2.4170197519e-13,1.0,"[0.1683131739340021, 4.933118162973591e-17, 6.956803495639301e-29, 1.4994104735646979e-27, 2.1335686666219527e-27, -3.2710767106563653e-24, 4.933118162973591e-17, 0.16815292565586928, 2.77844051922854e-29, -5.963535407060419e-31, -6.540046783976407e-31, -1.3635374652646426e-26, 6.956803495676035e-29, 2.778440519228684e-29, 0.0009619950276252861, 1.3379483609320576e-34, 1.1901138723157433e-34, 3.6790749836963272e-31, 1.499410473564606e-27, -5.963535407060307e-31, 1.3379483609180446e-34, 0.0004819901098865961, 1.963870172503727e-34, 2.4837712599580608e-28, 2.1335686666219068e-27, -6.540046783976071e-31, 1.1901138723157433e-34, 1.963870172503727e-34, 0.0004819901098865962, -4.5756045469236466e-29, -3.2710767106563653e-24, -1.3635374652646426e-26, 3.6790749836963272e-31, 2.483771259958032e-28, -4.575604546923754e-29, 0.20172134466747205]",,,,-0.330264071837,2.85795096043e-15,2.29946009607e-19,,-1.30504726202e-17,-1.18573550182e-17,-1.09332267384e-15,"[0.0013053705939532682, 3.6837207986159724e-23, 3.242954958040459e-28, -2.162866579769029e-27, -2.2743859126089692e-27, -1.2688676482412809e-25, 3.68372079861597e-23, 0.0006536888241596454, -2.9382562183705303e-29, -1.7822883021170764e-31, -1.359085086752034e-31, -7.5436267712774e-30, 3.242954958040459e-28, -2.9382562183704984e-29, 0.000641992560719046, 8.659921306680553e-35, 4.016588064608305e-35, 6.768381394254109e-34, -2.162866579769121e-27, -1.7822883021170764e-31, 8.659921306715585e-35, 0.00016197096489568304, 1.6681752940051944e-33, -2.4579520985797433e-28, -2.274385912609061e-27, -1.359085086752034e-31, 4.016588064608305e-35, 1.6681837372509335e-33, 0.00016197096489568304, 4.597589917221367e-29, -1.26886764824128e-25, -7.5436267712774e-30, 6.768381394254219e-34, -2.457952098579739e-28, 4.5975899172213606e-29, 0.0005200019999989958]"
10907000000,,93,,10,907000000,turtlebot2/odom,turtlebot2/base_footprint_distributed,,,,0.111580438219,1.72006171423e-13,-1.24366254983e-18,,-6.0612031717e-20,-6.35216276946e-19,2.76990123234e-13,1.0,"[0.17485090210702042, 6.432657676173532e-17, -7.010996275849639e-28, -2.98520591093442e-29, 2.683006239949755e-28, -1.0867559039843285e-23, 6.432657676173532e-17, 0.17466222247766627, 1.4720934511356446e-29, 3.2752159739683285e-32, 1.2811155516068782e-31, -1.4369144733880398e-26, -7.0109962758533125e-28, 1.4720934511356446e-29, 0.00042199959367937925, 4.3780146753316994e-36, 1.124495122326778e-35, -4.93645787150707e-31, -2.985205910936716e-29, 3.2752159739694495e-32, 4.3780146753316994e-36, 0.00021199918772433221, 4.5830963535126304e-36, 6.292799264790492e-29, 2.683006239949755e-28, 1.281115551607775e-31, 1.124495122326778e-35, 4.580157617635575e-36, 0.00021199918772433221, -4.5758943407576045e-29, -1.0867559039843285e-23, -1.4369144733880398e-26, -4.936457871503483e-31, 6.292799264808859e-29, -4.575894340766788e-29, 0.20952848541012134]",,,,-0.295370795422,1.43839028489e-21,-9.28078141793e-19,,2.33154573011e-18,-4.3980079883e-18,-2.29151328803e-21,"[0.004947318434442069, -2.599337457649422e-26, 6.187444999390209e-28, -1.523786140549667e-27, 2.2178509861523965e-27, 8.61048453197035e-31, -2.5993374588531283e-26, 0.00017500199999929272, -2.624112058993249e-35, -3.155396798338222e-38, 7.27988004682e-38, 1.9719071989978826e-41, 6.187444999390209e-28, -2.624110911049547e-35, 0.0002819993906363217, -2.458940540409076e-35, 6.877678305570968e-35, 2.3118868692960553e-38, -1.5237861405494833e-27, -3.155396798338222e-38, -2.458940540409076e-35, 7.199756749162343e-05, -1.3349825880240806e-34, -1.9147742274914439e-34, 2.2178509861523965e-27, 7.279882288897543e-38, 6.877678301086813e-35, -1.334957979429385e-34, 7.199756749162343e-05, 1.0862758219216885e-34, 8.61048453197035e-31, 1.9719071989978826e-41, 2.3118846272185124e-38, -1.9147744570801843e-34, 1.0862758219216885e-34, 0.00014000199999902267]"
11008000000,,94,,11,8000000,turtlebot2/odom,turtlebot2/base_footprint_distributed,,,,0.152374158375,1.9001349774e-13,2.71414248621e-18,,-2.79055862178e-19,-2.00990850142e-18,2.97552256739e-13,1.0,"[0.1758915985005682, 6.51930891259634e-17, 7.559770004286431e-27, -9.735131184422114e-29, -7.66726282463615e-28, -6.00701024305236e-24, 6.51930891259634e-17, 0.17571233186343826, -5.25478073781375e-29, -7.612466273729525e-32, -5.943299289523426e-31, -9.393869291029931e-27, 7.559770004284962e-27, -5.254780737813966e-29, 0.0012619929133931712, -7.939887408411208e-35, -1.7091638092089477e-34, 8.787040785750356e-31, -9.735131184422114e-29, -7.612466273729384e-32, -7.939887408481273e-35, 0.0006319859375189946, 1.0910165424249193e-34, -7.273611521077514e-28, -7.66726282463615e-28, -5.943299289523314e-31, -1.7091638092089477e-34, 1.091369190730166e-34, 0.0006319859375189947, 6.800106884715867e-29, -6.00701024305236e-24, -9.393869291029931e-27, 8.78704078575058e-31, -7.273611521077514e-28, 6.800106884715795e-29, 0.21078854715348433]",,,,0.330256299431,5.67877462996e-16,4.42606499044e-18,,1.88228941121e-19,6.42354917879e-18,1.1031162821e-15,"[0.0015077430297209243, -1.83155337472761e-22, -2.0999358827974863e-27, 1.9825537029279685e-29, -1.5370455641900226e-28, -2.92251440628654e-26, -1.83155337472761e-22, 0.0007065001443384391, 4.473854089808905e-29, -7.118630896973125e-33, -3.3363368120902206e-32, -2.0671559261808856e-30, -2.0999358827974633e-27, 4.473854089808941e-29, 0.0008419894086824897, 9.432570428298148e-35, 3.5465092228933916e-34, 3.0807653035854433e-32, 1.982553702928112e-29, -7.118630896973125e-33, 9.432570428306906e-35, 0.00021195908442743993, 2.572743326782515e-34, 7.197447073861273e-28, -1.5370455641899652e-28, -3.336336812090203e-32, 3.5465092228933916e-34, 2.5726257592251405e-34, 0.00021195908442743993, -6.859058075563185e-29, -2.922514406286542e-26, -2.0671559261808856e-30, 3.0807653035854433e-32, 7.197447073861276e-28, -6.859058075563192e-29, 0.0005600019999990031]"
11108000000,,95,,11,108000000,turtlebot2/odom,turtlebot2/base_footprint_distributed,,,,0.203911616885,2.17483060381e-13,2.4175869477e-19,,-1.71342192992e-18,9.83822906717e-19,3.18790895218e-13,1.0,"[0.18239975153145177, 7.533433528114503e-17, -5.081432400753158e-28, 2.2591509740484127e-27, -9.885198330514292e-28, -3.243787761018101e-23, 7.533433528114503e-17, 0.18222000661460094, -9.624643722388175e-30, 3.871757209231693e-31, -2.356359125090801e-31, -1.3168068208963679e-26, -5.081432400753158e-28, -9.624643723122859e-30, 0.0005419976253292641, -2.8740461773828104e-35, 4.126176630970572e-36, 2.696976380119032e-31, 2.259150974048321e-27, 3.8717572092314687e-31, -2.8740461773828104e-35, 0.0002719952631525508, -9.062058142044311e-35, -3.757959426560591e-30, -9.885198330513832e-28, -2.356359125090689e-31, 4.12617663079541e-36, -9.062352015632016e-35, 0.0002719952631525508, -2.8410606478387363e-30, -3.243787761018101e-23, -1.3168068208963679e-26, 2.6969763801188076e-31, -3.757959426560591e-30, -2.8410606480224073e-30, 0.2185940774506691]",,,,0.407969852145,1.37655672899e-22,-3.59554238886e-18,,-5.29705289936e-18,6.09637985611e-19,-1.10140116074e-21,"[0.0015940012539469085, -6.791417572174523e-27, 3.806754662952916e-27, 4.360806959191088e-27, -1.264098905018516e-27, 1.710758836161661e-30, -6.791417569165257e-27, 0.00022500199999927074, -2.5750872111566825e-34, 1.4492174347666842e-37, -3.262671520716451e-38, 4.717331150303064e-41, 3.8067546629530994e-27, -2.5750872111566825e-34, 0.0003619964424938677, 3.3613915216805917e-34, -2.588199279549324e-35, 5.659453254876697e-38, 4.36080695919118e-27, 1.4492174347666842e-37, 3.3613915216805917e-34, 9.198593695840482e-05, 6.284623048974115e-35, 9.311901918581747e-36, -1.264098905018539e-27, -3.2626716608462974e-38, -2.588199279549324e-35, 6.284944530366129e-35, 9.198593695840487e-05, 5.270715348460403e-34, 1.710758836529003e-30, 4.717331150303064e-41, 5.659453254876697e-38, 9.311901201116934e-36, 5.270715348460403e-34, 0.00018000199999899979]"
11207000000,,96,,11,207000000,turtlebot2/odom,turtlebot2/base_footprint_distributed,,,,0.243293825847,2.86120486414e-13,2.71849423275e-18,,1.41513872982e-18,1.54741520237e-18,2.78050709989e-13,1.0,"[0.18745428799119868, 7.497974322425587e-17, 2.6256446270444716e-27, 1.4911052309307628e-27, 1.6884649236942356e-27, -3.0879712296452685e-23, 7.497974322425587e-17, 0.187271682290736, -1.4149994349380203e-29, 4.351888228762623e-31, 6.514173514495685e-31, -1.252835954643262e-26, 2.625644627044839e-27, -1.4149994349196532e-29, 0.000661997506924208, 7.158098374522836e-35, 1.2242179515507328e-34, -2.3782828246234836e-31, 1.491105230930671e-27, 4.351888228762623e-31, 7.158098375083356e-35, 0.00033199502761537274, 1.5008624627577617e-34, 7.719147610094318e-31, 1.6884649236941438e-27, 6.514173514495461e-31, 1.2242179516067848e-34, 1.5008330753989911e-34, 0.00033199502761537274, 4.632932624867062e-31, -3.0879712296452685e-23, -1.252835954643262e-26, -2.378282824623708e-31, 7.719147611931028e-31, 4.632932624867062e-31, 0.22465510878785572]",,,,0.407689221162,4.9942383326e-22,-2.09936653037e-18,,-2.98502106127e-18,-1.85582244937e-18,-6.19439525456e-22,"[0.0013412599191539966, -2.6713511882536104e-27, -1.4893604037275016e-27, -3.0017710474162062e-27, -1.995799088471778e-27, -1.1078081505471749e-30, -2.6713511882536104e-27, 0.0002750019999988389, -2.948159084582158e-34, 2.846750967448969e-39, -1.7283093056351448e-40, -2.4207430971211215e-42, -1.489360403727318e-27, -2.948159083685327e-34, 0.0004419962652558873, 7.337595066449021e-35, 6.775245594173256e-35, 2.2623361148184512e-38, -3.0017710474161603e-27, 2.846750967448969e-39, 7.337595066449021e-35, 0.00011198524503804811, 1.7028667193198337e-34, 1.1612531975089029e-33, -1.995799088471801e-27, -1.7283093056351448e-40, 6.775245594243321e-35, 1.7028730850964584e-34, 0.00011198524503804811, 5.830601956232716e-34, -1.1078081505471749e-30, -2.4207430971211215e-42, 2.2623361148184512e-38, 1.161253197480877e-33, 5.830601955335885e-34, 0.0002200019999984695]"
11307000000,,97,,11,307000000,turtlebot2/odom,turtlebot2/base_footprint_distributed,,,,0.282120136004,3.69065806212e-13,-5.13203996977e-18,,1.95605948e-18,1.84697579831e-18,2.89181069262e-13,1.0,"[0.19245871434375056, 7.736913027058504e-17, 2.089715925015786e-27, -8.97806176892087e-28, -7.488818665780796e-28, -1.712906285072111e-23, 7.736913027058504e-17, 0.1922736947630713, 8.813968641914219e-30, 4.163186298975888e-31, 7.032786382371824e-31, -1.2743756188845686e-26, 2.0897159250159696e-27, 8.81396864209789e-30, 0.00048199783132447894, -2.3390665025147666e-34, -2.190311763134193e-34, 2.1906605639117345e-31, -8.978061768921788e-28, 4.163186298975888e-31, -2.3390665025147666e-34, 0.00024199567306945082, 1.5221816140133586e-34, 2.16229019208099e-30, -7.488818665780796e-28, 7.032786382370927e-31, -2.190311763134193e-34, 1.5221669203339733e-34, 0.0002419956730694506, -2.2730471182803328e-30, -1.712906285072111e-23, -1.2743756188845686e-26, 2.190660563911062e-31, 2.1622901921728256e-30, -2.2730471182803328e-30, 0.2306563892960352]",,,,0.399800503224,2.77072084797e-21,-1.84634424368e-18,,-7.05185937743e-19,-2.5823122338e-20,7.593303741e-22,"[0.0013455537662859357, -3.298955890867012e-27, -8.599875908193862e-28, -5.145004481291696e-28, -2.457267902223555e-28, 3.0853912180716545e-31, -3.2989558916193284e-27, 0.00020000199999892134, 1.7528352838440383e-34, -1.335906836454638e-38, 1.2570924158219225e-38, 2.45227231256843e-42, -8.599875908193402e-28, 1.7528352820503763e-34, 0.00032199675076106916, -8.671583837462748e-36, -1.7764418727263938e-35, -8.268958541894385e-39, -5.145004481291581e-28, -1.3359068714870995e-38, -8.671583837375166e-36, 8.198714237121421e-05, -8.496824719905788e-36, 3.984922531012791e-34, -2.4572679022234976e-28, 1.2570924158219225e-38, -1.7764418727088776e-35, -8.496862469112899e-36, 8.198714237121424e-05, -3.407259323558683e-34, 3.0853912180716545e-31, 2.4515716633362675e-42, -8.268958541894385e-39, 3.984922527425467e-34, -3.407259319971359e-34, 0.00016000199999856085]"
